GPS LATITUDE (degrees), GPS LONGITUDE (degrees), GPS ALTITUDE (m), GPS SPEED (Kmh), GPS ACCURACY (m), GPS ORIENTATION (Â°),GPS SATELLITES IN RANGE, TIME SINCE START (ms), DATE (YYYY-MO-DD HH-MI-SS_SSS), ACCELEROMETER X (m/s²) , ACCELEROMETER Y (m/s²), ACCELEROMETER Z (m/s²), GRAVITY X (m/s²), GRAVITY Y (m/s²), GRAVITY Z (m/s²), GYROSCOPE Yaw (rad/s), GYROSCOPE Pitch (rad/s), GYROSCOPE Roll (rad/s), MAGNETIC FIELD X (Î¼T), MAGNETIC FIELD Y (Î¼T), MAGNETIC FIELD Z (Î¼T), ORIENTATION (Yaw) (Â°), ORIENTATION (Pitch) (Â°), ORIENTATION (Roll ) (Â°)
52.37045,-1.254437,172.42,11.61,3,191.12,16 / 18,2503320,2019-09-04 20:03:03:493,0.2529,0.595,9.6234,0.0025,-0.0016,9.8066,0.0075,0.0172,0.001,-2,-29.37,24,28.23,-86.15,-149.25
52.37045,-1.254437,172.42,11.61,3,191.12,16 / 18,2503421,2019-09-04 20:03:03:594,-0.4643,0.5834,10.1057,0.013,0.0013,9.8066,-0.0113,0.0254,-0.0139,-1.87,-30.06,24.13,27.46,-86.15,-150.04
52.37045,-1.254437,172.42,11.61,3,191.12,16 / 18,2503520,2019-09-04 20:03:03:693,-0.1382,0.8904,10.0458,0.0097,0.0012,9.8066,0.0149,-0.0039,-0.0281,-1.75,-30.06,23.69,25.01,-86.26,-152.24
52.37045,-1.254437,172.42,11.61,3,191.12,16 / 18,2503620,2019-09-04 20:03:03:793,0.33,0.7523,9.8437,0.0072,-0.0071,9.8066,0.021,-0.0013,-0.0243,-1.62,-30.31,24.38,22.47,-86.24,-154.6
52.37045,-1.254437,172.42,11.61,3,191.12,16 / 18,2503720,2019-09-04 20:03:03:893,-0.1227,0.6595,9.4913,0.0061,-0.0007,9.8066,-0.0101,0.0058,-0.033,-1.94,-30.19,24.5,21.04,-86.2,-156.06
52.37045,-1.254437,172.42,11.61,3,191.12,16 / 18,2503820,2019-09-04 20:03:03:993,0.4129,0.6143,9.4922,0.011,0.009,9.8066,-0.0425,0.0253,-0.0063,-1.81,-30.69,24.56,18.73,-86.33,-158.19
52.37045,-1.254437,172.42,11.61,3,191.12,16 / 18,2503921,2019-09-04 20:03:04:094,-0.0291,0.5648,9.5076,0.0002,0.0124,9.8066,-0.0136,0.0037,-0.025,-1.81,-30.44,23.81,18.51,-86.6,-158.1
52.37045,-1.254437,172.42,11.61,3,191.12,16 / 18,2504021,2019-09-04 20:03:04:194,-0.0239,0.5677,9.6722,0.0025,0.0034,9.8066,-0.0165,0.033,0.0211,-2.06,-30.56,25,18.87,-86.7,-157.9
52.37045,-1.254437,172.42,11.61,3,191.12,16 / 18,2504121,2019-09-04 20:03:04:294,0.2191,0.6469,9.5619,-0.0022,0.0027,9.8066,-0.0076,0.0075,0.0075,-1.94,-29.87,24.5,19.95,-86.75,-156.83
52.37045,-1.254437,172.42,11.61,3,191.12,16 / 18,2504220,2019-09-04 20:03:04:393,0.1699,0.7119,10.1995,-0.0029,0.0018,9.8066,0.0006,-0.0049,-0.0216,-1.5,-30.12,23.81,23.45,-86.75,-155.81
52.37045,-1.254437,172.42,11.61,3,191.12,17 / 18,2504320,2019-09-04 20:03:04:493,-0.013,1.0938,10.0342,0.0008,-0.0002,9.8066,-0.0051,0.0258,0.0049,-1.81,-30.31,24.38,21.77,-86.75,-155
52.37045,-1.254437,172.42,11.61,3,191.12,17 / 18,2504421,2019-09-04 20:03:04:594,0.1139,0.8631,10.258,0.0057,-0.0033,9.8066,0.0001,0.0215,0.0041,-1.12,-30.37,23.75,24.24,-86.78,-155.06
52.37045,-1.254437,172.42,11.61,3,191.12,17 / 18,2504520,2019-09-04 20:03:04:693,-0.256,1.2175,9.4468,0.0008,0.0006,9.8066,0.0045,0.0132,-0.0132,-2.12,-30.81,23.75,20.64,-86.78,-156.09
52.37045,-1.254437,172.42,11.61,3,191.12,17 / 18,2504621,2019-09-04 20:03:04:794,-0.0592,1.2136,9.5343,0.0057,0.0073,9.8066,-0.0198,0.0226,-0.0121,-2,-30.62,23.56,20.33,-86.82,-156.36
52.37045,-1.254437,172.42,11.61,3,191.12,17 / 18,2504720,2019-09-04 20:03:04:893,0.3657,1.2265,10.01,0.0055,0.0064,9.8066,-0.0222,0.0499,0.0228,-2.19,-31.06,23.25,19.29,-86.93,-157.13
52.37045,-1.254437,172.42,11.61,3,191.12,17 / 18,2504820,2019-09-04 20:03:04:993,-0.3017,1.7577,9.698,0.0021,0.0043,9.8066,-0.0094,0.0154,-0.0049,-2.69,-30.5,23.56,17.63,-87.04,-156.38
52.37045,-1.254437,172.42,11.61,3,191.12,17 / 18,2504920,2019-09-04 20:03:05:093,-0.0556,1.6839,9.7438,0.0003,0.0027,9.8066,0.0037,-0.0126,-0.0462,-3.06,-31.25,23.69,17.47,-87.11,-156.54
52.37045,-1.254437,172.42,11.61,3,191.12,17 / 18,2505020,2019-09-04 20:03:05:193,-0.2612,1.4485,10.3896,0.0037,-0.0009,9.8066,0.013,0.0052,-0.0272,-2.75,-31.31,24.25,16.48,-87.13,-157.46
52.37045,-1.254437,172.42,11.61,3,191.12,17 / 18,2505120,2019-09-04 20:03:05:293,0.0893,1.4232,10.0766,0.0134,-0.0005,9.8066,-0.0033,0.0434,0.0014,-3.44,-30.69,24,14.23,-87.15,-159.56
52.37045,-1.254437,172.42,11.61,3,191.12,17 / 18,2505221,2019-09-04 20:03:05:394,-0.2212,2.2261,10.3877,0.0142,0.0025,9.8066,-0.0064,0.0431,-0.0137,-2.5,-30.87,24.75,15.72,-87.2,-160.66
52.37045,-1.254437,172.42,11.61,3,191.12,17 / 18,2505320,2019-09-04 20:03:05:493,0.2841,2.7702,9.6142,0.0202,-0.0038,9.8065,0.0372,0.0062,-0.0851,-2.31,-30.44,24.88,12.48,-87.25,-163.67
52.37045,-1.254437,172.42,11.61,3,191.12,17 / 18,2505421,2019-09-04 20:03:05:594,0.4149,2.0622,9.2626,0.0139,-0.0059,9.8066,0.0106,0.0492,-0.0038,-1.94,-30.75,24.63,4.9,-87.19,-170.83
52.37045,-1.254437,172.42,11.61,3,191.12,17 / 18,2505520,2019-09-04 20:03:05:693,0.1767,2.1682,9.0626,-0.0095,0.0068,9.8066,-0.0261,0.02,0.0017,-2,-30.75,24.13,3.43,-87.2,-172.03
52.37045,-1.254437,172.42,11.61,3,191.12,17 / 18,2505621,2019-09-04 20:03:05:794,0.4757,2.3085,9.7135,0.0033,0.0175,9.8066,-0.0257,0.0527,0.0038,-2,-31,24.63,5.81,-87.39,-169.95
52.37045,-1.254437,172.42,11.61,3,191.12,17 / 18,2505720,2019-09-04 20:03:05:893,0.483,2.5718,9.5212,-0.0083,0.0054,9.8066,0.0012,0.0626,0.03,-2.44,-30.25,24.81,5.96,-87.58,-169.77
52.37045,-1.254437,172.42,11.61,3,191.12,17 / 18,2505820,2019-09-04 20:03:05:993,0.395,2.0085,9.5415,-0.0066,-0.0097,9.8066,0.03,0.0321,0.011,-1.81,-30.75,24.13,8.1,-87.49,-167.6
52.37045,-1.254437,172.42,11.61,3,191.12,17 / 18,2505921,2019-09-04 20:03:06:094,0.2427,2.2513,9.5478,-0.0081,-0.0057,9.8066,0.0075,0.0456,0.0169,-2.37,-30.19,24.44,8.53,-87.37,-167.2
52.37045,-1.254437,172.42,11.61,3,191.12,17 / 18,2506021,2019-09-04 20:03:06:194,0.0817,2.3493,9.9376,-0.0073,0.0035,9.8066,-0.0082,0.0745,0.0258,-2.12,-30.44,24.19,11.62,-87.33,-164.3
52.37045,-1.254437,172.42,11.61,3,191.12,17 / 18,2506121,2019-09-04 20:03:06:294,0.248,2.6094,9.5912,-0.0064,0.0067,9.8066,-0.0053,0.0358,-0.0118,-2.31,-30,24,12.23,-87.41,-163.7
52.37045,-1.254437,172.42,11.61,3,191.12,17 / 18,2506220,2019-09-04 20:03:06:393,-0.0686,2.3474,9.5706,0.0009,0.0045,9.8066,-0.0142,0.0617,0.0157,-2,-30.44,24.38,12.74,-87.46,-163.21
52.37045,-1.254437,172.42,11.61,3,191.12,16 / 18,2506322,2019-09-04 20:03:06:495,0.075,2.0939,10.2293,-0.0017,0.0048,9.8066,-0.005,0.0055,-0.0296,-2.37,-30.69,23.81,15.09,-87.55,-160.98
52.37045,-1.254437,172.42,11.61,3,191.12,16 / 18,2506421,2019-09-04 20:03:06:594,0.2862,2.3187,10.0322,-0.0063,0.0023,9.8066,0.0162,0.0271,-0.0094,-2.31,-30.81,25.06,15.65,-87.59,-160.59
52.37045,-1.254437,172.42,11.61,3,191.12,16 / 18,2506520,2019-09-04 20:03:06:693,0.2881,2.4386,9.6325,-0.0021,0.002,9.8066,0.0031,0.0556,0.0089,-2.5,-31,24.13,16.27,-87.59,-159.85
52.37045,-1.254437,172.42,11.61,3,191.12,16 / 18,2506621,2019-09-04 20:03:06:794,0.417,2.3697,9.7962,-0.0067,0.0056,9.8066,-0.0049,0.0301,-0.0077,-2.37,-30.44,24.88,18.14,-87.6,-158.19
52.37045,-1.254437,172.42,11.61,3,191.12,16 / 18,2506720,2019-09-04 20:03:06:893,0.1074,2.2737,10.0542,0.0012,0.0042,9.8066,-0.0036,0.0861,0.0394,-2.62,-30.44,25,17.71,-87.67,-156.3
52.37045,-1.254437,172.42,11.61,3,191.12,16 / 18,2506820,2019-09-04 20:03:06:993,-0.0934,2.1027,9.5203,0.0012,0.0002,9.8066,0.0158,0.043,-0.0173,-3.06,-30.19,24.31,18.98,-87.71,-154.83
52.37045,-1.254437,172.42,11.61,3,191.12,16 / 18,2506920,2019-09-04 20:03:07:093,0.4887,1.8211,9.6451,-0.0002,-0.0005,9.8066,0.0082,0.0634,0.0131,-2.5,-30.56,25.13,21.17,-87.71,-155.3
52.37045,-1.254437,172.42,11.61,3,191.12,16 / 18,2507020,2019-09-04 20:03:07:193,0.2325,1.837,9.9656,-0.0031,-0.0007,9.8066,0.0135,0.067,0.0136,-3.25,-30.87,24.31,19.84,-87.68,-154.05
52.37045,-1.254437,172.42,11.61,3,191.12,16 / 18,2507121,2019-09-04 20:03:07:294,0.221,2.032,9.4717,-0.0031,0.0038,9.8066,0.0038,0.042,-0.0161,-3.62,-30.94,24.69,18.3,-87.68,-153.51
52.37045,-1.254437,172.42,11.61,3,191.12,16 / 18,2507221,2019-09-04 20:03:07:394,-0.203,2.1673,9.6471,0.0049,0.0041,9.8066,-0.0127,0.0703,0.0177,-3.75,-30.56,25.13,20,-87.74,-151.87
52.37045,-1.254437,172.42,11.61,3,191.12,18 / 19,2507322,2019-09-04 20:03:07:495,-0.0092,1.438,9.8615,-0.0051,0.0059,9.8066,0.0004,0.0466,0.0071,-3.75,-31.81,24.06,23.12,-87.81,-148.56
52.37045,-1.254437,172.42,11.61,3,191.12,18 / 19,2507421,2019-09-04 20:03:07:594,0.2014,1.4899,9.5726,0.0013,0.006,9.8066,-0.0084,0.0438,-0.0069,-3.87,-30.56,24.75,25.75,-87.88,-146.3
52.37045,-1.254437,172.42,11.61,3,191.12,18 / 19,2507520,2019-09-04 20:03:07:693,-0.2167,1.5081,9.712,-0.0094,0.0033,9.8066,0.0077,0.043,-0.002,-3.75,-31,24.31,27.92,-87.94,-143.86
52.37045,-1.254437,172.42,11.61,3,191.12,18 / 19,2507621,2019-09-04 20:03:07:794,0.0625,1.2141,9.8495,0.0008,0.0032,9.8066,-0.0002,0.0489,-0.0144,-3.69,-31.31,25,28.76,-87.96,-143.36
52.37045,-1.254437,172.42,11.61,3,191.12,18 / 19,2507721,2019-09-04 20:03:07:894,0.3727,1.2352,10.0705,0.0029,0.0029,9.8066,0.0046,0.0492,0.0012,-4,-30.69,24.81,28.81,-88.01,-143.29
52.37045,-1.254437,172.42,11.61,3,191.12,18 / 19,2507821,2019-09-04 20:03:07:994,0.3716,1.4193,9.6896,-0.0047,0.0065,9.8066,-0.0107,0.0425,0.0101,-3.12,-31,25.5,32.28,-88.04,-142.39
52.37045,-1.254437,172.42,11.61,3,191.12,18 / 19,2507921,2019-09-04 20:03:08:094,-0.0356,1.444,9.8484,-0.0074,0.0059,9.8066,0.0089,0.0367,-0.0002,-4.06,-31.5,25.56,34.52,-88.08,-138.03
52.37045,-1.254437,172.42,11.61,3,191.12,18 / 19,2508020,2019-09-04 20:03:08:193,0.1297,1.3122,9.6825,0.001,0.0038,9.8066,0.0116,0.0515,0.0051,-4.12,-30.56,25.13,35.41,-88.09,-136.86
52.37045,-1.254437,172.42,11.61,3,191.12,18 / 19,2508121,2019-09-04 20:03:08:294,-0.1882,1.1586,9.6272,-0.0033,0.0038,9.8066,0.0041,0.0463,0.0028,-4.31,-29.87,25.5,36.48,-88.14,-136.06
52.37045,-1.254437,172.42,11.61,3,191.12,18 / 19,2508223,2019-09-04 20:03:08:396,-0.0234,1.198,10.0111,-0.0013,0.0055,9.8066,0.0087,0.0441,-0.0008,-4.31,-29.87,24.94,37.39,-88.18,-134.84
52.37045,-1.254437,172.42,11.61,3,191.12,17 / 19,2508320,2019-09-04 20:03:08:493,-0.1257,0.7791,10.177,0.0012,-0.0013,9.8066,0.0101,0.0449,0.0057,-4.62,-29.31,24.44,35.31,-88.19,-134.17
52.37045,-1.254437,172.42,11.61,3,191.12,17 / 19,2508421,2019-09-04 20:03:08:594,0.0905,0.6526,9.7167,0.0023,0.0009,9.8066,0.0036,0.0428,0.0011,-5.06,-29.87,24.63,35.54,-88.19,-134.4
52.37045,-1.254437,172.42,11.61,3,191.12,17 / 19,2508520,2019-09-04 20:03:08:693,0.0179,0.8937,9.6196,0.002,0.0074,9.8066,-0.0014,0.0456,-0.0031,-4.37,-29.69,24.75,38.71,-88.26,-133.5
52.37045,-1.254437,172.42,11.61,3,191.12,17 / 19,2508620,2019-09-04 20:03:08:793,0.2087,1.1344,10.0683,0.0014,0.0053,9.8066,0.017,0.0483,0.0117,-4.31,-30.37,24.75,39.71,-88.32,-132.48
52.37045,-1.254437,172.42,11.61,3,191.12,17 / 19,2508720,2019-09-04 20:03:08:893,-0.319,0.3792,9.6533,-0.0007,-0.0009,9.8066,0.0058,0.0489,0.0038,-4.87,-30.62,24.25,37.15,-88.3,-132.39
52.37045,-1.254437,172.42,11.61,3,191.12,17 / 19,2508821,2019-09-04 20:03:08:994,0.0551,0.1159,9.6129,0.0053,0.0015,9.8066,0.0007,0.0271,-0.0229,-4.81,-30.44,24.94,37.47,-88.34,-132.42
52.37045,-1.254437,172.42,11.61,3,191.12,17 / 19,2508921,2019-09-04 20:03:09:094,0.0463,0.5569,9.8938,0.0046,0.0085,9.8066,0.001,0.0411,-0.009,-4.75,-30.5,25.31,36.52,-88.42,-133.29
52.37045,-1.254437,172.42,11.61,3,191.12,17 / 19,2509020,2019-09-04 20:03:09:193,0.1983,0.3725,10.0976,0.0011,0.0021,9.8066,0.0182,0.035,-0.0051,-5.06,-29.94,25.19,36.72,-88.52,-133.02
52.37045,-1.254437,172.42,11.61,3,191.12,17 / 19,2509120,2019-09-04 20:03:09:293,0.1387,0.2171,9.8346,-0.0016,-0.0001,9.8066,0.0045,0.0398,0.0019,-4.69,-29.5,24,35.41,-88.52,-133.85
52.37045,-1.254437,172.42,11.61,3,191.12,17 / 19,2509221,2019-09-04 20:03:09:394,-0.0929,0.283,10.0272,0.0005,0.0073,9.8066,-0.0072,0.0539,-0.0033,-4.94,-29.5,24.44,36.48,-88.55,-132.78
52.37045,-1.254437,172.42,11.61,3,191.12,17 / 18,2509320,2019-09-04 20:03:09:493,-0.0094,0.2628,9.8376,0.0005,0.0015,9.8066,0.0131,0.0421,-0.0098,-5,-29.5,24.81,38.07,-88.62,-131.6
52.37045,-1.254437,172.42,11.61,3,191.12,17 / 18,2509420,2019-09-04 20:03:09:593,-0.0939,0.2237,9.6178,0.002,0.0012,9.8066,0.0072,0.0389,-0.0125,-4.81,-30.81,24.63,37.79,-88.65,-131.92
52.37045,-1.254437,172.42,11.61,3,191.12,17 / 18,2509521,2019-09-04 20:03:09:694,0.0362,0.4648,9.9758,0,0.0066,9.8066,0.0019,0.0311,-0.0067,-4.94,-30.25,24.88,37.46,-88.74,-132.13
52.37045,-1.254437,172.42,11.61,3,191.12,17 / 18,2509620,2019-09-04 20:03:09:793,0.1485,0.3783,9.8551,0.0005,0.0016,9.8066,0.0088,0.0388,-0.0014,-5.06,-29.81,24.88,38.39,-88.79,-131.2
52.37045,-1.254437,172.42,11.61,3,191.12,17 / 18,2509720,2019-09-04 20:03:09:893,0.0492,0.3277,9.7286,-0.0002,0,9.8066,0.0031,0.0422,0.0279,-5.31,-29.94,24.94,37.95,-88.8,-131.62
52.37045,-1.254437,172.42,11.61,3,191.12,17 / 18,2509821,2019-09-04 20:03:09:994,-0.0237,0.0727,9.8778,-0.0001,0.0038,9.8066,-0.0033,0.0272,-0.0081,-4.37,-29.94,24.75,41.53,-88.78,-130.34
52.37045,-1.254437,172.42,11.61,3,191.12,17 / 18,2509921,2019-09-04 20:03:10:094,0.0549,-0.0873,10.1112,0.0018,0.0044,9.8066,0.0061,0.0435,-0.0016,-5.5,-30.12,25.19,41.35,-88.83,-128.25
52.37045,-1.254437,172.42,11.61,3,191.12,17 / 18,2510020,2019-09-04 20:03:10:193,0.161,-0.3975,9.9184,0.0043,-0.0049,9.8066,0.0274,0.045,0.0024,-5.5,-29.5,24.63,39.48,-88.85,-130.05
52.37045,-1.254437,172.42,11.61,3,191.12,17 / 18,2510121,2019-09-04 20:03:10:294,0.1424,-0.5142,9.7269,-0.0012,-0.0013,9.8066,0.0034,0.0312,0.0007,-6.06,-29.87,24.88,34.39,-88.8,-132.91
52.37045,-1.254437,172.42,11.61,3,191.12,17 / 18,2510220,2019-09-04 20:03:10:393,0.0799,-0.478,10.249,-0.0007,0.0067,9.8066,-0.0008,0.0268,-0.0085,-4.5,-30.81,25.31,42.31,-88.83,-129.57
52.37045,-1.254437,172.42,11.61,3,191.12,18 / 19,2510320,2019-09-04 20:03:10:493,0.0295,-0.3946,10.3933,0.0023,0.0015,9.8066,0.0147,0.038,-0.0134,-5.37,-30.5,25.25,41.19,-88.9,-128.36
52.37045,-1.254437,172.42,11.61,3,191.12,18 / 19,2510420,2019-09-04 20:03:10:593,0.1372,-0.9553,9.5473,0.0058,-0.0042,9.8066,0.0215,0.0407,-0.0148,-5.87,-30.37,24.81,34.41,-88.92,-132.81
52.37045,-1.254437,172.42,11.61,3,191.12,18 / 19,2510521,2019-09-04 20:03:10:694,0.5439,-0.9058,9.3012,0.0064,0.0017,9.8066,0.0012,0.031,-0.0086,-6.12,-29.69,25.38,28.56,-88.96,-138.53
52.37045,-1.254437,172.42,11.61,3,191.12,18 / 19,2510620,2019-09-04 20:03:10:793,0.8473,-1.0408,9.7969,-0.0031,0.0019,9.8066,-0.0056,0.051,0.0293,-6.19,-30.12,25.38,29.51,-88.98,-137.58
52.37045,-1.254437,172.42,11.61,3,191.12,18 / 19,2510721,2019-09-04 20:03:10:894,0.1538,-1.089,10.2383,-0.0061,-0.0009,9.8066,0.0126,0.0348,0.0013,-5.81,-30.06,24.88,37.29,-88.9,-130
52.37045,-1.254437,172.42,11.61,3,191.12,18 / 19,2510821,2019-09-04 20:03:10:994,-0.215,-1.5344,11.0933,0.0049,-0.0015,9.8066,0.0117,0.0593,-0.0027,-5.94,-29.75,24.88,38,-88.85,-129.33
52.37045,-1.254437,172.42,11.61,3,191.12,18 / 19,2510921,2019-09-04 20:03:11:094,-0.0341,-1.4529,10.6826,0.0049,-0.0015,9.8066,0.031,0.0563,-0.0192,-6.12,-29.62,25.13,36.55,-88.86,-130.75
52.37045,-1.254437,172.42,11.61,3,191.12,18 / 19,2511021,2019-09-04 20:03:11:194,0.3556,-1.4607,9.4402,0.0142,-0.0063,9.8066,0.0139,0.0572,-0.0218,-5.69,-30.44,25.75,14.44,-88.92,-152.87
52.37045,-1.254437,172.42,11.61,3,191.12,18 / 19,2511120,2019-09-04 20:03:11:293,0.9992,-0.7353,8.8586,0.0041,-0.001,9.8066,0.0143,0.0364,-0.0092,-6.44,-30.5,25.56,5.93,-88.9,-161.2
52.37045,-1.254437,172.42,11.61,3,191.12,18 / 19,2511220,2019-09-04 20:03:11:393,0.2889,-0.3102,9.6687,-0.0071,0.0033,9.8066,-0.0095,0.0557,0.0239,-6.69,-30.06,25.31,4.81,-88.89,-159.65
52.37045,-1.254437,172.42,11.61,3,191.12,17 / 18,2511320,2019-09-04 20:03:11:493,-0.132,-0.275,10.2867,-0.0088,0.006,9.8066,-0.034,0.0529,0.0199,-6.06,-29.69,26.06,13.73,-88.9,-153.57
52.37045,-1.254437,172.42,11.61,3,191.12,17 / 18,2511421,2019-09-04 20:03:11:594,-0.5041,1.2846,10.258,-0.004,0.0231,9.8065,-0.0531,0.0481,-0.0173,-6.19,-29.56,25.81,25.12,-89.05,-142.34
52.37045,-1.254437,172.42,11.61,3,191.12,17 / 18,2511520,2019-09-04 20:03:11:693,-0.3427,1.9502,9.9239,0.0029,0.0233,9.8065,-0.0485,0.066,-0.0058,-6.69,-29.37,24.56,38.58,-89.38,-126.21
52.37045,-1.254437,172.42,11.61,3,191.12,17 / 18,2511621,2019-09-04 20:03:11:794,-0.2243,2.1392,9.9637,0.0027,0.0027,9.8066,0.0054,0.0415,-0.0019,-6.75,-29.94,24.81,48.31,-89.51,-116.47
52.37045,-1.254437,172.42,11.61,3,191.12,17 / 18,2511721,2019-09-04 20:03:11:894,-0.2944,2.2983,9.4232,-0.0016,-0.0095,9.8066,0.0253,0.0535,0.0291,-6.19,-29.94,24.81,42.97,-89.5,-123.93
52.37045,-1.254437,172.42,11.61,3,191.12,17 / 18,2511821,2019-09-04 20:03:11:994,-0.8842,2.8111,9.7264,-0.0063,-0.003,9.8066,-0.0027,0.0371,0.0132,-6.62,-30.56,25.19,41.14,-89.4,-123.69
52.37045,-1.254437,172.42,11.61,3,191.12,17 / 18,2511921,2019-09-04 20:03:12:094,-1.1914,3.0088,9.799,-0.0069,0.0064,9.8066,-0.0178,0.0287,0.001,-6.81,-30.25,24.75,46.87,-89.36,-118.03
52.37045,-1.254437,172.42,11.61,3,191.12,17 / 18,2512021,2019-09-04 20:03:12:194,-1.1848,3.2101,9.7594,0.0003,0.0052,9.8066,-0.0087,0.0335,0.0107,-7.56,-30.19,24.56,59.32,-89.36,-103.57
52.37045,-1.254437,172.42,11.61,3,191.12,17 / 18,2512120,2019-09-04 20:03:12:293,-1.0567,3.5107,9.7567,-0.0017,0.0032,9.8066,-0.0016,0.024,-0.0021,-7.19,-30.31,24.56,68.59,-89.37,-96.45
52.37045,-1.254437,172.42,11.61,3,191.12,17 / 18,2512220,2019-09-04 20:03:12:393,-1.0859,3.327,9.6777,-0.0006,0.0042,9.8066,-0.0007,0.0341,0.0056,-6.69,-30,24.94,72.94,-89.38,-92.1
52.369873,-1.254496,173.35,3.25,3,171.51,17 / 18,2512321,2019-09-04 20:03:12:494,-1.0389,3.5221,10.0524,-0.0022,0.0021,9.8066,-0.0064,0.0208,0.0014,-6.62,-30.12,25.06,77.11,-89.4,-87.92
52.369873,-1.254496,173.35,3.25,3,171.51,17 / 18,2512420,2019-09-04 20:03:12:593,-1.0991,3.3405,9.7099,0.0011,0.0041,9.8066,-0.0061,0.0253,0.0008,-7.31,-30.5,24.81,85.64,-89.38,-79.43
52.369873,-1.254496,173.35,3.25,3,171.51,17 / 18,2512521,2019-09-04 20:03:12:694,-0.9639,2.8904,10.0716,0.0015,0.0039,9.8066,0.0012,0.022,-0.0047,-7.5,-30.19,24.63,90.33,-89.41,-74.72
52.369873,-1.254496,173.35,3.25,3,171.51,17 / 18,2512620,2019-09-04 20:03:12:793,-0.95,2.6752,10.142,0.0043,0.0016,9.8066,0.0079,0.0005,-0.0168,-7.5,-30.31,24.69,97.42,-89.44,-67.57
52.369873,-1.254496,173.35,3.25,3,171.51,17 / 18,2512720,2019-09-04 20:03:12:893,-0.7938,2.2602,10.1072,0.0003,0.0011,9.8066,0.0107,0.0056,-0.002,-7.56,-29.75,25.38,99.15,-89.48,-63.69
52.369873,-1.254496,173.35,3.25,3,171.51,17 / 18,2512820,2019-09-04 20:03:12:993,-0.6085,1.5155,9.7658,-0.0021,0.0002,9.8066,0.0152,-0.0057,0.0083,-7.56,-30.44,25.25,98.79,-89.5,-64.03
52.369873,-1.254496,173.35,3.25,3,171.51,17 / 18,2512920,2019-09-04 20:03:13:093,-0.5719,1.3256,9.9086,-0.0013,-0.0013,9.8066,0.0109,0.0081,0.0036,-8,-29.81,25.56,96.27,-89.47,-67.21
52.369873,-1.254496,173.35,3.25,3,171.51,17 / 18,2513020,2019-09-04 20:03:13:193,-0.7112,1.2507,9.7561,-0.0019,0.001,9.8066,-0.0036,0.001,0.002,-7.75,-30,25.25,95.67,-89.46,-67.21
52.369873,-1.254496,173.35,3.25,3,171.51,17 / 18,2513120,2019-09-04 20:03:13:293,-0.6966,1.3566,9.7946,0.0004,0.0051,9.8066,-0.0017,0.0014,-0.0022,-7.87,-29.94,24.88,99.59,-89.43,-63.3
52.369873,-1.254496,173.35,3.25,3,171.51,17 / 18,2513221,2019-09-04 20:03:13:394,-0.5072,0.889,9.8919,0.0006,0.0015,9.8066,0.0054,0.0012,-0.0026,-7.37,-29.94,24.94,108.68,-89.42,-56.31
52.369873,-1.254496,173.35,3.25,3,171.51,19 / 20,2513321,2019-09-04 20:03:13:494,-0.2755,0.2658,9.9338,0.0037,0,9.8066,0.0146,0.0058,-0.0026,-7.75,-30.31,25.19,109.7,-89.45,-53.14
52.369873,-1.254496,173.35,3.25,3,171.51,19 / 20,2513420,2019-09-04 20:03:13:593,-0.1139,-0.1991,9.7848,0.0024,-0.0042,9.8066,0.0252,0.0104,0.0084,-7.44,-30.56,25.38,109.37,-89.5,-55.55
52.369873,-1.254496,173.35,3.25,3,171.51,19 / 20,2513520,2019-09-04 20:03:13:693,-0.0702,-0.5129,9.728,0.002,-0.0041,9.8066,0.0233,0.0081,0.0007,-7.62,-30.44,25.31,98.75,-89.55,-64
52.369873,-1.254496,173.35,3.25,3,171.51,19 / 20,2513620,2019-09-04 20:03:13:793,-0.1358,-0.5126,9.6637,-0.0015,-0.001,9.8066,0.0056,0.0054,-0.0072,-7.31,-30,25.13,97.12,-89.55,-67.76
52.369873,-1.254496,173.35,3.25,3,171.51,19 / 20,2513721,2019-09-04 20:03:13:894,-0.1643,-0.7478,9.925,-0.0007,0.0022,9.8066,0.0009,0.0016,0.0067,-7.56,-29.75,25.63,97.84,-89.54,-65.56
52.369873,-1.254496,173.35,3.25,3,171.51,19 / 20,2513820,2019-09-04 20:03:13:993,-0.0486,-0.8157,9.8013,-0.0001,0.0045,9.8066,0.0021,0.0059,-0.0152,-7,-29.06,25.25,107.24,-89.53,-57.62
52.369873,-1.254496,173.35,3.25,3,171.51,19 / 20,2513921,2019-09-04 20:03:14:094,0.0081,-0.7165,9.8193,0.0025,0.0038,9.8066,0.0033,-0.0011,-0.0097,-7.5,-29.12,25.13,118.32,-89.53,-46.5
52.369873,-1.254496,173.35,3.25,3,171.51,19 / 20,2514021,2019-09-04 20:03:14:194,0.0257,-0.9336,9.84,0.0015,-0.0012,9.8066,0.002,-0.0076,-0.0053,-7.37,-29.31,25.31,122.17,-89.54,-42.61
52.369873,-1.254496,173.35,3.25,3,171.51,19 / 20,2514121,2019-09-04 20:03:14:294,0.0663,-0.8562,9.7375,0.0013,-0.0035,9.8066,0.0013,0.0118,0.0075,-7.56,-29.56,26.5,122.37,-89.56,-41.53
52.369873,-1.254496,173.35,3.25,3,171.51,19 / 20,2514220,2019-09-04 20:03:14:393,0.0133,-0.8998,9.8262,0.0004,0.0043,9.8066,0.0004,0.0049,-0.0034,-8,-29.62,25.94,127.08,-89.53,-36.22
52.369873,-1.254496,173.35,3.25,3,171.51,17 / 18,2514320,2019-09-04 20:03:14:493,-0.033,-0.9495,9.8109,-0.0003,0.0062,9.8066,-0.0023,0.0031,-0.0127,-8.37,-29.87,26,132.11,-89.49,-31.2
52.369873,-1.254496,173.35,3.25,3,171.51,17 / 18,2514421,2019-09-04 20:03:14:594,0.0042,-0.7288,9.7574,0.0021,0.0054,9.8066,-0.0108,0.0145,0.0037,-8.25,-29.62,25.81,140.21,-89.42,-23.09
52.369873,-1.254496,173.35,3.25,3,171.51,17 / 18,2514520,2019-09-04 20:03:14:693,-0.0085,-0.841,9.9445,0.0006,0.0074,9.8066,-0.0021,0.0078,-0.0072,-9,-29.56,25.94,145.73,-89.33,-15.59
52.369873,-1.254496,173.35,3.25,3,171.51,17 / 18,2514620,2019-09-04 20:03:14:793,-0.1758,-0.3599,9.8508,0.0001,0.0073,9.8066,-0.0112,-0.0018,-0.0114,-8.75,-29.19,26,149.51,-89.27,-11.79
52.369873,-1.254496,173.35,3.25,3,171.51,17 / 18,2514721,2019-09-04 20:03:14:894,-0.1745,-0.3597,9.8807,0.003,0.0079,9.8066,-0.0109,0.0102,0.0027,-7.94,-29.44,26.06,154.86,-89.19,-8.41
52.369873,-1.254496,173.35,3.25,3,171.51,17 / 18,2514821,2019-09-04 20:03:14:994,-0.151,-0.1555,9.8157,0.0016,0.0062,9.8066,-0.0101,0.0092,-0.0068,-8.19,-29.12,25.88,159.75,-89.08,-3.49
52.369873,-1.254496,173.35,3.25,3,171.51,17 / 18,2514920,2019-09-04 20:03:15:093,-0.1625,-0.0994,9.831,0.0011,0.0059,9.8066,-0.0026,-0.0035,-0.0083,-8.62,-28.94,25.19,159.96,-88.98,-0.62
52.369873,-1.254496,173.35,3.25,3,171.51,17 / 18,2515021,2019-09-04 20:03:15:194,-0.229,-0.1071,9.8003,0.0008,0.005,9.8066,-0.0024,-0.0035,-0.0095,-8.56,-29.69,26,161.95,-88.93,0.69
52.369873,-1.254496,173.35,3.25,3,171.51,17 / 18,2515121,2019-09-04 20:03:15:294,-0.1951,-0.098,9.848,-0.0002,0.0034,9.8066,-0.004,0.0061,0.0026,-8.31,-29.69,25.75,165.45,-88.86,2.24
52.369873,-1.254496,173.35,3.25,3,171.51,17 / 18,2515221,2019-09-04 20:03:15:394,-0.1808,-0.0445,9.8519,-0.0011,0.0035,9.8066,0.0005,0.0028,0.0002,-9,-29.44,25.56,163.57,-88.82,2.32
52.369873,-1.254496,173.35,3.25,3,171.51,17 / 19,2515321,2019-09-04 20:03:15:494,-0.2029,-0.0906,9.8641,-0.0004,0.0008,9.8066,-0.0012,-0.0016,-0.0109,-8.44,-29.19,25.75,165.31,-88.78,2.09
52.369873,-1.254496,173.35,3.25,3,171.51,17 / 19,2515420,2019-09-04 20:03:15:593,-0.2007,-0.2885,9.8164,-0.0002,0.003,9.8066,0.0015,0.0014,-0.0023,-8.37,-29.12,24.75,164.97,-88.75,2.35
52.369873,-1.254496,173.35,3.25,3,171.51,17 / 19,2515521,2019-09-04 20:03:15:694,-0.1169,-0.4046,9.8155,-0.0005,0.0024,9.8066,-0.0006,0.0028,0.0063,-8.94,-28.87,26,162.97,-88.74,1.67
52.369873,-1.254496,173.35,3.25,3,171.51,17 / 19,2515620,2019-09-04 20:03:15:793,-0.1474,-0.2495,9.7337,-0.0011,-0.001,9.8066,-0.001,-0.0025,0.0005,-9,-29.25,24.88,161.23,-88.75,0.59
52.369873,-1.254496,173.35,3.25,3,171.51,17 / 19,2515720,2019-09-04 20:03:15:893,-0.1476,-0.4354,9.8876,-0.0005,-0.0011,9.8066,-0.0039,0.0023,-0.0022,-9.19,-29.44,25.13,160.27,-88.77,-0.38
52.369873,-1.254496,173.35,3.25,3,171.51,17 / 19,2515821,2019-09-04 20:03:15:994,-0.0836,-0.4046,9.8264,-0.0025,-0.002,9.8065,0.0012,-0.0111,-0.0038,-8.81,-29.44,25.81,159.75,-88.77,-1.6
52.369873,-1.254496,173.35,3.25,3,171.51,17 / 19,2515920,2019-09-04 20:03:16:093,-0.0516,-0.4412,9.8039,-0.0006,-0.0089,9.8066,-0.0008,0.0184,-0.0041,-8.81,-29.37,25.13,157.11,-88.81,-3.59
52.369873,-1.254496,173.35,3.25,3,171.51,17 / 19,2516020,2019-09-04 20:03:16:193,-0.0398,-0.6251,9.8025,-0.0009,-0.0006,9.8066,0.0033,0.0128,0.0089,-8.44,-29.12,25.25,159.57,-88.79,-3.15
52.369873,-1.254496,173.35,3.25,3,171.51,17 / 19,2516120,2019-09-04 20:03:16:293,0.0349,-0.9007,9.7962,-0.0025,0,9.8066,0.0039,0.0036,0.0022,-8.94,-28.81,24.88,156.19,-88.78,-4.54
52.369873,-1.254496,173.35,3.25,3,171.51,17 / 19,2516221,2019-09-04 20:03:16:394,0.0132,-0.8698,9.7997,0.0003,-0.0007,9.8066,-0.0007,0.0021,-0.0041,-8.37,-28.75,25.44,157.3,-88.77,-5.47
52.369873,-1.254496,173.35,3.25,3,171.51,17 / 19,2516320,2019-09-04 20:03:16:493,0.0828,-0.9054,9.887,-0.0003,0.0002,9.8066,-0.0007,0.0089,0.0017,-8.81,-28.69,24.63,155.7,-88.78,-5.04
52.369873,-1.254496,173.35,3.25,3,171.51,17 / 19,2516421,2019-09-04 20:03:16:594,0.0787,-0.934,9.8681,-0.0016,0.001,9.8066,-0.0049,0.0032,0.0012,-8.75,-28.44,25.25,154.6,-88.82,-6.13
52.369873,-1.254496,173.35,3.25,3,171.51,17 / 19,2516521,2019-09-04 20:03:16:694,0.1666,-0.8799,9.7713,-0.0005,-0.0031,9.8066,-0.0012,-0.0018,-0.0019,-9.12,-29.12,24.94,153.82,-88.82,-6.95
52.369873,-1.254496,173.35,3.25,3,171.51,17 / 19,2516621,2019-09-04 20:03:16:794,0.0837,-0.8261,9.8286,-0.0027,0.0016,9.8066,-0.001,-0.0003,-0.004,-9.19,-29.37,25.25,152.44,-88.84,-8.35
52.369873,-1.254496,173.35,3.25,3,171.51,17 / 19,2516721,2019-09-04 20:03:16:894,0.1244,-1.0054,9.9445,-0.0017,0.0016,9.8066,-0.0015,-0.0017,0.0015,-9.19,-29.31,25.25,151.92,-88.82,-8.88
52.369873,-1.254496,173.35,3.25,3,171.51,17 / 19,2516821,2019-09-04 20:03:16:994,0.1168,-1.1311,9.7319,-0.0011,0.001,9.8066,-0.0022,0.0101,0.0033,-9.19,-28.75,25,151.17,-88.82,-9.64
52.369873,-1.254496,173.35,3.25,3,171.51,17 / 19,2516921,2019-09-04 20:03:17:094,0.1579,-1.0732,9.9214,0,-0.001,9.8066,0.0018,0.0148,0.0054,-9.31,-28.5,25.44,150.69,-88.8,-10.12
52.369873,-1.254496,173.35,3.25,3,171.51,17 / 19,2517020,2019-09-04 20:03:17:193,0.1111,-1.2405,9.9029,-0.0019,0.0002,9.8066,-0.0048,0.0285,0.009,-9.37,-28.81,24.75,149.63,-88.8,-11.23
52.369873,-1.254496,173.35,3.25,3,171.51,17 / 19,2517121,2019-09-04 20:03:17:294,0.2196,-1.527,10.0178,-0.003,0.0012,9.8066,0.0038,0.004,-0.0099,-9.19,-28.44,24.75,149.24,-88.79,-11.6
52.369873,-1.254496,173.35,3.25,3,171.51,17 / 19,2517221,2019-09-04 20:03:17:394,0.2505,-1.3699,9.6629,0.0004,0.0022,9.8066,0.0009,0.02,0.0011,-9.87,-28.69,25.31,147.29,-88.79,-11.61
52.369873,-1.254496,173.35,3.25,3,171.51,17 / 18,2517321,2019-09-04 20:03:17:494,0.352,-1.2154,9.5603,-0.0004,0.002,9.8066,0.0031,0.0147,-0.0003,-9.75,-29.06,25.5,148.85,-88.78,-10.76
52.369873,-1.254496,173.35,3.25,3,171.51,17 / 18,2517420,2019-09-04 20:03:17:593,0.3841,-1.7142,9.9824,-0.0019,0.0013,9.8066,0.0063,0.0103,-0.0051,-9.87,-28.69,25.13,147.97,-88.78,-10.92
52.369873,-1.254496,173.35,3.25,3,171.51,17 / 18,2517521,2019-09-04 20:03:17:694,0.4996,-2.1801,10.0786,0.0006,0.0005,9.8066,0.0097,0.004,-0.0187,-8.87,-29,25.38,151.15,-88.8,-9.68
52.369873,-1.254496,173.35,3.25,3,171.51,17 / 18,2517620,2019-09-04 20:03:17:793,0.6647,-2.466,10.0545,0.0047,-0.0053,9.8066,0.0171,0.015,-0.0036,-9.31,-28.75,25.5,152.89,-88.87,-8.55
52.369873,-1.254496,173.35,3.25,3,171.51,17 / 18,2517720,2019-09-04 20:03:17:893,0.7908,-2.5915,9.2971,0.0021,-0.0049,9.8066,0.0069,0.0202,-0.0008,-9,-28.62,25.19,153.09,-88.98,-7.61
52.369873,-1.254496,173.35,3.25,3,171.51,17 / 18,2517821,2019-09-04 20:03:17:994,0.776,-2.8613,10.0779,0.0009,0.0001,9.8066,-0.0182,0.0183,0.0029,-8.56,-28.62,25.5,153.66,-89.01,-7.71
52.369873,-1.254496,173.35,3.25,3,171.51,17 / 18,2517921,2019-09-04 20:03:18:094,0.48,-2.2668,9.3185,-0.0031,0.0074,9.8066,-0.0246,0.0284,0.0108,-8.5,-28,24.94,154.82,-88.89,-7.94
52.369873,-1.254496,173.35,3.25,3,171.51,17 / 18,2518020,2019-09-04 20:03:18:193,0.511,-2.4194,10.2693,0.0067,0.0058,9.8066,-0.0048,0.0319,-0.0177,-8.81,-28.12,25.06,154.35,-88.81,-6.38
52.369873,-1.254496,173.35,3.25,3,171.51,17 / 18,2518121,2019-09-04 20:03:18:294,0.4996,-2.2567,9.1363,0.0116,0.0046,9.8066,0.0031,0.0293,-0.0277,-9,-30,25,159.4,-88.79,-1.28
52.369873,-1.254496,173.35,3.25,3,171.51,17 / 18,2518221,2019-09-04 20:03:18:394,0.7577,-2.8541,10.157,0.0139,0.0035,9.8066,-0.0017,0.0239,-0.0419,-8.81,-29.5,24.63,170.24,-88.79,9.81
52.369873,-1.254496,173.35,3.25,3,171.51,16 / 18,2518321,2019-09-04 20:03:18:494,1.1074,-2.3362,10.3325,0.0139,0.0115,9.8066,-0.012,0.0334,-0.0334,-9.06,-29.37,24.25,181.22,-88.66,21.81
52.369873,-1.254496,173.35,3.25,3,171.51,16 / 18,2518421,2019-09-04 20:03:18:594,1.373,-2.4798,10.2319,-0.0011,0.0067,9.8066,-0.0044,0.0144,-0.001,-9,-29.25,24.56,185.15,-88.56,25.09
52.369873,-1.254496,173.35,3.25,3,171.51,16 / 18,2518521,2019-09-04 20:03:18:694,1.0589,-2.7445,9.8863,-0.0045,-0.0078,9.8066,-0.001,0.0239,0.0085,-8.81,-29,24.5,184.26,-88.53,24.18
52.369873,-1.254496,173.35,3.25,3,171.51,16 / 18,2518621,2019-09-04 20:03:18:794,0.7297,-3.2,9.7154,-0.0092,-0.006,9.8066,-0.0053,0.0326,0.0119,-8.56,-28.87,24.5,182.36,-88.63,22.22
52.369873,-1.254496,173.35,3.25,3,171.51,16 / 18,2518720,2019-09-04 20:03:18:893,0.5317,-3.2868,9.1459,-0.0062,-0.0024,9.8066,0.0017,0.0239,0.0021,-8.69,-28.87,24.06,176.38,-88.71,16.84
52.369873,-1.254496,173.35,3.25,3,171.51,16 / 18,2518820,2019-09-04 20:03:18:993,0.478,-3.2613,9.1346,0.0036,0.0063,9.8066,-0.0245,0.0274,-0.033,-8.31,-28.56,23.63,178.96,-88.69,17.36
52.369873,-1.254496,173.35,3.25,3,171.51,16 / 18,2518920,2019-09-04 20:03:19:093,0.604,-2.158,9.0706,0.0076,0.0175,9.8066,-0.0475,0.0225,-0.0411,-8.81,-29.75,24.88,182.12,-88.45,21.99
52.369873,-1.254496,173.35,3.25,3,171.51,16 / 18,2519021,2019-09-04 20:03:19:194,0.4867,-1.334,9.6025,0.0095,0.0265,9.8066,-0.0761,0.0302,-0.0456,-8.31,-29.62,24.44,185.87,-88.15,24.52
52.369873,-1.254496,173.35,3.25,3,171.51,16 / 18,2519120,2019-09-04 20:03:19:293,0.365,-1.3535,9.7951,0.0018,0.0264,9.8065,-0.0433,0.0063,-0.0442,-7.25,-30.56,24.13,189.78,-87.77,26.5
52.369873,-1.254496,173.35,3.25,3,171.51,16 / 18,2519220,2019-09-04 20:03:19:393,0.5349,-1.4303,9.7217,0.0054,0.0111,9.8066,-0.0166,0.0324,-0.0067,-8.19,-29.94,23.31,187.24,-87.45,26.81
52.369873,-1.254496,173.35,3.25,3,171.51,17 / 19,2519320,2019-09-04 20:03:19:493,0.2085,-1.7026,9.9937,-0.002,0.0027,9.8066,-0.006,-0.0011,-0.0136,-7.87,-29.94,23.94,187.64,-87.35,26.49
52.369873,-1.254496,173.35,3.25,3,171.51,17 / 19,2519420,2019-09-04 20:03:19:593,0.3405,-1.7828,9.5667,0.0032,0.0003,9.8066,0.0023,0.0149,-0.0069,-7.87,-30.06,23.81,188.03,-87.33,26.9
52.369873,-1.254496,173.35,3.25,3,171.51,17 / 19,2519520,2019-09-04 20:03:19:693,0.2464,-1.9402,9.5036,0.0021,0.0018,9.8066,-0.0016,-0.0025,-0.039,-7.56,-29.37,23.75,188.42,-87.33,27.29
52.369873,-1.254496,173.35,3.25,3,171.51,17 / 19,2519620,2019-09-04 20:03:19:793,0.0111,-2.0945,10.0457,0.0138,0.0032,9.8066,0.0103,0.017,-0.03,-7.94,-30.19,23.56,190.81,-87.29,29.84
52.369873,-1.254496,173.35,3.25,3,171.51,17 / 19,2519720,2019-09-04 20:03:19:893,0.7296,-1.6851,10.0013,0.0066,0.0004,9.8066,0.0057,-0.0229,-0.0239,-7.62,-30.44,23.81,193.56,-87.24,32.75
52.369873,-1.254496,173.35,3.25,3,171.51,17 / 19,2519820,2019-09-04 20:03:19:993,0.1363,-1.6559,9.8124,-0.0028,-0.0044,9.8066,0.0075,-0.0072,0.0417,-7.25,-30.06,23.5,196.29,-87.26,33.46
52.369873,-1.254496,173.35,3.25,3,171.51,17 / 19,2519920,2019-09-04 20:03:20:093,-1.1605,-1.0198,9.4795,-0.0035,0.0005,9.8066,-0.0223,-0.0328,-0.0151,-7.69,-30.5,23.5,192.96,-87.37,32.08
52.369873,-1.254496,173.35,3.25,3,171.51,17 / 19,2520020,2019-09-04 20:03:20:193,-0.7401,-0.5385,10.0255,0.0043,0.01,9.8066,-0.0192,-0.0673,-0.037,-7.56,-29.69,23.69,193.06,-87.23,32.22
52.369873,-1.254496,173.35,3.25,3,171.51,17 / 19,2520121,2019-09-04 20:03:20:294,-0.1384,-0.8999,9.6499,0.0139,0.0025,9.8066,0.0258,-0.0447,-0.0125,-6.37,-29.75,23.88,199.34,-87.07,34.53
52.369873,-1.254496,173.35,3.25,3,171.51,17 / 19,2520221,2019-09-04 20:03:20:394,-0.7234,-1.1106,9.694,-0.0033,-0.0172,9.8065,0.0307,-0.1137,0.0289,-6.19,-29.87,24.81,201.74,-87.22,36.41
52.369873,-1.254496,173.35,3.25,3,171.51,16 / 19,2520320,2019-09-04 20:03:20:493,-1.4969,-1.1126,9.4636,-0.0173,-0.0062,9.8066,-0.0175,-0.1684,0.0332,-6.81,-29.62,24.06,197.12,-87.43,34.27
52.369873,-1.254496,173.35,3.25,3,171.51,16 / 19,2520421,2019-09-04 20:03:20:594,-2.1142,-0.9299,10.0085,-0.0105,0.0079,9.8065,-0.0271,-0.1963,-0.005,-5.75,-29.87,24.56,193.87,-87.51,28.05
52.369873,-1.254496,173.35,3.25,3,171.51,16 / 19,2520520,2019-09-04 20:03:20:693,-2.0395,-0.9573,10.0843,-0.005,0.0095,9.8066,-0.0408,-0.2357,-0.0086,-6.06,-30.37,24.94,190.36,-87.39,24.4
52.369873,-1.254496,173.35,3.25,3,171.51,16 / 19,2520620,2019-09-04 20:03:20:793,-2.1289,-0.5441,9.7932,-0.0184,0.0116,9.8066,-0.0286,-0.2901,0.035,-6.25,-30.19,24.19,186.37,-87.26,20.76
52.369873,-1.254496,173.35,3.25,3,171.51,16 / 19,2520721,2019-09-04 20:03:20:894,-2.225,-0.4303,9.9629,-0.019,0.0007,9.8065,0.0021,-0.3034,0.031,-5.25,-30.31,24.88,181.33,-87.22,12.71
52.369873,-1.254496,173.35,3.25,3,171.51,16 / 19,2520821,2019-09-04 20:03:20:994,-2.6005,-0.4552,10.6624,-0.0051,-0.0145,9.8066,0.034,-0.3164,0.0031,-4.19,-30.12,24.69,180.29,-87.3,9.39
52.369873,-1.254496,173.35,3.25,3,171.51,16 / 19,2520921,2019-09-04 20:03:21:094,-1.7555,-0.5937,10.4152,0.0053,-0.0235,9.8066,0.0689,-0.3303,-0.0123,-4.25,-30,24.19,179.54,-87.49,8.98
52.369873,-1.254496,173.35,3.25,3,171.51,16 / 19,2521021,2019-09-04 20:03:21:194,-1.1505,-0.7026,9.8999,-0.0149,-0.0325,9.8066,0.0704,-0.3182,0.0513,-3.25,-29.62,25,182.68,-87.96,9.63
52.369873,-1.254496,173.35,3.25,3,171.51,16 / 19,2521121,2019-09-04 20:03:21:294,-1.9666,-0.5778,9.7917,-0.0219,-0.0296,9.8066,0.0577,-0.3446,0.0509,-2.56,-29.31,25.44,172.83,-88.51,-0.54
52.369873,-1.254496,173.35,3.25,3,171.51,16 / 19,2521221,2019-09-04 20:03:21:394,-2.8473,-0.2874,9.9496,-0.0177,-0.0242,9.8065,0.0417,-0.387,0.0256,-2.19,-29.94,24.81,164.09,-88.76,-11.73
52.3697,-1.254447,173.66,5.73,3,184.45,17 / 19,2521320,2019-09-04 20:03:21:493,-2.873,-0.3459,9.6764,-0.0107,-0.0051,9.8066,0.0127,-0.4154,0.0123,-2.12,-30.19,25.81,152.51,-88.91,-23.66
52.3697,-1.254447,173.66,5.73,3,184.45,17 / 19,2521421,2019-09-04 20:03:21:594,-2.9355,0.0262,10.0701,-0.0223,0.0031,9.8065,-0.0149,-0.4814,0.0406,-1.31,-29.62,26.94,139.51,-88.77,-39.25
52.3697,-1.254447,173.66,5.73,3,184.45,17 / 19,2521520,2019-09-04 20:03:21:693,-3.3314,0.2692,10.1672,-0.0298,-0.0009,9.8066,-0.0109,-0.4805,0.0933,-0.75,-29.94,25.88,127.73,-88.44,-51.48
52.3697,-1.254447,173.66,5.73,3,184.45,17 / 19,2521621,2019-09-04 20:03:21:794,-3.7763,0.4593,9.7269,-0.0222,-0.005,9.8066,-0.0031,-0.5434,0.026,0,-29.19,24.94,121.78,-88.2,-59.99
52.3697,-1.254447,173.66,5.73,3,184.45,17 / 19,2521720,2019-09-04 20:03:21:893,-3.5214,0.7543,10.3103,-0.0153,-0.0034,9.8065,-0.0103,-0.5677,0.0254,0.31,-28.81,25.5,116.93,-88.04,-65
52.3697,-1.254447,173.66,5.73,3,184.45,17 / 19,2521820,2019-09-04 20:03:21:993,-3.5628,1.0661,9.9713,-0.0186,-0.0142,9.8065,0.0104,-0.5805,0.0488,1.44,-29.5,24.69,113.88,-87.83,-70.69
52.3697,-1.254447,173.66,5.73,3,184.45,17 / 19,2521921,2019-09-04 20:03:22:094,-3.6811,1.5447,10.1288,-0.0189,-0.0151,9.8065,0.0125,-0.6191,0.0164,3,-28.81,23.38,110.74,-87.61,-79.48
52.3697,-1.254447,173.66,5.73,3,184.45,17 / 19,2522023,2019-09-04 20:03:22:196,-2.9858,1.2721,9.6164,-0.0112,-0.0131,9.8066,-0.0082,-0.6373,0.0248,4,-29.19,23.88,108.04,-87.55,-84.18
52.3697,-1.254447,173.66,5.73,3,184.45,17 / 19,2522121,2019-09-04 20:03:22:294,-3.4554,1.8536,10.2394,-0.0188,-0.0066,9.8066,-0.0257,-0.6501,0.0468,4,-29.44,22.75,103.78,-87.36,-89.27
52.3697,-1.254447,173.66,5.73,3,184.45,17 / 19,2522221,2019-09-04 20:03:22:394,-2.8272,2.2096,10.119,-0.0087,-0.0021,9.8066,-0.0256,-0.658,-0.0054,6,-29.81,21.5,108.12,-87.23,-90.58
52.3697,-1.254447,173.66,5.73,3,184.45,17 / 19,2522320,2019-09-04 20:03:22:493,-2.6741,2.0279,9.7447,-0.0058,-0.0126,9.8066,-0.0091,-0.6487,0.0113,6.81,-30.12,21.31,109.74,-87.24,-92.2
52.3697,-1.254447,173.66,5.73,3,184.45,17 / 19,2522421,2019-09-04 20:03:22:594,-2.7036,2.311,9.8978,-0.0134,0.0021,9.8065,-0.0392,-0.6776,0.021,6.81,-29.25,20.44,107.23,-87.14,-95.78
52.3697,-1.254447,173.66,5.73,3,184.45,17 / 19,2522520,2019-09-04 20:03:22:693,-2.4515,2.5449,10.0064,-0.0153,-0.0001,9.8066,-0.0237,-0.7053,0.032,8.13,-29.31,19.69,109.21,-86.91,-96.5
52.3697,-1.254447,173.66,5.73,3,184.45,17 / 19,2522621,2019-09-04 20:03:22:794,-2.245,2.7766,10.7142,-0.0179,-0.0044,9.8066,0.0012,-0.6877,0.0422,9.38,-30.19,18.38,112.95,-86.7,-98.12
52.3697,-1.254447,173.66,5.73,3,184.45,17 / 19,2522721,2019-09-04 20:03:22:894,-2.6006,0.6116,10.6307,-0.1286,-0.171,9.8043,0.8074,-0.6541,-0.1457,8.88,-29,18.19,93.78,-85.99,-118.56
52.3697,-1.254447,173.66,5.73,3,184.45,17 / 19,2522820,2019-09-04 20:03:22:993,-1.5679,2.8758,9.7138,-0.0111,-0.0084,9.8066,0.0188,-0.7034,0.0597,10.06,-29.25,17,85.42,-85.67,-131.44
52.3697,-1.254447,173.66,5.73,3,184.45,17 / 19,2522921,2019-09-04 20:03:23:094,-1.4201,2.9615,9.2165,-0.0184,-0.0083,9.8065,0.0056,-0.7078,0.0472,10.69,-29.62,16,88.75,-85.48,-132.77
52.3697,-1.254447,173.66,5.73,3,184.45,17 / 19,2523020,2019-09-04 20:03:23:193,-1.3198,2.6392,10.0151,-0.016,-0.0178,9.8066,0.0168,-0.7107,0.0295,11.25,-29.56,14.94,88.28,-85.19,-135.77
52.3697,-1.254447,173.66,5.73,3,184.45,17 / 19,2523120,2019-09-04 20:03:23:293,-1.3028,2.8172,9.9935,-0.0198,-0.0059,9.8066,-0.0062,-0.691,0.0766,11.19,-29.81,13.25,91.39,-84.89,-137.9
52.3697,-1.254447,173.66,5.73,3,184.45,17 / 19,2523221,2019-09-04 20:03:23:394,-1.4005,3.281,10.0807,-0.0088,-0.0143,9.8065,-0.0147,-0.6896,0.0346,12,-29.31,12.75,92.77,-84.68,-138.7
52.3697,-1.254447,173.66,5.73,3,184.45,17 / 19,2523321,2019-09-04 20:03:23:494,-0.6563,2.9363,9.8023,-0.0097,-0.0075,9.8066,-0.0128,-0.7033,0.04,12.5,-30.06,11,98.36,-84.55,-140.94
52.3697,-1.254447,173.66,5.73,3,184.45,17 / 19,2523420,2019-09-04 20:03:23:593,-0.6305,3.4858,10.4626,-0.0047,-0.0138,9.8066,-0.0198,-0.6782,0.0172,12.75,-30.37,8.88,103.43,-84.47,-142.11
52.3697,-1.254447,173.66,5.73,3,184.45,17 / 19,2523521,2019-09-04 20:03:23:694,-0.4693,3.2625,9.931,-0.0055,-0.0249,9.8065,-0.0073,-0.6839,0.0013,12.5,-29.87,7.56,104.67,-84.47,-144.25
52.3697,-1.254447,173.66,5.73,3,184.45,17 / 19,2523620,2019-09-04 20:03:23:793,-0.2216,3.2526,9.4236,0.0016,0.0001,9.8066,-0.033,-0.7169,0.0461,12.88,-30.44,6.75,104.85,-84.5,-147.69
52.3697,-1.254447,173.66,5.73,3,184.45,17 / 19,2523720,2019-09-04 20:03:23:893,0.2087,2.9363,9.8176,0.0019,-0.0017,9.8066,-0.0424,-0.7104,0.0601,12.38,-31.37,4.75,111.87,-84.51,-147.69
52.3697,-1.254447,173.66,5.73,3,184.45,17 / 19,2523820,2019-09-04 20:03:23:993,1.1132,3.9076,11.4402,-0.0038,-0.0006,9.8066,-0.0077,-0.6958,0.0699,12.38,-31.06,3.81,116.03,-84.49,-147.68
52.3697,-1.254447,173.66,5.73,3,184.45,17 / 19,2523920,2019-09-04 20:03:24:093,1.0313,2.8917,10.4333,-0.0372,0.0031,9.8065,-0.0016,-0.6231,0.0077,12.06,-30.94,2.94,118.64,-84.23,-150.03
52.3697,-1.254447,173.66,5.73,3,184.45,17 / 19,2524020,2019-09-04 20:03:24:193,1.2471,2.9554,9.7551,-0.024,-0.0106,9.8066,0.0191,-0.7248,0.0034,11.5,-30.56,1.19,125.98,-84.03,-151.66
52.3697,-1.254447,173.66,5.73,3,184.45,17 / 19,2524120,2019-09-04 20:03:24:293,1.283,2.7274,8.8878,-0.0209,-0.007,9.8066,0.0128,-0.6622,0.0765,11.81,-31.44,0.5,124.13,-83.89,-154.13
52.3697,-1.254447,173.66,5.73,3,184.45,17 / 19,2524221,2019-09-04 20:03:24:394,1.5387,2.9589,8.7575,-0.0239,-0.001,9.8066,0.0145,-0.6684,0.0609,11.31,-30.81,-0.69,131.67,-83.6,-156.92
52.3697,-1.254447,173.66,5.73,3,184.45,18 / 20,2524321,2019-09-04 20:03:24:494,1.646,2.9032,10.0251,-0.0064,-0.0223,9.8065,-0.0348,-0.6923,-0.0145,10.56,-31.12,-1.19,129.13,-83.57,-160.05
52.3697,-1.254447,173.66,5.73,3,184.45,18 / 20,2524420,2019-09-04 20:03:24:593,2.6228,2.3853,10.509,0.0139,-0.0111,9.8065,-0.0477,-0.6619,0.065,10.06,-31.25,-1.69,132.91,-83.75,-162.31
52.3697,-1.254447,173.66,5.73,3,184.45,18 / 20,2524521,2019-09-04 20:03:24:694,2.7114,2.3573,10.0139,0.0098,-0.0083,9.8066,-0.0416,-0.6853,0.0596,9.56,-30.94,-3.25,136.75,-84,-162.1
52.3697,-1.254447,173.66,5.73,3,184.45,18 / 20,2524621,2019-09-04 20:03:24:794,3.3673,1.735,9.5019,0.0014,0.0131,9.8066,-0.002,-0.701,0.0927,8.19,-31.44,-4.62,149.92,-84.01,-161.87
52.3697,-1.254447,173.66,5.73,3,184.45,18 / 20,2524721,2019-09-04 20:03:24:894,3.9056,2.4204,9.2724,-0.002,0.0166,9.8066,-0.0167,-0.6956,0.093,7.94,-31.44,-5.75,153.97,-83.88,-161.13
52.3697,-1.254447,173.66,5.73,3,184.45,18 / 20,2524821,2019-09-04 20:03:24:994,4.7659,1.6145,10.181,-0.0146,-0.0169,9.8066,-0.0141,-0.7403,-0.0196,7.25,-31.44,-7.37,159.6,-83.83,-162.04
52.3697,-1.254447,173.66,5.73,3,184.45,18 / 20,2524920,2019-09-04 20:03:25:093,3.7445,0.6218,9.9257,-0.0311,-0.0202,9.8065,-0.019,-0.689,0.011,6.19,-32.06,-7.56,162,-83.97,-167
52.3697,-1.254447,173.66,5.73,3,184.45,18 / 20,2525020,2019-09-04 20:03:25:193,3.3242,0.3705,9.7971,-0.0195,-0.0074,9.8066,-0.0381,-0.7131,0.0604,5.56,-31.44,-9.06,162,-84.01,-169.53
52.3697,-1.254447,173.66,5.73,3,184.45,18 / 20,2525121,2019-09-04 20:03:25:294,3.7816,-0.1007,9.845,0.0076,-0.0098,9.8066,-0.0429,-0.7408,0.0568,4.38,-31.25,-10,171.12,-84.19,-169.61
52.3697,-1.254447,173.66,5.73,3,184.45,18 / 20,2525220,2019-09-04 20:03:25:393,3.7729,-0.8547,9.7335,-0.0093,-0.0056,9.8066,-0.0212,-0.6549,0.0594,3.25,-32.5,-10.75,176.12,-84.33,-169.68
52.3697,-1.254447,173.66,5.73,3,184.45,18 / 20,2525320,2019-09-04 20:03:25:493,4.2623,-0.4745,9.7436,-0.0089,0.001,9.8066,0.0097,-0.6778,0.0295,2.75,-31.69,-11,175.23,-84.37,-170.8
52.3697,-1.254447,173.66,5.73,3,184.45,18 / 20,2525421,2019-09-04 20:03:25:594,3.9948,-1.0663,10.1197,-0.0194,0.0089,9.8065,0.0165,-0.6891,0.0268,0.88,-31.62,-11.12,181.44,-84.32,-172.95
52.3697,-1.254447,173.66,5.73,3,184.45,18 / 20,2525520,2019-09-04 20:03:25:693,3.8973,-1.7729,9.9704,-0.0234,0.0066,9.8065,0.0045,-0.6663,0.01,-0.37,-31.69,-11,182.88,-84.2,-176.29
52.3697,-1.254447,173.66,5.73,3,184.45,18 / 20,2525621,2019-09-04 20:03:25:794,3.3084,-1.7415,9.6124,-0.0201,0.0035,9.8066,-0.0004,-0.6915,0.0056,-0.56,-30.81,-11.06,184.56,-84.19,-179.37
52.3697,-1.254447,173.66,5.73,3,184.45,18 / 20,2525720,2019-09-04 20:03:25:893,3.2536,-1.7193,10.0333,-0.0094,-0.0054,9.8066,-0.022,-0.6427,0.0808,-2.12,-30,-11.62,185.85,-84.22,177.81
52.3697,-1.254447,173.66,5.73,3,184.45,18 / 20,2525821,2019-09-04 20:03:25:994,3.2498,-2.3374,9.8062,0.0008,-0.0028,9.8066,-0.0016,-0.6925,0.0423,-3.37,-31.19,-11.69,189.37,-84.27,177.62
52.3697,-1.254447,173.66,5.73,3,184.45,18 / 20,2525921,2019-09-04 20:03:26:094,3.5718,-2.453,9.8411,-0.0101,0.0077,9.8066,0.0117,-0.66,0.0329,-4.12,-31.31,-11.62,193.01,-84.27,177.67
52.3697,-1.254447,173.66,5.73,3,184.45,18 / 20,2526021,2019-09-04 20:03:26:194,3.3024,-2.5603,9.6507,-0.0118,0.0016,9.8066,-0.0082,-0.6805,0.0169,-5.44,-30.69,-11.56,194.51,-84.21,175.28
52.3697,-1.254447,173.66,5.73,3,184.45,18 / 20,2526120,2019-09-04 20:03:26:293,2.7985,-2.9923,9.366,-0.0159,-0.0007,9.8066,-0.0251,-0.6731,0.023,-7.12,-31.12,-11.44,200.61,-84.28,172.83
52.3697,-1.254447,173.66,5.73,3,184.45,18 / 20,2526221,2019-09-04 20:03:26:394,2.411,-3.012,9.5684,-0.0079,-0.0058,9.8066,-0.0277,-0.6615,0.0712,-8.12,-31.56,-10.94,202.33,-84.37,171.25
52.3697,-1.254447,173.66,5.73,3,184.45,18 / 20,2526322,2019-09-04 20:03:26:495,1.9859,-3.5711,9.9012,-0.0026,-0.0082,9.8066,0.0042,-0.6671,0.0588,-9.44,-31.25,-11.06,205.09,-84.53,170.76
52.3697,-1.254447,173.66,5.73,3,184.45,18 / 20,2526421,2019-09-04 20:03:26:594,2.5347,-3.9879,9.4413,-0.0038,0.0005,9.8066,-0.0015,-0.6591,0.0534,-10.31,-30.75,-10.62,207.64,-84.58,170.5
52.3697,-1.254447,173.66,5.73,3,184.45,18 / 20,2526520,2019-09-04 20:03:26:693,2.3811,-3.8024,9.429,-0.0028,0.0116,9.8066,0.0209,-0.6617,0.0378,-11.37,-30.19,-10.31,211.94,-84.59,169.89
52.3697,-1.254447,173.66,5.73,3,184.45,18 / 20,2526620,2019-09-04 20:03:26:793,2.0626,-3.1107,9.0825,-0.0009,-0.0031,9.8066,-0.0056,-0.6911,0.0528,-12.25,-30.75,-9.62,212.75,-84.47,168.39
52.3697,-1.254447,173.66,5.73,3,184.45,18 / 20,2526721,2019-09-04 20:03:26:894,1.6313,-4.5148,9.5645,-0.0134,-0.0085,9.8066,-0.0293,-0.6914,0.044,-13.87,-30.25,-8,221.8,-84.62,168.11
52.3697,-1.254447,173.66,5.73,3,184.45,18 / 20,2526820,2019-09-04 20:03:26:993,1.3347,-4.3753,10.2701,-0.0189,0.0077,9.8066,-0.0139,-0.6754,0.0071,-14.69,-31.06,-7.06,224.37,-84.73,166.19
52.3697,-1.254447,173.66,5.73,3,184.45,18 / 20,2526920,2019-09-04 20:03:27:093,0.9708,-4.0646,9.4942,-0.0182,0.015,9.8066,-0.0088,-0.672,-0.0033,-15.44,-30.5,-6.44,223.41,-84.81,161.73
52.3697,-1.254447,173.66,5.73,3,184.45,18 / 20,2527020,2019-09-04 20:03:27:193,0.407,-4.0481,9.1757,-0.0241,0.0036,9.8065,-0.0283,-0.6873,0.0412,-15.87,-30.5,-5.5,225.18,-84.92,158.89
52.3697,-1.254447,173.66,5.73,3,184.45,18 / 20,2527121,2019-09-04 20:03:27:294,0.2651,-4.3492,9.1654,-0.0184,-0.0183,9.8065,-0.0345,-0.7212,0.0848,-17.5,-29.69,-5.37,225.17,-85.13,157.31
52.3697,-1.254447,173.66,5.73,3,184.45,18 / 20,2527221,2019-09-04 20:03:27:394,0.2662,-5.1501,10.0391,-0.0127,-0.0125,9.8066,-0.0156,-0.7163,0.022,-17.62,-29.87,-4.19,229.95,-85.54,157.96
52.3697,-1.254447,173.66,5.73,3,184.45,18 / 20,2527321,2019-09-04 20:03:27:494,-0.4268,-4.9984,10.4508,-0.0134,0.009,9.8065,-0.021,-0.6843,0.016,-18.5,-29.62,-3.62,228.26,-85.73,155.9
52.3697,-1.254447,173.66,5.73,3,184.45,18 / 20,2527420,2019-09-04 20:03:27:593,-0.5893,-5.0767,10.1126,-0.0047,0.0077,9.8066,0.0294,-0.69,-0.0273,-19.37,-29.12,-2.19,232.68,-85.74,153.76
52.3697,-1.254447,173.66,5.73,3,184.45,18 / 20,2527525,2019-09-04 20:03:27:698,-0.7562,-3.8248,9.4135,-0.003,0.0093,9.8066,0.0294,-0.69,-0.0273,-19.56,-28.87,-1.31,235.16,-85.73,153.04
52.3697,-1.254447,173.66,5.73,3,184.45,18 / 20,2527620,2019-09-04 20:03:27:793,-0.8481,-3.8606,9.0067,0.0037,0.006,9.8066,0.033,-0.7135,0.0444,-20.31,-30.25,0.94,237.92,-85.49,150.72
52.3697,-1.254447,173.66,5.73,3,184.45,18 / 20,2527720,2019-09-04 20:03:27:893,-1.1638,-4.6288,9.3603,-0.0072,-0.0067,9.8066,-0.0042,-0.7458,0.0376,-20.69,-29.5,2.5,243.55,-85.51,150.86
52.3697,-1.254447,173.66,5.73,3,184.45,18 / 20,2527821,2019-09-04 20:03:27:994,-1.387,-4.4946,10.0051,-0.0152,0.0071,9.8066,-0.0542,-0.7047,0.0508,-21.5,-29.62,3.75,245.03,-85.67,149.71
52.3697,-1.254447,173.66,5.73,3,184.45,18 / 20,2527921,2019-09-04 20:03:28:094,-1.4591,-4.5161,10.1836,-0.0269,0.0143,9.8065,-0.0176,-0.7436,0.0114,-21.25,-30.19,4.88,244.51,-85.82,146.31
52.3697,-1.254447,173.66,5.73,3,184.45,18 / 20,2528020,2019-09-04 20:03:28:193,-1.4734,-4.2503,9.7967,-0.019,0.0213,9.8065,-0.0276,-0.7052,0.0248,-20.06,-29.19,6,241.65,-86.04,139.74
52.3697,-1.254447,173.66,5.73,3,184.45,18 / 20,2528121,2019-09-04 20:03:28:294,-1.5147,-3.9046,9.0183,-0.0199,0.0085,9.8066,-0.018,-0.7067,0.0407,-20.62,-29.37,5.81,236.46,-86.26,134.61
52.3697,-1.254447,173.66,5.73,3,184.45,18 / 20,2528220,2019-09-04 20:03:28:393,-1.9738,-4.0808,9.093,-0.025,-0.0045,9.8065,-0.0254,-0.7239,0.053,-21.87,-29.44,8,238.91,-86.49,132.6
52.3697,-1.254447,173.66,5.73,3,184.45,17 / 19,2528321,2019-09-04 20:03:28:494,-2.3056,-4.2694,9.7323,-0.0302,-0.0073,9.8066,-0.0299,-0.727,0.0499,-20.87,-30.06,8.88,240.82,-86.78,131.27
52.3697,-1.254447,173.66,5.73,3,184.45,17 / 19,2528421,2019-09-04 20:03:28:594,-2.3289,-4.0498,9.5212,-0.0282,-0.0002,9.8066,-0.0328,-0.6947,0.0635,-20.37,-29.56,10.31,240.99,-87.24,127.65
52.3697,-1.254447,173.66,5.73,3,184.45,17 / 19,2528520,2019-09-04 20:03:28:693,-2.4611,-3.8597,9.3161,-0.0272,-0.0093,9.8065,-0.0387,-0.715,0.0794,-21.19,-29.69,11.69,240.07,-87.6,122.88
52.3697,-1.254447,173.66,5.73,3,184.45,17 / 19,2528621,2019-09-04 20:03:28:794,-3.1825,-3.0236,10.2132,-0.0194,-0.011,9.8066,0.0169,-0.7544,0.0338,-20.31,-29.31,12.88,243.21,-87.95,122.4
52.3697,-1.254447,173.66,5.73,3,184.45,17 / 19,2528721,2019-09-04 20:03:28:894,-3.8298,-3.265,10.2442,0.0009,0.0058,9.8066,-0.0112,-0.7157,0.0063,-19.81,-28.69,14.63,248.1,-88.26,123.09
52.3697,-1.254447,173.66,5.73,3,184.45,17 / 19,2528821,2019-09-04 20:03:28:994,-3.1909,-3.0341,9.1928,0.0092,-0.0019,9.8066,0.0428,-0.7009,0.021,-19.94,-27.69,15.44,248.52,-88.21,123.51
52.3697,-1.254447,173.66,5.73,3,184.45,17 / 19,2528921,2019-09-04 20:03:29:094,-3.1941,-2.9774,9.9287,0.0012,-0.0126,9.8066,0.0347,-0.6968,0.0409,-19,-27.5,16.44,254.86,-88.16,126.68
52.3697,-1.254447,173.66,5.73,3,184.45,17 / 19,2529021,2019-09-04 20:03:29:194,-3.1868,-2.0571,9.7392,0.0006,-0.0076,9.8066,0.0276,-0.6812,0.0232,-17.75,-28.69,17.44,263.97,-88.2,132.7
52.3697,-1.254447,173.66,5.73,3,184.45,17 / 19,2529120,2019-09-04 20:03:29:293,-3.232,-2.1589,10.1803,0.001,-0.0061,9.8066,0.0158,-0.666,0.0305,-17.31,-29.56,18.38,270.59,-88.19,136.14
52.3697,-1.254447,173.66,5.73,3,184.45,17 / 19,2529220,2019-09-04 20:03:29:393,-3.1218,-2.1965,10.2191,0.0022,0.0054,9.8066,-0.0141,-0.6367,0.0165,-16.62,-29.31,19.94,274.5,-88.21,136.84
52.3697,-1.254447,173.66,5.73,3,184.45,17 / 20,2529320,2019-09-04 20:03:29:493,-4.534,-2.0253,9.6906,-0.0078,0.0126,9.8065,-0.0065,-0.6635,-0.0067,-15.69,-30,21.25,272.59,-88.29,131.84
52.3697,-1.254447,173.66,5.73,3,184.45,17 / 20,2529421,2019-09-04 20:03:29:594,-3.2962,-1.1859,9.261,0.0045,0.0143,9.8066,-0.0162,-0.6545,0.0179,-14.12,-30.19,22.25,271.7,-88.27,126.16
52.3697,-1.254447,173.66,5.73,3,184.45,17 / 20,2529520,2019-09-04 20:03:29:693,-3.2436,-1.2818,9.5275,-0.0122,0.0043,9.8066,-0.0262,-0.5975,0.0749,-13.94,-28.87,22.13,269.61,-88.43,123.83
52.3697,-1.254447,173.66,5.73,3,184.45,17 / 20,2529620,2019-09-04 20:03:29:793,-3.974,-0.7319,10.2896,-0.0171,-0.0016,9.8066,0.0091,-0.6118,-0.0108,-12.94,-29.19,23.38,272.05,-88.75,122.89
52.3697,-1.254447,173.66,5.73,3,184.45,17 / 20,2529720,2019-09-04 20:03:29:893,-3.5449,-1.0063,9.5522,0.002,0.0035,9.8065,-0.0216,-0.6217,0.053,-11.94,-29.19,24,274.99,-88.86,122.79
52.3697,-1.254447,173.66,5.73,3,184.45,17 / 20,2529820,2019-09-04 20:03:29:993,-3.3191,-0.7177,9.3091,-0.0166,-0.0005,9.8066,-0.0223,-0.6516,0.0064,-10.94,-28.87,23.88,278.15,-89.03,123.82
52.3697,-1.254447,173.66,5.73,3,184.45,17 / 20,2529920,2019-09-04 20:03:30:093,-3.5407,0.134,10.4959,-0.0131,0.0137,9.8066,0.0006,-0.6034,0.0473,-10.75,-29.19,25.31,270.33,-89.29,114.83
52.3697,-1.254447,173.66,5.73,3,184.45,17 / 20,2530020,2019-09-04 20:03:30:193,-3.001,0.169,10.5152,-0.0066,-0.0126,9.8066,0.0617,-0.6337,0.0348,-9.69,-29.5,25.69,275.23,-89.35,116.94
52.3697,-1.254447,173.66,5.73,3,184.45,17 / 20,2530121,2019-09-04 20:03:30:294,-2.9841,-0.3424,10.0338,-0.01,-0.0243,9.8066,0.0413,-0.6397,0.1146,-8.31,-29.69,26.13,300.33,-89.39,138.01
52.3697,-1.254447,173.66,5.73,3,184.45,17 / 19,2530220,2019-09-04 20:03:30:393,-3.2944,-0.1444,9.7083,-0.0159,-0.0294,9.8066,0.0511,-0.6369,0.0779,-7.69,-29.12,26.38,343.41,-89.17,-179.24
52.3697,-1.254447,173.66,5.73,3,184.45,17 / 19,2530320,2019-09-04 20:03:30:493,-3.4998,-0.3884,9.8212,-0.0187,-0.0318,9.8065,0.0408,-0.6284,0.0787,-7.12,-28.25,26.56,6.52,-88.66,-159.1
52.3697,-1.254447,173.66,5.73,3,184.45,17 / 19,2530421,2019-09-04 20:03:30:594,-3.6582,-0.2297,9.837,-0.0088,-0.0159,9.8066,0.0008,-0.6193,0.0545,-5.87,-27.69,27.69,13.27,-88.36,-155.01
52.3697,-1.254447,173.66,5.73,3,184.45,17 / 19,2530520,2019-09-04 20:03:30:693,-3.2619,0.1181,10.1495,-0.0007,0.0002,9.8066,-0.0246,-0.6342,0.0331,-4.44,-28.37,27,20.68,-88.21,-151.56
52.3697,-1.254447,173.66,5.73,3,184.45,17 / 19,2530620,2019-09-04 20:03:30:793,-2.998,0.4093,10.3113,-0.0021,0.0044,9.8066,-0.0559,-0.6193,0.0249,-3.94,-28.5,26.88,23.12,-88.25,-149.16
52.3697,-1.254447,173.66,5.73,3,184.45,17 / 19,2530721,2019-09-04 20:03:30:894,-2.7599,0.3021,9.9683,-0.01,0.0057,9.8066,-0.0217,-0.6509,0.0327,-3.19,-28.19,26.5,26.95,-88.33,-147.5
52.3697,-1.254447,173.66,5.73,3,184.45,17 / 19,2530820,2019-09-04 20:03:30:993,-3.1764,0.3804,9.9905,-0.0062,-0.0027,9.8066,-0.0204,-0.6142,0.0846,-0.81,-29,26.44,39.02,-88.26,-140.01
52.3697,-1.254447,173.66,5.73,3,184.45,17 / 19,2530920,2019-09-04 20:03:31:093,-2.9936,0.7246,9.8411,-0.0139,-0.0083,9.8066,0.0068,-0.6407,0.0414,-0.19,-29.19,26,44.78,-88.07,-136.75
52.3697,-1.254447,173.66,5.73,3,184.45,17 / 19,2531020,2019-09-04 20:03:31:193,-3.3006,0.4492,9.7994,-0.0173,-0.0039,9.8065,-0.0185,-0.6449,0.0562,0.38,-28.81,26,47.74,-87.87,-134.03
52.3697,-1.254447,173.66,5.73,3,184.45,17 / 19,2531120,2019-09-04 20:03:31:293,-2.7607,1.1206,10.2081,-0.002,-0.0036,9.8066,-0.0051,-0.6355,0.0427,1.81,-28.56,25.06,55.38,-87.66,-131.45
52.3697,-1.254447,173.66,5.73,3,184.45,17 / 19,2531220,2019-09-04 20:03:31:393,-3.0873,1.116,10.017,-0.0151,-0.0114,9.8066,0.0135,-0.6398,0.0367,3.06,-29.19,25.19,57.32,-87.48,-132
52.3697,-1.254447,173.66,5.73,3,184.45,17 / 19,2531320,2019-09-04 20:03:31:493,-2.7907,1.3095,10.153,0.0006,-0.0142,9.8066,0.0105,-0.6307,0.0197,3.44,-28.44,24.38,54.13,-87.29,-135.57
52.3697,-1.254447,173.66,5.73,3,184.45,17 / 19,2531421,2019-09-04 20:03:31:594,-2.6333,1.1311,9.6009,-0.0051,-0.0148,9.8066,0.0091,-0.6362,0.0479,4.56,-28.69,23.25,57.07,-87.18,-138.14
52.3697,-1.254447,173.66,5.73,3,184.45,17 / 19,2531521,2019-09-04 20:03:31:694,-2.3011,0.9353,9.9421,-0.0117,-0.0129,9.8066,0.0171,-0.6342,0.0504,5.31,-29.37,23.06,54.86,-86.94,-140.53
52.3697,-1.254447,173.66,5.73,3,184.45,17 / 19,2531621,2019-09-04 20:03:31:794,-2.988,1.1825,9.8911,-0.015,-0.0076,9.8066,-0.016,-0.653,0.0348,5.94,-29.31,22.63,57.4,-86.73,-140.62
52.3697,-1.254447,173.66,5.73,3,184.45,17 / 19,2531720,2019-09-04 20:03:31:893,-2.2968,1.1894,9.596,0.0028,-0.0053,9.8066,-0.025,-0.6341,0.0378,7.25,-30,21.63,59.94,-86.6,-141.58
52.3697,-1.254447,173.66,5.73,3,184.45,17 / 19,2531821,2019-09-04 20:03:31:994,-2.8389,1.8261,9.5784,-0.0019,0.0028,9.8066,-0.0316,-0.6428,0.0265,7.81,-29.25,20.88,62.48,-86.61,-142.31
52.3697,-1.254447,173.66,5.73,3,184.45,17 / 19,2531920,2019-09-04 20:03:32:093,-2.5746,1.5923,9.4857,-0.0036,0.0001,9.8066,-0.0099,-0.6493,0.067,8.44,-28.56,19.88,63.83,-86.62,-142.1
52.3697,-1.254447,173.66,5.73,3,184.45,17 / 19,2532021,2019-09-04 20:03:32:194,-2.5095,1.572,10.2871,-0.0092,-0.0051,9.8066,-0.0061,-0.6614,0.05,9.88,-29.25,18.75,70.2,-86.49,-142.07
52.3697,-1.254447,173.66,5.73,3,184.45,17 / 19,2532121,2019-09-04 20:03:32:294,-1.9816,1.9187,10.3965,-0.0122,-0.0028,9.8066,0.0065,-0.6404,0.0209,11,-29.44,16.38,77.67,-86.29,-142.28
52.3697,-1.254447,173.66,5.73,3,184.45,17 / 19,2532221,2019-09-04 20:03:32:394,-2.6101,2.4086,10.2709,-0.0087,-0.0134,9.8066,0.014,-0.6635,0.0156,10.38,-29.12,16.56,72.01,-86.18,-143.86
52.369633,-1.254498,171.01,4.61,4,241.33,16 / 20,2532321,2019-09-04 20:03:32:494,-1.5153,1.3905,9.4721,0.0014,-0.0107,9.8066,0.0214,-0.6704,0.0527,10.81,-29.56,16.56,72.17,-86.06,-146.35
52.369633,-1.254498,171.01,4.61,4,241.33,16 / 20,2532420,2019-09-04 20:03:32:593,-1.9298,2.6687,9.3343,-0.0186,-0.0012,9.8066,0.0027,-0.6783,0.0705,11.88,-29.75,14.44,79.87,-85.74,-147.6
52.369633,-1.254498,171.01,4.61,4,241.33,16 / 20,2532521,2019-09-04 20:03:32:694,-1.351,3.283,9.8671,-0.0149,-0.0044,9.8066,-0.0053,-0.6816,0.0334,12.56,-30.56,13.25,85.11,-85.45,-147.59
52.369633,-1.254498,171.01,4.61,4,241.33,16 / 20,2532621,2019-09-04 20:03:32:794,-1.2646,2.8612,10.1647,-0.006,0.0003,9.8066,-0.0165,-0.6554,0.0674,11.94,-30.37,12.56,82.14,-85.37,-148.42
52.369633,-1.254498,171.01,4.61,4,241.33,16 / 20,2532721,2019-09-04 20:03:32:894,-1.0162,3.1036,10.0213,-0.0047,-0.01,9.8066,-0.0037,-0.6616,0.0317,12.69,-29.75,10.25,91.87,-85.27,-149.26
52.369633,-1.254498,171.01,4.61,4,241.33,16 / 20,2532821,2019-09-04 20:03:32:994,-0.7718,2.9956,9.7424,-0.0107,-0.0053,9.8066,0.0008,-0.6861,0.0377,12.69,-30.37,9.19,93.96,-85.19,-150.5
52.369633,-1.254498,171.01,4.61,4,241.33,16 / 20,2532921,2019-09-04 20:03:33:094,-1.227,3.7733,10.363,-0.0084,-0.0089,9.8066,-0.0176,-0.6345,0.0222,12.44,-29.94,7.56,95.13,-85.08,-151.44
52.369633,-1.254498,171.01,4.61,4,241.33,16 / 20,2533021,2019-09-04 20:03:33:194,-0.6207,3.1226,9.7582,-0.0012,-0.0166,9.8066,-0.0223,-0.6602,0.0296,12.69,-29.87,6.13,101.14,-85.04,-154.32
52.369633,-1.254498,171.01,4.61,4,241.33,16 / 20,2533121,2019-09-04 20:03:33:294,-0.673,3.2184,9.2196,0.0081,-0.0012,9.8066,-0.0488,-0.6589,0.0553,13.06,-31,5.94,99.75,-85.13,-155.91
52.369633,-1.254498,171.01,4.61,4,241.33,16 / 20,2533220,2019-09-04 20:03:33:393,-0.1028,3.3078,9.8155,0.0075,0.003,9.8066,-0.0376,-0.6646,0.0239,12.56,-31.37,3.56,108.24,-85.22,-155.02
52.369633,-1.254498,171.01,4.61,4,241.33,17 / 19,2533320,2019-09-04 20:03:33:493,0.526,3.9583,11.0427,-0.0115,-0.0125,9.8066,-0.0273,-0.5089,0.0067,12.25,-30.81,2.56,110.33,-85.28,-156.77
52.369633,-1.254498,171.01,4.61,4,241.33,17 / 19,2533421,2019-09-04 20:03:33:594,0.3826,3.7823,10.5831,-0.0279,-0.0001,9.8066,0.0174,-0.6202,0.0267,11.88,-31,2.75,108.02,-85.15,-159.53
52.369633,-1.254498,171.01,4.61,4,241.33,17 / 19,2533520,2019-09-04 20:03:33:693,0.6467,3.1886,9.6174,-0.0154,-0.0056,9.8066,0.0412,-0.6583,0.0255,11.94,-30.5,1.63,111.2,-84.98,-160.91
52.369633,-1.254498,171.01,4.61,4,241.33,17 / 19,2533621,2019-09-04 20:03:33:794,1.5066,3.4875,8.9656,-0.0096,0.0131,9.8065,0.0075,-0.6528,0.1181,11.13,-30.19,0,120.44,-84.72,-161.98
52.369633,-1.254498,171.01,4.61,4,241.33,17 / 19,2533720,2019-09-04 20:03:33:893,2.3854,4.4165,9.8157,-0.0037,0.0197,9.8065,-0.0155,-0.6909,0.0957,10,-30.56,-0.31,124.29,-84.46,-159.95
52.369633,-1.254498,171.01,4.61,4,241.33,17 / 19,2533821,2019-09-04 20:03:33:994,2.6918,3.3732,10.7372,0.0019,-0.0216,9.8065,-0.0852,-0.6806,0.0259,9.63,-31,-1.75,133.2,-84.51,-160.25
52.369633,-1.254498,171.01,4.61,4,241.33,17 / 19,2533920,2019-09-04 20:03:34:093,3.1556,2.6183,10.4138,0.0052,-0.0169,9.8065,-0.0915,-0.7038,0.0487,10.13,-30.81,-3.75,139.5,-84.85,-161.86
52.369633,-1.254498,171.01,4.61,4,241.33,17 / 19,2534020,2019-09-04 20:03:34:193,3.0944,1.6816,9.7815,-0.0049,-0.0057,9.8066,-0.0345,-0.7064,0.0743,8.44,-30.19,-4.62,147.57,-85.09,-162.75
52.369633,-1.254498,171.01,4.61,4,241.33,17 / 19,2534120,2019-09-04 20:03:34:293,3.5691,2.6754,8.9184,-0.0033,0.0114,9.8066,-0.0154,-0.7105,0.0776,8.06,-31.06,-5.31,147.66,-85.1,-162.91
52.369633,-1.254498,171.01,4.61,4,241.33,17 / 19,2534220,2019-09-04 20:03:34:393,4.1791,2.0883,9.5039,-0.0089,-0.0068,9.8066,0.0131,-0.6808,-0.0383,7.5,-31.5,-6.19,150.96,-85.03,-163.32
52.369633,-1.254498,171.01,4.61,4,241.33,18 / 20,2534321,2019-09-04 20:03:34:494,3.9417,0.761,9.8872,-0.0232,-0.0169,9.8066,-0.0098,-0.6931,0.0398,6.38,-31.69,-7.31,157.76,-85.11,-168
52.369633,-1.254498,171.01,4.61,4,241.33,18 / 20,2534420,2019-09-04 20:03:34:593,3.201,0.5989,10.0148,-0.001,-0.0119,9.8065,-0.0236,-0.6927,0.0539,6.06,-31.62,-7.31,156.5,-85.11,-169.6
52.369633,-1.254498,171.01,4.61,4,241.33,18 / 20,2534520,2019-09-04 20:03:34:693,3.7863,0.4717,10.1336,0.0088,-0.0013,9.8066,-0.0491,-0.7076,0.087,4.94,-31.44,-8.37,163.14,-85.24,-169.33
52.369633,-1.254498,171.01,4.61,4,241.33,18 / 20,2534621,2019-09-04 20:03:34:794,4.0542,-0.1241,9.5643,0.009,-0.0134,9.8066,0.0003,-0.6555,0.039,3.63,-31.37,-8.5,168.75,-85.42,-167.75
52.369633,-1.254498,171.01,4.61,4,241.33,18 / 20,2534720,2019-09-04 20:03:34:893,4.6606,-0.8563,9.9488,0.0062,0.0035,9.8066,-0.0135,-0.6726,0.0512,2.19,-31.06,-10.31,181.57,-85.49,-166.75
52.369633,-1.254498,171.01,4.61,4,241.33,18 / 20,2534821,2019-09-04 20:03:34:994,4.0626,-1.2482,9.868,-0.0192,0.0062,9.8066,0.0335,-0.7157,0.0021,1.81,-31.06,-11.19,181.51,-85.49,-167.86
52.369633,-1.254498,171.01,4.61,4,241.33,18 / 20,2534921,2019-09-04 20:03:35:094,4.0169,-1.6177,9.7779,-0.0266,0.0112,9.8065,-0.0133,-0.6762,0.0161,0,-31.5,-10.44,185.96,-85.37,-172.57
52.369633,-1.254498,171.01,4.61,4,241.33,18 / 20,2535021,2019-09-04 20:03:35:194,3.3814,-1.1432,9.5864,-0.0297,0.0068,9.8065,0.0094,-0.6773,-0.0127,0.38,-31.19,-10.5,182.8,-85.33,-176.5
52.369633,-1.254498,171.01,4.61,4,241.33,18 / 20,2535121,2019-09-04 20:03:35:294,3.1497,-1.8309,9.6809,-0.0109,0.0055,9.8066,-0.0195,-0.6881,0.0512,-1.62,-30.62,-11.25,188.45,-85.38,-180
52.369633,-1.254498,171.01,4.61,4,241.33,18 / 20,2535221,2019-09-04 20:03:35:394,3.3832,-2.1494,9.8292,0.0084,-0.0063,9.8066,0.0334,-0.6788,0.075,-2.25,-31.69,-10.87,187.65,-85.41,179.07
