GPS LATITUDE (degrees), GPS LONGITUDE (degrees), GPS ALTITUDE (m), GPS SPEED (Kmh), GPS ACCURACY (m), GPS ORIENTATION (Â°),GPS SATELLITES IN RANGE, TIME SINCE START (ms), DATE (YYYY-MO-DD HH-MI-SS_SSS), ACCELEROMETER X (m/s²) , ACCELEROMETER Y (m/s²), ACCELEROMETER Z (m/s²), GRAVITY X (m/s²), GRAVITY Y (m/s²), GRAVITY Z (m/s²), GYROSCOPE Yaw (rad/s), GYROSCOPE Pitch (rad/s), GYROSCOPE Roll (rad/s), MAGNETIC FIELD X (Î¼T), MAGNETIC FIELD Y (Î¼T), MAGNETIC FIELD Z (Î¼T), ORIENTATION (Yaw) (Â°), ORIENTATION (Pitch) (Â°), ORIENTATION (Roll ) (Â°)
52.578316,-1.537562,138.26,17.23,4,132.74,21 / 23,7944914,2019-11-06 18:18:45:376,0.2221,-1.1026,9.6625,0.0151,-0.006,9.8065,0.0657,0.1845,-0.0377,-20.25,-36.31,26.06,257.28,-88.72,116.21
52.578316,-1.537562,138.26,17.23,4,132.74,21 / 23,7945014,2019-11-06 18:18:45:476,1.8638,0.5993,9.5905,0.0216,0.0071,9.8066,-0.0478,0.1916,-0.1105,-19.81,-36.62,26.19,265.07,-88.66,124.14
52.578316,-1.537562,138.26,17.23,4,132.74,21 / 23,7945113,2019-11-06 18:18:45:575,-0.1484,0.2987,10.6049,-0.0034,0.0167,9.8066,-0.0212,0.0904,-0.0354,-20.25,-36.12,26.81,265.81,-88.58,123.86
52.578316,-1.537562,138.26,17.23,4,132.74,21 / 23,7945213,2019-11-06 18:18:45:675,0.792,-0.3249,9.8125,-0.0137,0.0123,9.8066,-0.0511,0.0448,0.0382,-20.31,-36.44,26.13,266.31,-88.6,125.42
52.578316,-1.537562,138.26,17.23,4,132.74,21 / 23,7945314,2019-11-06 18:18:45:776,0.6456,-0.4057,9.1509,0.0007,0.003,9.8066,-0.0576,0.115,-0.0282,-20.5,-36.75,26.31,266.56,-88.52,125.79
52.578316,-1.537562,138.26,17.23,4,132.74,21 / 23,7945414,2019-11-06 18:18:45:876,0.4098,0.6889,10.2686,0.006,0.0123,9.8065,0.0383,0.0738,-0.0335,-20.56,-36.37,26.69,263.93,-88.74,123.12
52.578316,-1.537562,138.26,17.23,4,132.74,21 / 23,7945514,2019-11-06 18:18:45:976,0.2069,-0.5634,10.461,0.0112,-0.002,9.8066,0.0999,0.0702,-0.0363,-20.19,-36.37,26.56,260.29,-88.72,118.18
52.578316,-1.537562,138.26,17.23,4,132.74,21 / 23,7945613,2019-11-06 18:18:46:075,1.1407,0.2599,9.5903,0.0079,0.0041,9.8066,-0.0447,0.1209,-0.0487,-20.31,-36.62,26.31,266.25,-88.66,125.33
52.578316,-1.537562,138.26,17.23,4,132.74,21 / 23,7945714,2019-11-06 18:18:46:176,0.1562,1.2724,10.0544,-0.0033,0.0116,9.8066,-0.0372,-0.101,0.0797,-20.12,-36.56,25.81,264.22,-88.61,123.34
52.578316,-1.537562,138.26,17.23,4,132.74,21 / 23,7945814,2019-11-06 18:18:46:276,-1.2512,-0.0407,9.3128,-0.0016,-0.0117,9.8066,0.0198,0.0188,-0.03,-20.5,-36.44,25.94,259.97,-88.66,118.99
52.578316,-1.537562,138.26,17.23,4,132.74,21 / 23,7945914,2019-11-06 18:18:46:376,-1.4008,1.334,9.8172,0.0016,0.0082,9.8066,-0.0265,-0.0283,-0.0654,-21,-36.87,25.81,257.47,-88.59,117.92
52.578316,-1.537562,138.26,17.23,4,132.74,21 / 23,7946014,2019-11-06 18:18:46:476,0.1038,-0.0972,9.0847,0.0082,-0.0132,9.8066,0.1101,-0.0519,0.0251,-20.62,-36.62,25.75,248.63,-88.59,109
52.578316,-1.537562,138.26,17.23,4,132.74,21 / 23,7946114,2019-11-06 18:18:46:576,0.8696,-0.1609,10.3897,0.0091,0.0086,9.8066,-0.0209,-0.0714,-0.036,-21.25,-35.87,25.88,248.86,-88.44,109.34
52.578316,-1.537562,138.26,17.23,4,132.74,21 / 23,7946214,2019-11-06 18:18:46:676,0.1338,-0.9206,9.4676,-0.018,-0.0026,9.8065,0.03,-0.0853,0.1039,-20.56,-36.25,26.56,258.65,-88.2,118.38
52.578316,-1.537562,138.26,17.23,4,132.74,21 / 23,7946314,2019-11-06 18:18:46:776,0.35,-0.158,9.8746,0.0104,-0.0154,9.8065,0.0267,-0.0784,0.0146,-21.25,-36.25,26.19,259.17,-88.18,120.02
52.578316,-1.537562,138.26,17.23,4,132.74,21 / 23,7946414,2019-11-06 18:18:46:876,-0.0572,-0.9215,10.0035,-0.0132,0.0116,9.8066,-0.0058,-0.1008,0.0767,-20.5,-35.31,27.06,256.58,-88.37,114.76
52.578316,-1.537562,138.26,17.23,4,132.74,21 / 23,7946514,2019-11-06 18:18:46:976,1.4529,0.4403,9.4162,-0.007,-0.0053,9.8066,0.0537,-0.0923,0.0658,-20.31,-35.62,27.75,254.24,-88.39,111.4
52.578316,-1.537562,138.26,17.23,4,132.74,21 / 23,7946614,2019-11-06 18:18:47:076,1.096,-0.3689,9.5751,-0.0129,0.0149,9.8066,-0.1418,-0.0318,0.0385,-20.44,-35.56,26.63,252.57,-88.32,110.81
52.578316,-1.537562,138.26,17.23,4,132.74,21 / 23,7946714,2019-11-06 18:18:47:176,0.8708,1.0291,9.4855,-0.0117,-0.018,9.8066,0.0637,-0.1685,0.1197,-20.31,-35.44,26.19,252.55,-88.35,111.78
52.578316,-1.537562,138.26,17.23,4,132.74,21 / 23,7946813,2019-11-06 18:18:47:275,-2.1436,0.448,10.1729,-0.019,-0.0092,9.8065,-0.0388,-0.1401,0.0384,-20.12,-36.56,25.63,250.31,-88.29,109.69
52.578316,-1.537562,138.26,17.23,4,132.74,22 / 25,7946914,2019-11-06 18:18:47:376,1.1712,0.4137,10.2098,-0.0115,-0.012,9.8066,0.0698,-0.1645,0.1378,-19.87,-36.37,25.88,246.66,-88.47,105.77
52.578316,-1.537562,138.26,17.23,4,132.74,22 / 25,7947013,2019-11-06 18:18:47:475,-0.3977,-1.0072,9.8614,0.0043,-0.0322,9.8065,0.0397,-0.1963,-0.0161,-20.19,-36.75,25.56,247.92,-88.43,107.12
52.578316,-1.537562,138.26,17.23,4,132.74,22 / 25,7947113,2019-11-06 18:18:47:575,1.4532,1.4801,10.0369,-0.0174,-0.0224,9.8065,-0.0221,-0.0956,0.0896,-20.31,-36.37,25.75,251.22,-88.45,110.39
52.578316,-1.537562,138.26,17.23,4,132.74,22 / 25,7947214,2019-11-06 18:18:47:676,0.098,-1.0491,9.8081,-0.0251,-0.0111,9.8066,0.0154,-0.2564,0.1111,-20.56,-36.94,25.38,244.83,-88.29,106.61
52.578316,-1.537562,138.26,17.23,4,132.74,22 / 25,7947313,2019-11-06 18:18:47:775,1.4305,0.83,9.9718,-0.0246,-0.0136,9.8066,-0.0145,0.1315,-0.1215,-20.19,-36,26.19,244.93,-88.53,103.95
52.578316,-1.537562,138.26,17.23,4,132.74,22 / 25,7947414,2019-11-06 18:18:47:876,0.3241,0.325,10.1291,0.0064,0.0065,9.8066,-0.0022,-0.1175,0.1429,-20.69,-36.62,26.06,238.4,-88.63,98.61
52.578316,-1.537562,138.26,17.23,4,132.74,22 / 25,7947513,2019-11-06 18:18:47:975,1.5109,1.2145,9.3301,-0.019,-0.007,9.8066,-0.1128,0.1336,-0.1035,-19.81,-36.75,26.25,238.54,-88.63,97.41
52.578316,-1.537562,138.26,17.23,4,132.74,22 / 25,7947613,2019-11-06 18:18:48:075,0.4289,-0.7676,10.4035,-0.0287,0.0278,9.8065,0.0087,0.0181,0.0952,-20.62,-36.62,25.56,230.81,-88.71,90.83
52.578316,-1.537562,138.26,17.23,4,132.74,22 / 25,7947713,2019-11-06 18:18:48:175,-1.6238,-1.0488,10.0667,0.0348,-0.0309,9.8064,0.0461,0.2404,-0.1528,-21.06,-37.06,26,237.6,-88.64,97.79
52.578316,-1.537562,138.26,17.23,4,132.74,22 / 25,7947813,2019-11-06 18:18:48:275,-1.8021,-2.6789,10.4619,0.038,0.0294,9.8065,-0.0029,-0.0742,-0.0086,-20.75,-36.94,25.63,242.62,-88.75,102.77
52.578316,-1.537562,138.26,17.23,4,132.74,19 / 23,7947915,2019-11-06 18:18:48:377,1.9863,0.5257,10.1496,0.0024,-0.021,9.8066,-0.0131,-0.2591,0.0332,-20.5,-36.25,26.31,248.8,-88.43,107.97
52.578316,-1.537562,138.26,17.23,4,132.74,19 / 23,7948013,2019-11-06 18:18:48:475,1.4154,2.6765,8.7144,0.0938,0.09,9.8058,0.0256,-0.6881,0.6003,-19.94,-36.56,26.25,245.96,-88.53,105.03
52.578316,-1.537562,138.26,17.23,4,132.74,19 / 23,7948113,2019-11-06 18:18:48:575,-2.8927,-3.9796,10.5208,-0.0284,0.0202,9.8066,0.1753,-0.4791,-0.018,-19.94,-37,26.69,240.74,-88.34,98.86
52.578316,-1.537562,138.26,17.23,4,132.74,19 / 23,7948214,2019-11-06 18:18:48:676,-0.5514,-1.2032,10.1561,0.0366,0.0402,9.8064,0.162,-0.4314,0.2442,-20.62,-36.62,26.13,238.07,-87.95,98.91
52.578316,-1.537562,138.26,17.23,4,132.74,19 / 23,7948314,2019-11-06 18:18:48:776,-0.023,0.193,9.5947,0.0263,0.0103,9.8066,0.0162,-0.1633,0.0249,-20.56,-36.62,26.56,248.67,-87.97,108.58
52.578316,-1.537562,138.26,17.23,4,132.74,19 / 23,7948414,2019-11-06 18:18:48:876,5.1742,1.5982,10.0354,0.0662,0.034,9.8063,-0.0339,-0.6204,0.3542,-20.25,-37.12,26.63,250.23,-88.04,108.79
52.578316,-1.537562,138.26,17.23,4,132.74,19 / 23,7948514,2019-11-06 18:18:48:976,3.4322,2.635,9.8706,-0.0235,0.0129,9.8066,0.0863,-0.242,0.078,-20.5,-36.5,26.19,247.26,-87.99,106.85
52.578316,-1.537562,138.26,17.23,4,132.74,19 / 23,7948614,2019-11-06 18:18:49:076,1.8479,1.7826,9.3257,0.0289,0.0624,9.8064,0.14,-0.7188,0.2604,-19.87,-36.75,26.44,250.96,-88.08,110.57
52.578316,-1.537562,138.26,17.23,4,132.74,19 / 23,7948714,2019-11-06 18:18:49:176,-5.7108,-3.1377,10.2224,0.0236,0.0166,9.8065,-0.0561,-0.402,0.3375,-20.5,-36.62,26.13,247.66,-87.98,107.33
52.578316,-1.537562,138.26,17.23,4,132.74,19 / 23,7948815,2019-11-06 18:18:49:277,-0.5337,-2.104,9.2874,0.0791,0.0602,9.8061,0.0311,-0.7615,0.399,-20.31,-36.56,26.19,242.2,-87.87,101.89
52.578316,-1.537562,138.26,17.23,4,132.74,21 / 21,7948913,2019-11-06 18:18:49:375,-3.365,-4.3184,10.6552,0.0403,0.0371,9.8065,0.1235,-0.6467,0.3564,-20.56,-36.94,26.25,245.09,-88.06,105.95
52.578316,-1.537562,138.26,17.23,4,132.74,21 / 21,7949014,2019-11-06 18:18:49:476,3.0786,3.172,9.5579,0.0401,0.0772,9.8062,0.1896,-0.4904,0.1872,-20.44,-36.62,26.31,253.91,-88.29,113.32
52.578316,-1.537562,138.26,17.23,4,132.74,21 / 21,7949113,2019-11-06 18:18:49:575,-1.7491,-1.7439,9.6895,0.0605,0.0473,9.8063,0.0301,-0.6573,0.3407,-19.87,-37.44,26.75,246.52,-87.79,105.27
52.578316,-1.537562,138.26,17.23,4,132.74,21 / 21,7949214,2019-11-06 18:18:49:676,0.8359,2.1951,10.2086,0.0261,0.0477,9.8064,0.0492,-0.0662,0.1725,-20,-37.31,26.56,251.15,-88.07,109.69
52.578316,-1.537562,138.26,17.23,4,132.74,21 / 21,7949313,2019-11-06 18:18:49:775,-2.6014,-1.1897,9.6193,0.0256,0.0178,9.8065,-0.0374,-0.3971,0.0612,-20,-37.12,26.56,248.77,-87.92,107.42
52.578316,-1.537562,138.26,17.23,4,132.74,21 / 21,7949414,2019-11-06 18:18:49:876,-0.0695,0.0978,10.0494,0.0196,-0.0149,9.8066,-0.0507,0.1902,0.0199,-20.62,-36.87,26.5,251.05,-87.84,111.12
52.578316,-1.537562,138.26,17.23,4,132.74,21 / 21,7949514,2019-11-06 18:18:49:976,-1.0662,-1.1287,9.7351,0.025,0.0133,9.8066,-0.0501,-0.0905,-0.0813,-20.5,-36.94,25.75,252.62,-87.77,112.58
52.578316,-1.537562,138.26,17.23,4,132.74,21 / 21,7949613,2019-11-06 18:18:50:075,0.4139,0.9009,9.4247,-0.0112,-0.013,9.8065,-0.0594,0.2224,-0.1644,-19.5,-36.94,26.06,249.76,-87.58,108.52
52.578316,-1.537562,138.26,17.23,4,132.74,21 / 21,7949713,2019-11-06 18:18:50:175,0.875,0.7279,10.0372,0.0056,0.0111,9.8065,-0.0393,0.0297,-0.035,-19.37,-37.06,26.44,248.51,-87.55,107.27
52.578316,-1.537562,138.26,17.23,4,132.74,21 / 21,7949813,2019-11-06 18:18:50:275,0.2502,2.3453,9.0613,-0.0071,-0.0245,9.8066,-0.1457,0.1545,-0.0731,-19.94,-36.81,26.13,245.49,-87.47,105.63
52.578316,-1.537562,138.26,17.23,4,132.74,21 / 23,7949913,2019-11-06 18:18:50:375,0.1485,-1.0375,10.5682,-0.0035,0.0188,9.8066,0.1357,-0.0777,0.0521,-19.69,-36.56,26.13,244.54,-87.61,104.52
52.578316,-1.537562,138.26,17.23,4,132.74,21 / 23,7950014,2019-11-06 18:18:50:476,-1.427,-0.2391,9.5293,-0.0362,-0.0012,9.8065,0.0373,0.1504,-0.1981,-20.37,-37.25,25.44,246.92,-87.56,108.15
52.578316,-1.537562,138.26,17.23,4,132.74,21 / 23,7950114,2019-11-06 18:18:50:576,-0.6874,-0.7704,10.1051,0.0158,0.0144,9.8066,0.0165,-0.0173,0.1097,-20.06,-36.5,26,243.59,-87.53,103.57
52.578316,-1.537562,138.26,17.23,4,132.74,21 / 23,7950213,2019-11-06 18:18:50:675,-0.4221,0.3127,10.0261,0.0114,-0.0078,9.8066,-0.0282,0.0314,0.0003,-20.19,-36.87,26.19,243.85,-87.68,103.75
52.578316,-1.537562,138.26,17.23,4,132.74,21 / 23,7950314,2019-11-06 18:18:50:776,0.6226,-0.0567,9.3171,-0.0011,-0.0016,9.8066,0.0723,0.0469,0.0065,-19.75,-37.25,26.31,245.75,-87.61,105.75
52.578316,-1.537562,138.26,17.23,4,132.74,21 / 23,7950414,2019-11-06 18:18:50:876,-1.1875,-1.5486,9.49,0.0114,0.0097,9.8066,0.1014,-0.1154,0.1041,-19.69,-36.81,25.94,252.02,-87.51,112.25
52.578316,-1.537562,138.26,17.23,4,132.74,21 / 23,7950514,2019-11-06 18:18:50:976,0.2775,0.3199,9.8533,-0.0182,-0.0262,9.8065,0.0304,0.0088,-0.064,-19.56,-37.37,26.31,256.9,-87.51,117.2
52.578316,-1.537562,138.26,17.23,4,132.74,21 / 23,7950613,2019-11-06 18:18:51:075,1.4579,2.1487,10.241,0.0163,0.0187,9.8066,-0.0444,-0.2489,0.202,-19.87,-37.12,26,255.62,-87.57,115.84
52.578316,-1.537562,138.26,17.23,4,132.74,21 / 23,7950714,2019-11-06 18:18:51:176,-1.6926,-0.8279,9.3186,-0.0035,0.0166,9.8066,-0.0353,-0.1937,0.0749,-20.06,-37.44,26,252.32,-87.69,112.36
52.578316,-1.537562,138.26,17.23,4,132.74,21 / 23,7950814,2019-11-06 18:18:51:276,-0.4739,0.1171,9.0603,0.0144,0.0289,9.8065,-0.1003,-0.2592,0.1711,-20.06,-36.75,26.63,247.61,-87.73,106.44
52.578316,-1.537562,138.26,17.23,4,132.74,20 / 22,7950914,2019-11-06 18:18:51:376,-0.9962,-2.3008,10.513,0.0036,0.0376,9.8066,0.0473,-0.3336,0.1562,-20.19,-37,26,241.48,-87.89,101.12
52.578316,-1.537562,138.26,17.23,4,132.74,20 / 22,7951013,2019-11-06 18:18:51:475,1.0692,1.41,8.9418,0.0037,0.0239,9.8066,0.0974,-0.0259,-0.0235,-19.75,-37,26.13,241.06,-88.02,100.57
52.578316,-1.537562,138.26,17.23,4,132.74,20 / 22,7951113,2019-11-06 18:18:51:575,-1.249,-1.3488,10.3145,0.0223,0.0164,9.8065,0.0468,-0.2057,0.1281,-20.31,-37.12,26.38,240.36,-87.86,100.01
52.578316,-1.537562,138.26,17.23,4,132.74,20 / 22,7951213,2019-11-06 18:18:51:675,-0.8667,0.7733,10.505,0.013,-0.0124,9.8066,0.0413,0.1449,0.0127,-20,-36.75,26.31,246.08,-87.92,105.77
52.578316,-1.537562,138.26,17.23,4,132.74,20 / 22,7951314,2019-11-06 18:18:51:776,0.5239,0.3795,9.5479,0.0039,-0.014,9.8066,0.0568,-0.0111,-0.005,-20.25,-36.44,27.13,253.05,-87.81,111.81
52.578316,-1.537562,138.26,17.23,4,132.74,20 / 22,7951414,2019-11-06 18:18:51:876,-0.2311,-0.4073,10.2507,-0.0025,0.0039,9.8066,0.1257,-0.0715,0.0364,-19.69,-36.69,27.13,256.03,-87.78,114.92
52.578316,-1.537562,138.26,17.23,4,132.74,20 / 22,7951514,2019-11-06 18:18:51:976,0.1857,-0.1764,9.325,0.0118,0.001,9.8066,-0.0162,-0.0759,-0.0537,-19.12,-36.31,27.06,261.16,-87.66,118.82
52.578316,-1.537562,138.26,17.23,4,132.74,20 / 22,7951613,2019-11-06 18:18:52:075,0.9682,-1.645,9.8635,0.0098,-0.0162,9.8066,-0.013,0.1807,-0.0534,-19.56,-37,26,258.7,-87.55,118.97
52.578316,-1.537562,138.26,17.23,4,132.74,20 / 22,7951714,2019-11-06 18:18:52:176,-0.0011,-0.8886,9.6869,0.0157,0.0073,9.8066,0.0623,0.0091,-0.039,-19.44,-36.44,25.75,263.27,-87.36,122.35
52.578316,-1.537562,138.26,17.23,4,132.74,20 / 22,7951814,2019-11-06 18:18:52:276,-1.349,0.868,9.2506,-0.0538,0.0046,9.8064,0.0911,0.4299,-0.2848,-19.62,-36.31,24.5,261.47,-87.19,123.25
52.578316,-1.537562,138.26,17.23,4,132.74,21 / 21,7951921,2019-11-06 18:18:52:383,2.9141,3.0473,10.5231,-0.0278,0.0218,9.8065,0.0541,0.1295,-0.0691,-20.69,-36.69,25.19,253.46,-87.31,116.4
52.578316,-1.537562,138.26,17.23,4,132.74,21 / 21,7952014,2019-11-06 18:18:52:476,-5.5974,-0.6525,9.8604,-0.0674,-0.0148,9.8063,0.022,0.6036,-0.2062,-20.25,-37.12,26.06,254.12,-87.24,114.67
52.578316,-1.537562,138.26,17.23,4,132.74,21 / 21,7952114,2019-11-06 18:18:52:576,-1.5354,-0.0264,10.1379,-0.0233,-0.0336,9.8065,-0.0265,0.2848,-0.2198,-20.06,-37.5,26.31,253.88,-87.45,114.19
52.578316,-1.537562,138.26,17.23,4,132.74,21 / 21,7952213,2019-11-06 18:18:52:675,-2.1626,0.0919,9.9881,-0.0081,-0.0304,9.8065,-0.0048,0.3226,-0.0311,-20.25,-37.12,26.69,253.61,-87.3,112.98
52.578316,-1.537562,138.26,17.23,4,132.74,21 / 21,7952313,2019-11-06 18:18:52:775,1.7686,2.344,9.4372,-0.0274,-0.0204,9.8065,-0.0745,0.2346,-0.2076,-20,-37.5,26,255.83,-87.43,116.2
52.578316,-1.537562,138.26,17.23,4,132.74,21 / 21,7952414,2019-11-06 18:18:52:876,-0.8009,2.2139,10.1553,-0.0228,-0.0135,9.8066,-0.0578,0.2026,-0.1055,-20.44,-36.94,26.13,251.93,-87.44,112.24
52.578316,-1.537562,138.26,17.23,4,132.74,21 / 21,7952514,2019-11-06 18:18:52:976,1.9596,0.3334,9.3327,-0.0044,0.0045,9.8066,-0.1105,0.1597,-0.0613,-20.37,-37.19,25.88,247.48,-87.4,107.74
52.578316,-1.537562,138.26,17.23,4,132.74,21 / 21,7952614,2019-11-06 18:18:53:076,-0.9749,0.0717,9.7267,-0.0026,-0.0304,9.8065,0.0252,0.1705,-0.0734,-19.69,-36.87,25.5,243.07,-87.37,103.27
52.578316,-1.537562,138.26,17.23,4,132.74,21 / 21,7952714,2019-11-06 18:18:53:176,1.0811,1.027,9.0294,-0.0138,-0.019,9.8065,0.0232,0.229,-0.1105,-20.12,-37.12,26.13,249.48,-87.44,109.73
52.578316,-1.537562,138.26,17.23,4,132.74,21 / 21,7952814,2019-11-06 18:18:53:276,-0.0834,-0.7269,9.9552,-0.0256,-0.0107,9.8066,-0.1182,0.0942,0.0028,-20.62,-37.19,25.94,248.35,-87.43,109.91
52.578316,-1.537562,138.26,17.23,4,132.74,20 / 24,7952914,2019-11-06 18:18:53:376,-0.9542,1.7234,10.0645,-0.035,0.0001,9.8066,-0.0427,0.1545,-0.0595,-20.44,-37.25,25.75,244.21,-87.81,103.98
52.578316,-1.537562,138.26,17.23,4,132.74,20 / 24,7953014,2019-11-06 18:18:53:476,-0.0068,-0.019,10.1795,-0.0244,0.0076,9.8066,0.0525,-0.0059,-0.0557,-20.31,-36.81,25.75,236.71,-87.93,96.22
52.578316,-1.537562,138.26,17.23,4,132.74,20 / 24,7953114,2019-11-06 18:18:53:576,-0.7244,1.695,9.3653,0.0198,-0.0223,9.8066,-0.0651,0.1109,0.0512,-20.37,-37.12,25.56,241.21,-87.84,100.89
52.578316,-1.537562,138.26,17.23,4,132.74,20 / 24,7953213,2019-11-06 18:18:53:675,0.8475,0.0755,10.2204,0.03,-0.017,9.8065,-0.0286,-0.0733,0.1186,-20.94,-36.69,25.69,243.59,-87.89,104.6
52.578316,-1.537562,138.26,17.23,4,132.74,20 / 24,7953313,2019-11-06 18:18:53:775,0.9648,0.3228,9.5445,-0.0365,-0.0112,9.8066,0.1303,0.0296,-0.1085,-20.75,-36.75,26.38,249.85,-87.94,110.91
52.578316,-1.537562,138.26,17.23,4,132.74,20 / 24,7953413,2019-11-06 18:18:53:875,0.327,0.2833,9.9466,-0.017,0.0215,9.8065,0.0391,-0.0701,0.0076,-20.37,-37.06,26.38,253.05,-87.8,112.98
52.578316,-1.537562,138.26,17.23,4,132.74,20 / 24,7953514,2019-11-06 18:18:53:976,-1.5021,0.5262,9.3825,0.0136,0.0027,9.8066,-0.099,0.0079,0.0749,-20.44,-36.75,26,247.82,-87.87,107.6
52.578316,-1.537562,138.26,17.23,4,132.74,20 / 24,7953614,2019-11-06 18:18:54:076,-1.842,-0.1269,9.374,0.0203,0.0205,9.8066,-0.001,-0.1223,0.1002,-19.81,-37,25.38,241.19,-87.81,102.05
52.578316,-1.537562,138.26,17.23,4,132.74,20 / 24,7953714,2019-11-06 18:18:54:176,0.9972,-1.4708,9.9009,-0.0363,0.0225,9.8065,0.0945,-0.1264,-0.0428,-19.75,-36.81,25.75,239.09,-87.84,98.73
52.578316,-1.537562,138.26,17.23,4,132.74,20 / 24,7953814,2019-11-06 18:18:54:276,-0.0787,1.6644,9.926,0.0024,0.0254,9.8066,0.0863,-0.1137,0.0203,-20.12,-36.56,25.19,239.68,-87.82,100.5
52.577396,-1.53584,138.47,16.36,4,131.99,20 / 20,7953914,2019-11-06 18:18:54:376,-2.3545,0.3123,8.958,-0.046,-0.0037,9.8065,0.17,0.0534,-0.136,-20.5,-36.69,25.69,240.12,-87.6,100.02
52.577396,-1.53584,138.47,16.36,4,131.99,20 / 20,7954014,2019-11-06 18:18:54:476,0.9954,0.7739,9.8344,0.0047,-0.0122,9.8066,-0.0246,0.2114,-0.053,-19.81,-37.69,26.13,242.51,-87.57,102.55
52.577396,-1.53584,138.47,16.36,4,131.99,20 / 20,7954114,2019-11-06 18:18:54:576,-0.2908,-0.0217,9.8261,-0.0003,-0.0081,9.8066,-0.001,0.0145,-0.0184,-20.37,-36.87,26.13,245.45,-87.49,105.57
52.577396,-1.53584,138.47,16.36,4,131.99,20 / 20,7954214,2019-11-06 18:18:54:676,1.2222,-0.4487,9.708,-0.0152,0.0024,9.8066,-0.0905,0.1928,-0.0248,-20.06,-37.19,26.19,242.7,-87.47,102.79
52.577396,-1.53584,138.47,16.36,4,131.99,20 / 20,7954313,2019-11-06 18:18:54:775,-2.4677,0.7125,9.8783,-0.0179,-0.0004,9.8066,0.0079,0.1423,-0.0947,-20.5,-36.94,26.31,238.29,-87.48,98.25
52.577396,-1.53584,138.47,16.36,4,131.99,20 / 20,7954413,2019-11-06 18:18:54:875,1.4169,0.6446,9.6289,-0.009,-0.0237,9.8066,0.034,0.2709,-0.0518,-20.69,-36.94,26.38,239.08,-87.46,100.4
52.577396,-1.53584,138.47,16.36,4,131.99,20 / 20,7954513,2019-11-06 18:18:54:975,-1.4258,-1.0894,10.5273,-0.0191,0.0048,9.8066,0.0822,-0.0058,0.0229,-20.12,-37.31,26.19,242.03,-87.55,102.02
52.577396,-1.53584,138.47,16.36,4,131.99,20 / 20,7954613,2019-11-06 18:18:55:075,1.6037,1.3017,9.5711,-0.0364,-0.0414,9.8064,-0.1056,0.2548,-0.141,-20.44,-36.87,26.63,244.54,-87.69,103.35
52.577396,-1.53584,138.47,16.36,4,131.99,20 / 20,7954713,2019-11-06 18:18:55:175,1.9128,-1.9901,9.8624,0.0194,-0.015,9.8065,-0.0315,-0.0541,0.1294,-20.5,-36.87,26.19,240.11,-87.71,99.9
52.577396,-1.53584,138.47,16.36,4,131.99,20 / 20,7954813,2019-11-06 18:18:55:275,2.4229,0.7193,9.1906,-0.0347,-0.0307,9.8065,0.0154,0.1888,-0.1529,-20.19,-36.81,26.13,245.92,-87.84,105.7
52.577396,-1.53584,138.47,16.36,4,131.99,24 / 25,7954919,2019-11-06 18:18:55:381,1.3704,-1.8299,10.108,-0.0096,0.0134,9.8066,0.0754,-0.2059,-0.0345,-19.94,-36.62,26.38,248.27,-87.66,108.27
52.577396,-1.53584,138.47,16.36,4,131.99,24 / 25,7955014,2019-11-06 18:18:55:476,-2.4603,0.525,10.1066,0.0179,-0.0015,9.8066,-0.1247,0.0677,0.0724,-20.06,-37.25,25.69,246.32,-87.63,106.32
52.577396,-1.53584,138.47,16.36,4,131.99,24 / 25,7955113,2019-11-06 18:18:55:575,-0.3014,0.0717,9.2922,0.0162,0.006,9.8066,-0.0835,-0.0582,-0.0357,-20.06,-36.75,26.69,241.52,-87.61,100.34
52.577396,-1.53584,138.47,16.36,4,131.99,24 / 25,7955213,2019-11-06 18:18:55:675,0.228,-0.1285,10.6928,-0.0153,0.0267,9.8065,0.114,-0.0009,0.0143,-20.37,-37.19,25.94,235.87,-87.5,95.75
52.577396,-1.53584,138.47,16.36,4,131.99,24 / 25,7955314,2019-11-06 18:18:55:776,0.9903,-0.8535,9.6648,-0.0013,-0.01,9.8066,0.1195,-0.0496,-0.1092,-20.06,-37.5,26.63,239.49,-87.4,98.45
52.577396,-1.53584,138.47,16.36,4,131.99,24 / 25,7955414,2019-11-06 18:18:55:876,0.963,0.9256,9.9187,0.0354,-0.0192,9.8065,-0.0061,0.0287,0.1338,-19.94,-37.12,25.81,245,-87.23,105.38
52.577396,-1.53584,138.47,16.36,4,131.99,24 / 25,7955514,2019-11-06 18:18:55:976,1.0817,-0.4065,9.5441,0.0057,0.0237,9.8066,-0.0086,-0.1108,0.0727,-20.31,-37.25,26.25,247.06,-87.44,107.27
52.577396,-1.53584,138.47,16.36,4,131.99,24 / 25,7955613,2019-11-06 18:18:56:075,-1.181,0.2089,10.1322,-0.0113,0.0071,9.8066,-0.0187,-0.0565,0.0736,-19.5,-37,26.56,244.59,-87.43,102.31
52.577396,-1.53584,138.47,16.36,4,131.99,24 / 25,7955714,2019-11-06 18:18:56:176,-0.2371,-1.2132,9.8285,0.0181,0.0277,9.8065,0.0002,-0.1517,0.1576,-20,-36.75,26.81,239.06,-87.41,98.01
52.577396,-1.53584,138.47,16.36,4,131.99,24 / 25,7955814,2019-11-06 18:18:56:276,-0.1898,-0.5144,10.1973,0.0069,-0.0057,9.8066,0.076,-0.0994,-0.0281,-20.06,-36.69,26.19,240.89,-87.46,100.94
52.577396,-1.53584,138.47,16.36,4,131.99,20 / 22,7955917,2019-11-06 18:18:56:379,1.0054,2.0618,9.9392,0.0281,0.0162,9.8065,-0.0032,-0.2233,0.1179,-19.44,-36.5,25.81,246.11,-87.36,104.94
52.577396,-1.53584,138.47,16.36,4,131.99,20 / 22,7956013,2019-11-06 18:18:56:475,-2.0286,-0.159,10.0361,0.0015,0.0229,9.8066,-0.0369,-0.2734,0.054,-19.87,-36.75,25.94,241.88,-87.35,102.06
52.577396,-1.53584,138.47,16.36,4,131.99,20 / 22,7956113,2019-11-06 18:18:56:575,2.5835,-0.5555,9.6629,-0.0019,0.0134,9.8066,0.0791,-0.0443,0.0056,-20.12,-37.31,25.56,236.23,-87.34,96.27
52.577396,-1.53584,138.47,16.36,4,131.99,20 / 22,7956214,2019-11-06 18:18:56:676,-1.5317,-0.345,9.8594,0.03,0.0039,9.8065,0.0247,-0.2124,0.0503,-20.5,-37,25.94,240.42,-87.29,100.62
52.577396,-1.53584,138.47,16.36,4,131.99,20 / 22,7956314,2019-11-06 18:18:56:776,0.487,0.724,9.7862,0.0093,-0.0027,9.8066,-0.0308,-0.0156,0.008,-19.62,-37,25.88,242.1,-87.23,102.4
52.577396,-1.53584,138.47,16.36,4,131.99,20 / 22,7956414,2019-11-06 18:18:56:876,-1.0097,-0.9273,9.2057,0.0083,0.0207,9.8065,-0.0358,-0.1961,0.0289,-19.87,-36.87,25.75,242.63,-87.26,102.91
52.577396,-1.53584,138.47,16.36,4,131.99,20 / 22,7956514,2019-11-06 18:18:56:976,-0.4947,2.9963,9.9437,-0.0044,-0.0304,9.8065,-0.0093,0.1687,-0.1044,-19.69,-37,26.25,238.38,-87.28,98.54
52.577396,-1.53584,138.47,16.36,4,131.99,20 / 22,7956614,2019-11-06 18:18:57:076,1.7834,-1.0139,9.7236,0.0266,0.0048,9.8066,0.0976,-0.0728,0.0217,-20.44,-37.31,26.06,245.31,-87.34,105.58
52.577396,-1.53584,138.47,16.36,4,131.99,20 / 22,7956714,2019-11-06 18:18:57:176,0.8499,1.1101,9.5093,-0.0317,-0.027,9.8065,-0.005,0.0982,-0.2137,-19.87,-36.94,25.63,250.69,-87.39,111.02
52.577396,-1.53584,138.47,16.36,4,131.99,20 / 22,7956814,2019-11-06 18:18:57:276,0.4072,0.309,9.9286,-0.001,0.0236,9.8066,-0.0304,0.0805,0.0244,-20.56,-37.37,25.56,246.55,-87.29,108.22
52.577396,-1.53584,138.47,16.36,4,131.99,20 / 25,7956914,2019-11-06 18:18:57:376,1.0829,-3.3735,10.2601,0.0078,-0.0322,9.8065,-0.0198,0.0575,-0.0781,-19.94,-36.56,26.25,244.87,-87.32,105.16
52.577396,-1.53584,138.47,16.36,4,131.99,20 / 25,7957014,2019-11-06 18:18:57:476,2.2587,-1.2251,9.6243,0.013,-0.0171,9.8066,0.0437,0.1464,-0.0759,-20.12,-37.06,25.63,251.65,-87.19,112.21
52.577396,-1.53584,138.47,16.36,4,131.99,20 / 25,7957113,2019-11-06 18:18:57:575,-0.7624,-0.1681,9.9413,-0.0155,0.0048,9.8066,0.0235,-0.0712,-0.0492,-20.06,-37.25,25.63,253.69,-87.05,114.43
52.577396,-1.53584,138.47,16.36,4,131.99,20 / 25,7957213,2019-11-06 18:18:57:675,0.4994,0.5295,9.9215,-0.0054,-0.0012,9.8066,-0.0205,0.0856,0.0104,-20.06,-36.94,25.88,251.83,-87.09,112.49
52.577396,-1.53584,138.47,16.36,4,131.99,20 / 25,7957314,2019-11-06 18:18:57:776,-0.4318,0.973,10.4139,0.0052,-0.0004,9.8066,-0.0714,-0.0728,0.0455,-19.94,-36.62,26.19,252.36,-87.09,113.04
52.577396,-1.53584,138.47,16.36,4,131.99,20 / 25,7957413,2019-11-06 18:18:57:875,0.9315,0.7132,10.2313,-0.0231,0.0135,9.8065,0.0572,0.0012,0.0421,-20.12,-37.12,26.56,250.15,-87.26,109.51
52.577396,-1.53584,138.47,16.36,4,131.99,20 / 25,7957513,2019-11-06 18:18:57:975,0.098,-0.2378,9.8201,-0.0015,0.0126,9.8066,0.0555,-0.1474,0.0449,-20.37,-37.19,25.63,250.25,-87.36,110.61
52.577396,-1.53584,138.47,16.36,4,131.99,20 / 25,7957613,2019-11-06 18:18:58:075,-1.2036,-0.1423,9.8412,0.0001,-0.0018,9.8066,-0.0568,-0.0285,0.0505,-20.44,-36.94,25.75,248.7,-87.36,109.03
52.577396,-1.53584,138.47,16.36,4,131.99,20 / 25,7957713,2019-11-06 18:18:58:175,0.2808,-1.5081,10.6018,0.0059,0.0168,9.8065,0.1388,-0.1095,0.0817,-20.44,-36.69,25.75,248.44,-87.46,108.66
52.577396,-1.53584,138.47,16.36,4,131.99,20 / 25,7957813,2019-11-06 18:18:58:275,-0.9234,-0.5538,8.9458,0.0222,-0.018,9.8066,-0.0998,-0.1248,0.0402,-20.19,-37.06,26.63,251.88,-87.31,111.21
52.577396,-1.53584,138.47,16.36,4,131.99,22 / 24,7957913,2019-11-06 18:18:58:375,1.3307,0.9689,10.4041,0.0346,0.0106,9.8065,-0.0173,-0.195,0.1324,-19.75,-36.87,26.19,249.33,-87.21,109.82
52.577396,-1.53584,138.47,16.36,4,131.99,22 / 24,7958014,2019-11-06 18:18:58:476,-2.3973,-0.9279,9.6618,0.0116,0.0253,9.8065,0.1115,-0.3387,0.1374,-19.69,-37.25,26.88,249.85,-87.25,109.2
52.577396,-1.53584,138.47,16.36,4,131.99,22 / 24,7958114,2019-11-06 18:18:58:576,2.0013,0.1006,10.6805,0.0137,0.033,9.8065,0.1433,-0.1841,0.0205,-20.44,-36.62,25.63,253.06,-87.26,113.57
52.577396,-1.53584,138.47,16.36,4,131.99,22 / 24,7958214,2019-11-06 18:18:58:676,-4.5284,-1.7931,9.3133,0.065,0.019,9.8064,-0.0485,-0.4936,0.3103,-20,-36.81,25.81,252.99,-86.85,113.94
52.577396,-1.53584,138.47,16.36,4,131.99,22 / 24,7958313,2019-11-06 18:18:58:775,3.0158,2.0838,9.7209,0.0373,0.034,9.8064,-0.1237,-0.0761,0.1399,-20.12,-37,26,251.62,-87.19,112.18
52.577396,-1.53584,138.47,16.36,4,131.99,22 / 24,7958414,2019-11-06 18:18:58:876,-2.8556,-2.9791,10.6233,0.0263,0.046,9.8064,0.062,-0.5858,0.2357,-20.37,-37.44,25.75,247.24,-87.07,107.83
52.577396,-1.53584,138.47,16.36,4,131.99,22 / 24,7958514,2019-11-06 18:18:58:976,2.9178,4.8335,9.2856,0.0158,0.0176,9.8065,0.0094,0.1319,-0.0366,-20.25,-36.87,26.44,246.58,-87.01,107.22
52.577396,-1.53584,138.47,16.36,4,131.99,22 / 24,7958614,2019-11-06 18:18:59:076,1.3312,0.3675,9.8343,0.0522,0.0447,9.8063,0.0635,-0.4329,0.1512,-20.37,-37.12,26.19,247.61,-86.88,108.41
52.577396,-1.53584,138.47,16.36,4,131.99,22 / 24,7958714,2019-11-06 18:18:59:176,3.6219,4.6274,9.7905,-0.0135,-0.02,9.8066,-0.0981,0.431,-0.2011,-19.87,-37.12,25.69,249.41,-86.82,110.31
52.577396,-1.53584,138.47,16.36,4,131.99,22 / 24,7958814,2019-11-06 18:18:59:276,-1.9145,-0.371,10.3831,0.0329,0.0311,9.8065,0.0675,-0.1994,0.0851,-20.37,-36.56,25.69,249.3,-86.85,110.17
52.577396,-1.53584,138.47,16.36,4,131.99,20 / 23,7958914,2019-11-06 18:18:59:376,-2.942,-3.1402,9.8941,-0.0531,-0.0457,9.8064,-0.024,0.6129,-0.3568,-20.5,-36.94,26.19,251.68,-86.79,112.67
52.577396,-1.53584,138.47,16.36,4,131.99,20 / 23,7959014,2019-11-06 18:18:59:476,1.0936,3.9114,9.3652,0.0112,0.0164,9.8066,-0.1285,0.109,0.0433,-20.25,-37,25.69,251.82,-86.96,112.63
52.577396,-1.53584,138.47,16.36,4,131.99,20 / 23,7959114,2019-11-06 18:18:59:576,0.3241,1.0396,9.4015,-0.0239,-0.0329,9.8065,-0.0942,0.4808,-0.1765,-20.12,-37.06,26,248.51,-87.06,109.14
52.577396,-1.53584,138.47,16.36,4,131.99,20 / 23,7959214,2019-11-06 18:18:59:676,2.3391,1.7398,10.1667,-0.0272,-0.0196,9.8066,0.0897,0.3234,-0.263,-19.81,-36.81,26,249.72,-87.14,110.3
52.577396,-1.53584,138.47,16.36,4,131.99,20 / 23,7959313,2019-11-06 18:18:59:775,-3.198,-2.3358,9.7464,-0.0335,-0.0512,9.8065,0.0217,0.3445,-0.175,-20.31,-36.37,26.06,251.29,-86.85,112.11
52.577396,-1.53584,138.47,16.36,4,131.99,20 / 23,7959413,2019-11-06 18:18:59:875,1.4812,0.4375,9.6635,-0.0195,-0.0445,9.8065,-0.0453,0.4155,-0.1926,-20.56,-37,25.94,256.64,-87.02,118.76
52.577396,-1.53584,138.47,16.36,4,131.99,20 / 23,7959513,2019-11-06 18:18:59:975,-2.8414,-3.0826,10.4651,-0.019,-0.0215,9.8066,0.0428,0.1118,-0.0287,-20.81,-36.44,25.88,259.74,-87.05,121.78
52.577396,-1.53584,138.47,16.36,4,131.99,20 / 23,7959614,2019-11-06 18:19:00:076,2.6785,1.8967,9.4078,-0.0169,-0.0526,9.8064,-0.081,0.4228,-0.2151,-20.44,-36.56,25.38,261.64,-86.92,123.81
52.577396,-1.53584,138.47,16.36,4,131.99,20 / 23,7959714,2019-11-06 18:19:00:176,-0.9793,-0.3026,9.6264,-0.006,0.0042,9.8066,0.0238,0.0033,0.0304,-20.37,-36.81,26.06,260.66,-86.86,121.72
52.577396,-1.53584,138.47,16.36,4,131.99,20 / 23,7959813,2019-11-06 18:19:00:275,0.4495,1.2918,9.3193,-0.0237,-0.0188,9.8065,-0.0723,0.2529,-0.2099,-20.06,-37.25,26.56,260.42,-86.88,120.33
52.577396,-1.53584,138.47,16.36,4,131.99,20 / 22,7959914,2019-11-06 18:19:00:376,-0.1056,-1.2285,9.8059,-0.0004,-0.0022,9.8065,-0.0486,0.0162,0.0216,-19.81,-36.69,26.13,257.31,-86.73,118.46
52.577396,-1.53584,138.47,16.36,4,131.99,20 / 22,7960014,2019-11-06 18:19:00:476,0.2375,0.3697,9.7109,-0.0164,-0.0211,9.8066,-0.0413,0.1652,-0.1087,-20.31,-37.19,26.19,257.81,-86.83,118.86
52.577396,-1.53584,138.47,16.36,4,131.99,20 / 22,7960113,2019-11-06 18:19:00:575,-1.0269,-0.1345,9.2663,-0.0134,-0.0125,9.8066,-0.0995,-0.0584,-0.0254,-20.06,-36.75,25.56,255.05,-86.8,116.09
52.577396,-1.53584,138.47,16.36,4,131.99,20 / 22,7960213,2019-11-06 18:19:00:675,0.415,1.1043,10.1659,-0.0179,0.0017,9.8065,0.049,0.1204,-0.0308,-19.94,-36.62,26.25,253.79,-87.03,114.56
52.577396,-1.53584,138.47,16.36,4,131.99,20 / 22,7960314,2019-11-06 18:19:00:776,-0.1719,-0.703,10.0774,-0.0138,-0.007,9.8066,0.068,-0.0531,-0.1008,-19.87,-36.87,26.06,254.95,-86.98,115.79
52.577396,-1.53584,138.47,16.36,4,131.99,20 / 22,7960414,2019-11-06 18:19:00:876,0.1356,0.8237,10.0837,0.0269,-0.0085,9.8065,-0.0408,0.0727,0.0841,-20.37,-36.75,26.63,257.26,-86.9,117.11
52.577396,-1.53584,138.47,16.36,4,131.99,20 / 22,7960514,2019-11-06 18:19:00:976,-0.8161,0.6017,10.319,0.0403,0.004,9.8065,0.0398,-0.0312,0.0194,-20.56,-37.25,25.94,256.45,-86.91,118.68
52.577396,-1.53584,138.47,16.36,4,131.99,20 / 22,7960614,2019-11-06 18:19:01:076,0.2213,-1.084,9.5978,-0.0014,-0.0155,9.8065,0.0565,0.0346,-0.0051,-19.37,-37.06,26.5,262.26,-86.56,121.21
52.577396,-1.53584,138.47,16.36,4,131.99,20 / 22,7960714,2019-11-06 18:19:01:176,-0.2971,-0.4284,9.7739,0.0222,0.0084,9.8066,0.0343,-0.1519,0.1071,-20,-36.81,25.94,262.77,-86.44,124.31
52.577396,-1.53584,138.47,16.36,4,131.99,20 / 22,7960814,2019-11-06 18:19:01:276,-0.7486,0.3591,10.1114,-0.0069,-0.0132,9.8066,0.0309,-0.0682,-0.0107,-19.75,-37.31,25.88,264.71,-86.35,126.38
52.577396,-1.53584,138.47,16.36,4,131.99,21 / 22,7960914,2019-11-06 18:19:01:376,0.7593,0.4574,9.7319,0.011,0.0004,9.8066,0.0165,-0.1697,0.0957,-19.87,-37,25.81,265.99,-86.19,127.84
52.577396,-1.53584,138.47,16.36,4,131.99,21 / 22,7961013,2019-11-06 18:19:01:475,-1.5659,-1.0149,10.1787,0.0018,0.0022,9.8065,0.0412,-0.0603,0.0483,-20,-37.06,26.31,267.75,-86.29,129.5
52.577396,-1.53584,138.47,16.36,4,131.99,21 / 22,7961113,2019-11-06 18:19:01:575,-0.2982,-1.4174,9.3259,0.0066,0.0146,9.8066,0.0252,-0.3389,0.0794,-20.62,-37.37,26,267.24,-86.23,130.34
52.577396,-1.53584,138.47,16.36,4,131.99,21 / 22,7961214,2019-11-06 18:19:01:676,-0.5244,-0.347,10.2851,-0.001,0.0031,9.8066,0.0717,-0.0559,0.0812,-19.19,-37.06,26.13,270.06,-86.22,130.58
52.577396,-1.53584,138.47,16.36,4,131.99,21 / 22,7961314,2019-11-06 18:19:01:776,2.6831,0.0125,9.618,0.0191,0.0069,9.8065,0.0557,-0.2114,0.0658,-20.19,-36.81,26.25,269.57,-86.23,131.4
52.577396,-1.53584,138.47,16.36,4,131.99,21 / 22,7961414,2019-11-06 18:19:01:876,0.4027,-0.5641,9.3286,0.0031,0.0099,9.8066,0.0043,-0.14,0.0764,-20.25,-37.44,26.63,271.33,-86.09,132.18
52.577396,-1.53584,138.47,16.36,4,131.99,21 / 22,7961513,2019-11-06 18:19:01:975,0.5953,1.1082,10.0136,0.0011,0.0142,9.8066,0.0645,-0.1015,0.0149,-19.94,-36.62,26.31,269.33,-86.11,131.3
52.577396,-1.53584,138.47,16.36,4,131.99,21 / 22,7961614,2019-11-06 18:19:02:076,-0.1341,-0.4271,9.8274,0.0252,0.002,9.8066,-0.037,-0.1036,0.1036,-20.62,-36.87,26,268.86,-86.01,132.21
52.577396,-1.53584,138.47,16.36,4,131.99,21 / 22,7961714,2019-11-06 18:19:02:176,-0.2729,0.788,9.9829,0.0362,0.0092,9.8065,-0.0092,-0.0589,0.1193,-20.37,-36.75,26.19,271.12,-86.15,133.04
52.577396,-1.53584,138.47,16.36,4,131.99,21 / 22,7961813,2019-11-06 18:19:02:275,-0.2098,0.135,10.066,-0.0107,-0.0006,9.8065,0.0018,-0.0805,-0.0222,-20.31,-37.25,26.25,270.79,-86.05,132.83
52.577396,-1.53584,138.47,16.36,4,131.99,22 / 23,7961914,2019-11-06 18:19:02:376,-0.4374,1.3224,10.3117,-0.0004,0.0203,9.8066,-0.0595,-0.0162,0.0559,-20.19,-37.19,25.81,271.57,-86.08,133.57
52.577396,-1.53584,138.47,16.36,4,131.99,22 / 23,7962014,2019-11-06 18:19:02:476,-0.0943,-0.4563,9.9821,0.0071,0.0035,9.8066,0.0584,-0.106,0.0175,-20.5,-36.87,25.88,269.84,-86.12,131.8
52.577396,-1.53584,138.47,16.36,4,131.99,22 / 23,7962114,2019-11-06 18:19:02:576,0.9911,1.6808,10.1904,-0.016,0.0031,9.8065,0.0057,0.1844,-0.1059,-20.25,-37.19,25.81,268.41,-86.25,130.21
52.577396,-1.53584,138.47,16.36,4,131.99,22 / 23,7962213,2019-11-06 18:19:02:675,0.3983,0.7687,9.6476,-0.004,0.0124,9.8066,0.0401,0.0881,-0.0517,-20.19,-37.06,26.38,267.62,-86.19,129.49
52.577396,-1.53584,138.47,16.36,4,131.99,22 / 23,7962313,2019-11-06 18:19:02:775,-0.7875,-2.4164,9.9531,-0.0168,-0.0242,9.8066,-0.0576,0.3307,-0.1463,-20.25,-37.5,26.75,268.01,-86.1,128.84
52.577396,-1.53584,138.47,16.36,4,131.99,22 / 23,7962414,2019-11-06 18:19:02:876,0.7839,0.415,9.9623,-0.0191,-0.0144,9.8065,-0.0258,0.2869,-0.1393,-20.44,-36.94,26.38,267.74,-86.24,129.54
52.577396,-1.53584,138.47,16.36,4,131.99,22 / 23,7962513,2019-11-06 18:19:02:975,-2.6759,-0.5438,9.6066,-0.0095,-0.0127,9.8066,0.004,0.1551,-0.0321,-20.37,-37.44,26.56,267.91,-86.18,128.66
52.577396,-1.53584,138.47,16.36,4,131.99,22 / 23,7962613,2019-11-06 18:19:03:075,0.6242,1.5499,8.9857,-0.0257,-0.0277,9.8065,-0.0245,0.1497,-0.1559,-19.81,-37.37,25.63,268.6,-86.19,130.47
52.577396,-1.53584,138.47,16.36,4,131.99,22 / 23,7962713,2019-11-06 18:19:03:175,-1.7493,0.8064,9.1885,-0.005,0.0005,9.8066,-0.0664,0.0129,0.0823,-20.87,-37.56,25.81,265.81,-86.2,129.04
52.577396,-1.53584,138.47,16.36,4,131.99,22 / 23,7962813,2019-11-06 18:19:03:275,-0.1329,1.1909,9.9402,-0.0275,-0.0119,9.8065,0.0493,0.0306,-0.126,-20.69,-37.25,25.75,267.75,-86.39,130.68
52.5765,-1.534128,138.45,17.19,4,131.18,21 / 24,7962913,2019-11-06 18:19:03:375,-1.8301,0.1365,10.2585,-0.0214,-0.0044,9.8065,-0.0268,-0.0072,-0.061,-20.75,-37.12,25.81,266.81,-86.24,129.89
52.5765,-1.534128,138.45,17.19,4,131.18,21 / 24,7963013,2019-11-06 18:19:03:475,-0.7781,-0.2048,9.7707,0.0103,0.0008,9.8065,-0.046,0.0548,0.0501,-20.37,-37.37,26.31,268.33,-86.4,129.96
52.5765,-1.534128,138.45,17.19,4,131.18,21 / 24,7963113,2019-11-06 18:19:03:575,-1.615,0.9811,9.9139,-0.012,-0.0173,9.8065,-0.1179,-0.0332,-0.1009,-20.19,-37.06,26.19,268.81,-86.52,130.3
52.5765,-1.534128,138.45,17.19,4,131.18,21 / 24,7963214,2019-11-06 18:19:03:676,-1.6851,0.551,10.0476,0.0073,0.017,9.8066,-0.0022,0.0067,0.156,-20.44,-36.87,26.38,264.26,-86.56,125.68
52.5765,-1.534128,138.45,17.19,4,131.18,21 / 24,7963314,2019-11-06 18:19:03:776,0.1772,0.913,9.4007,0.0322,0.005,9.8065,0.0325,-0.0966,0.0876,-20.5,-37.25,25.81,268.27,-86.61,129.67
52.5765,-1.534128,138.45,17.19,4,131.18,21 / 24,7963414,2019-11-06 18:19:03:876,-1.6657,0.6905,10.2288,-0.0095,-0.0062,9.8066,-0.1064,-0.059,-0.0162,-20.37,-36.94,26.31,266.19,-86.43,127.78
52.5765,-1.534128,138.45,17.19,4,131.18,21 / 24,7963513,2019-11-06 18:19:03:975,-0.7166,2.521,10.0045,0.0361,0.0238,9.8065,0.0925,-0.1446,0.2069,-20.31,-36.81,26.44,265.02,-86.54,126.48
52.5765,-1.534128,138.45,17.19,4,131.18,21 / 24,7963614,2019-11-06 18:19:04:076,-1.2104,0.2022,9.4366,0.0002,-0.0104,9.8065,-0.0055,-0.072,-0.0797,-20.19,-37.44,26.06,266.36,-86.37,128.02
52.5765,-1.534128,138.45,17.19,4,131.18,21 / 24,7963714,2019-11-06 18:19:04:176,0.0735,-0.297,9.6363,0.0072,0.0086,9.8066,0.0506,-0.1445,0.0393,-20.06,-37.31,26.38,264.82,-86.23,126.62
52.5765,-1.534128,138.45,17.19,4,131.18,21 / 24,7963813,2019-11-06 18:19:04:275,-0.2624,-0.5787,9.9392,0.0141,0.0088,9.8066,-0.0252,-0.13,0.0724,-20.19,-37.12,26.13,265.3,-86.22,127.13
52.5765,-1.534128,138.45,17.19,4,131.18,19 / 22,7963925,2019-11-06 18:19:04:387,0.1089,1.7083,9.9611,0.0176,0.0041,9.8065,0.0994,-0.1781,0.0384,-19.75,-36.94,26.31,266.03,-86.16,127.92
52.5765,-1.534128,138.45,17.19,4,131.18,19 / 22,7964013,2019-11-06 18:19:04:475,-1.2771,-0.4584,9.3837,0.0253,-0.0011,9.8066,-0.019,-0.2263,0.0986,-20.06,-37,26.44,267.72,-86.01,129.79
52.5765,-1.534128,138.45,17.19,4,131.18,19 / 22,7964113,2019-11-06 18:19:04:575,0.4809,1.8696,9.311,0.0282,0.0125,9.8065,-0.0189,-0.019,0.0515,-19.81,-37.5,25.75,266.04,-85.91,128.21
52.5765,-1.534128,138.45,17.19,4,131.18,19 / 22,7964214,2019-11-06 18:19:04:676,-0.1783,-1.0685,10.1477,0.0166,0.0295,9.8065,0.0365,-0.1761,0.0904,-20.19,-37.69,26.31,265.23,-85.9,127.53
52.5765,-1.534128,138.45,17.19,4,131.18,19 / 22,7964314,2019-11-06 18:19:04:776,-1.6857,1.8517,9.6031,-0.0292,0.0119,9.8066,0.0617,0.0605,-0.1014,-19.94,-37.81,25.31,262.4,-85.99,125.77
52.5765,-1.534128,138.45,17.19,4,131.18,19 / 22,7964413,2019-11-06 18:19:04:875,-2.1369,-0.0265,9.7683,0.0439,-0.0011,9.8065,-0.1144,-0.1639,0.1424,-20.12,-37.12,25.94,262.6,-85.9,124.75
52.5765,-1.534128,138.45,17.19,4,131.18,19 / 22,7964513,2019-11-06 18:19:04:975,1.5417,2.2307,9.2627,0.0276,0.016,9.8065,-0.1382,-0.0455,0.2013,-20.19,-37.5,25.81,262.79,-86.16,124.65
52.5765,-1.534128,138.45,17.19,4,131.18,19 / 22,7964613,2019-11-06 18:19:05:075,-0.2418,0.7714,9.4957,-0.0189,0.0197,9.8065,0.1163,-0.1483,-0.052,-20.25,-36.94,26,261.26,-86.31,122.92
52.5765,-1.534128,138.45,17.19,4,131.18,19 / 22,7964713,2019-11-06 18:19:05:175,0.6684,1.9036,9.9639,-0.0201,0.002,9.8066,0.0264,0.0681,-0.0594,-20.37,-36.69,25.25,261.26,-86.29,124.14
52.5765,-1.534128,138.45,17.19,4,131.18,19 / 22,7964813,2019-11-06 18:19:05:275,-2.6288,0.5142,9.1206,0.0202,0.01,9.8066,-0.0008,-0.1506,0.0584,-20.44,-37.37,25.81,262.76,-86.25,124.52
52.5765,-1.534128,138.45,17.19,4,131.18,19 / 23,7964913,2019-11-06 18:19:05:375,-0.2443,-0.449,10.9408,0.0096,-0.0284,9.8066,-0.1323,0.0586,-0.0658,-20.31,-37.06,25.63,260.95,-86.26,122.67
52.5765,-1.534128,138.45,17.19,4,131.18,19 / 23,7965013,2019-11-06 18:19:05:475,0.0752,0.3897,10.2597,0.0194,0.0273,9.8065,0.1043,-0.0953,0.1214,-20,-37,25.25,261.25,-86.3,124.13
52.5765,-1.534128,138.45,17.19,4,131.18,19 / 23,7965114,2019-11-06 18:19:05:576,0.0317,0.6722,9.4263,-0.0222,-0.0057,9.8065,0.0597,-0.0101,-0.1739,-20.56,-36.75,25.63,262.8,-86.22,125.87
52.5765,-1.534128,138.45,17.19,4,131.18,19 / 23,7965213,2019-11-06 18:19:05:675,-0.811,0.8842,10.5474,0.0242,0.0268,9.8066,-0.0193,-0.1527,0.1979,-20.25,-37.06,26.06,262.93,-86.08,124.88
52.5765,-1.534128,138.45,17.19,4,131.18,19 / 23,7965313,2019-11-06 18:19:05:775,0.1974,2.6667,9.7603,0.0023,0.0004,9.8066,-0.1278,0.1013,-0.0403,-19.87,-37.12,25.88,263.21,-86.29,124.92
52.5765,-1.534128,138.45,17.19,4,131.18,19 / 23,7965413,2019-11-06 18:19:05:875,-1.6513,-1.7429,9.9992,0.0117,0.0308,9.8066,-0.0295,-0.2014,0.1895,-20.12,-36.87,25.88,259.44,-86.44,120.95
52.5765,-1.534128,138.45,17.19,4,131.18,19 / 23,7965513,2019-11-06 18:19:05:975,-0.9147,-0.1698,9.2924,-0.0042,-0.0041,9.8066,0.0189,0.2199,-0.0783,-19.94,-36.75,25.69,260.84,-86.52,122.27
52.5765,-1.534128,138.45,17.19,4,131.18,19 / 23,7965613,2019-11-06 18:19:06:075,-2.2813,0.116,9.7406,0.0004,0.007,9.8066,0.0257,0.0122,-0.0106,-19.75,-36.94,26.75,261.76,-86.42,122.18
52.5765,-1.534128,138.45,17.19,4,131.18,19 / 23,7965714,2019-11-06 18:19:06:176,-0.3631,1.4066,11.0307,-0.0096,-0.0263,9.8066,0.0365,0.2159,-0.1281,-20.31,-36.19,26.31,261.35,-86.36,122.86
52.5765,-1.534128,138.45,17.19,4,131.18,19 / 23,7965814,2019-11-06 18:19:06:276,-1.9665,1.2266,9.1781,0.0305,-0.0009,9.8066,-0.0518,-0.0606,0.1076,-20.25,-36.37,26.63,265.33,-86.26,125.86
52.5765,-1.534128,138.45,17.19,4,131.18,20 / 23,7965914,2019-11-06 18:19:06:376,-1.519,-0.4738,9.5344,-0.0145,-0.013,9.8066,-0.0837,0.3481,-0.0562,-19.87,-36.31,26.38,266.25,-86.58,127.56
52.5765,-1.534128,138.45,17.19,4,131.18,20 / 23,7966014,2019-11-06 18:19:06:476,-2.3347,-0.473,9.937,-0.0277,0.0056,9.8066,0.0516,0.1239,-0.1229,-19.94,-36,26.63,265.95,-86.53,126.18
52.5765,-1.534128,138.45,17.19,4,131.18,20 / 23,7966114,2019-11-06 18:19:06:576,-1.853,0.4615,9.8067,-0.0556,-0.0089,9.8064,0.1037,0.4172,-0.2331,-19.69,-35.94,26,263.9,-86.94,124.8
52.5765,-1.534128,138.45,17.19,4,131.18,20 / 23,7966214,2019-11-06 18:19:06:676,1.6679,2.8006,9.7229,0.0207,-0.0261,9.8066,-0.0522,0.2231,-0.0886,-19.87,-35.56,25.63,265.04,-86.63,126.29
52.5765,-1.534128,138.45,17.19,4,131.18,20 / 23,7966314,2019-11-06 18:19:06:776,-1.2435,-0.3467,10.3313,-0.0144,-0.0214,9.8066,-0.0321,0.1946,-0.0322,-18.25,-35.62,26.31,267.01,-86.55,125.63
52.5765,-1.534128,138.45,17.19,4,131.18,20 / 23,7966413,2019-11-06 18:19:06:875,1.6553,2.5742,9.4934,-0.014,-0.0284,9.8065,-0.0819,0.3953,-0.1845,-19.87,-36.19,25.94,266.59,-86.65,127.83
52.5765,-1.534128,138.45,17.19,4,131.18,20 / 23,7966513,2019-11-06 18:19:06:975,0.4616,1.0006,9.6419,0.0024,-0.0098,9.8066,0.0647,0.0405,0.0242,-19.44,-35.5,25.75,267.3,-86.52,127.24
52.5765,-1.534128,138.45,17.19,4,131.18,20 / 23,7966614,2019-11-06 18:19:07:076,0.4571,0.3824,10.0525,-0.0003,-0.0128,9.8066,0.0505,-0.0761,-0.0074,-19.56,-35.56,26.56,270.07,-86.51,130.34
52.5765,-1.534128,138.45,17.19,4,131.18,20 / 23,7966714,2019-11-06 18:19:07:176,-1.8989,-1.1176,9.5185,-0.0114,0.003,9.8065,-0.0275,-0.2237,0.1064,-19.81,-35.75,26.25,268.68,-86.53,130.07
52.5765,-1.534128,138.45,17.19,4,131.18,20 / 23,7966814,2019-11-06 18:19:07:276,0.2626,1.1561,10.0375,-0.0197,-0.0061,9.8066,-0.0613,-0.056,0.0932,-20,-35.75,25.56,267.36,-86.58,128.68
52.5765,-1.534128,138.45,17.19,4,131.18,19 / 21,7966914,2019-11-06 18:19:07:376,-1.1338,-0.5426,10.3084,-0.0136,0.0122,9.8066,-0.0119,-0.167,0.0197,-19.69,-36.12,26.5,264.94,-86.57,125.13
52.5765,-1.534128,138.45,17.19,4,131.18,19 / 21,7967013,2019-11-06 18:19:07:475,0.7229,1.3994,9.6973,-0.0058,-0.014,9.8066,0.0558,-0.0814,0.0027,-19.75,-36.31,26.13,264.2,-86.51,125.57
52.5765,-1.534128,138.45,17.19,4,131.18,19 / 21,7967113,2019-11-06 18:19:07:575,-0.7997,-1.1896,9.7577,-0.0149,-0.0137,9.8066,-0.0119,-0.2488,0.1011,-20.12,-36.94,26.19,263.12,-86.32,124.81
52.5765,-1.534128,138.45,17.19,4,131.18,19 / 21,7967213,2019-11-06 18:19:07:675,0.9727,-0.1522,9.8235,-0.0264,-0.0166,9.8066,-0.0031,-0.0463,0.016,-19.94,-37.19,26,265.97,-86.45,127.53
52.5765,-1.534128,138.45,17.19,4,131.18,19 / 21,7967314,2019-11-06 18:19:07:776,-1.2399,-1.7228,9.2182,-0.0425,-0.003,9.8065,-0.0855,-0.1653,0.1686,-20.19,-37.06,26.75,267.4,-86.39,127.9
52.5765,-1.534128,138.45,17.19,4,131.18,19 / 21,7967414,2019-11-06 18:19:07:876,-1.5044,0.4251,10.3638,-0.0287,0.0009,9.8065,-0.0899,0.0519,-0.0097,-20.44,-36.75,26.63,267.11,-86.76,127.2
52.5765,-1.534128,138.45,17.19,4,131.18,19 / 21,7967514,2019-11-06 18:19:07:976,-2.6842,-1.0088,10.0189,-0.0026,0.0187,9.8066,-0.0289,-0.155,0.0405,-19.75,-36.37,26.5,264.43,-86.92,124.23
52.5765,-1.534128,138.45,17.19,4,131.18,19 / 21,7967614,2019-11-06 18:19:08:076,1.326,-1.0174,10.207,-0.0247,-0.011,9.8066,-0.0276,0.1055,-0.0546,-20.12,-37.25,26.63,265.32,-87.08,125.05
52.5765,-1.534128,138.45,17.19,4,131.18,19 / 21,7967714,2019-11-06 18:19:08:176,0.1865,-0.0614,9.3488,-0.0052,0.0072,9.8065,-0.0206,-0.0645,0.0213,-19.62,-36.44,26.63,265.93,-87.02,125.65
52.5765,-1.534128,138.45,17.19,4,131.18,19 / 21,7967814,2019-11-06 18:19:08:276,1.3237,0.1894,9.2979,0.0025,-0.0156,9.8066,-0.0095,0.1037,-0.123,-19.62,-36.81,26.75,267.75,-87.05,127.52
52.5765,-1.534128,138.45,17.19,4,131.18,19 / 22,7967914,2019-11-06 18:19:08:376,-0.9923,-0.4177,10.453,-0.0012,-0.0097,9.8066,0.0395,-0.0458,0.131,-19.81,-37.44,27.19,268.55,-87.09,128.28
52.5765,-1.534128,138.45,17.19,4,131.18,19 / 22,7968014,2019-11-06 18:19:08:476,-0.1166,-1.0276,10.0641,-0.001,0.0076,9.8066,-0.0189,0.0592,0.0177,-20.12,-37.12,27.19,268.21,-87.08,127.95
52.5765,-1.534128,138.45,17.19,4,131.18,19 / 22,7968113,2019-11-06 18:19:08:575,0.6489,-2.0778,9.9625,0.0251,0.0066,9.8066,0.0489,0.0556,-0.0541,-20,-37.44,27.69,272.5,-87.08,131.19
52.5765,-1.534128,138.45,17.19,4,131.18,19 / 22,7968214,2019-11-06 18:19:08:676,-0.9932,1.1868,10.1147,-0.0056,-0.0072,9.8066,0.0615,0.0547,0.029,-20,-36.5,26.81,272.53,-87.15,132.12
52.5765,-1.534128,138.45,17.19,4,131.18,19 / 22,7968313,2019-11-06 18:19:08:775,0.5455,-0.0866,8.2845,-0.0187,0.0427,9.8065,-0.0889,-0.1789,0.0089,-19.69,-36.69,27.25,274.65,-86.99,134.49
52.5765,-1.534128,138.45,17.19,4,131.18,19 / 22,7968414,2019-11-06 18:19:08:876,2.1774,-2.1537,8.8869,-0.0322,-0.0435,9.8065,-0.0079,0.0785,0.1208,-19.69,-37.06,27.25,274.97,-87.09,134.7
52.5765,-1.534128,138.45,17.19,4,131.18,19 / 22,7968514,2019-11-06 18:19:08:976,1.1103,0.6301,9.6469,0.021,-0.017,9.8066,0.0561,0.0433,-0.1921,-19.69,-36.5,27.13,272.22,-86.77,132.21
52.5765,-1.534128,138.45,17.19,4,131.18,19 / 22,7968613,2019-11-06 18:19:09:075,-2.3449,-0.6714,10.0947,0.0047,0.021,9.8066,-0.0773,0.0987,-0.2145,-19.69,-36.44,27.44,274.26,-86.81,134.21
52.5765,-1.534128,138.45,17.19,4,131.18,19 / 22,7968714,2019-11-06 18:19:09:176,1.3179,0.2981,9.3703,-0.0245,-0.0036,9.8066,-0.0914,0.1576,0.1128,-19.94,-36.5,27.38,273.59,-87.02,133.32
52.5765,-1.534128,138.45,17.19,4,131.18,19 / 22,7968814,2019-11-06 18:19:09:276,-0.9725,-0.551,10.4999,0.0207,0.0215,9.8065,-0.0732,-0.017,-0.1181,-19.75,-36.62,27.56,273.51,-86.88,132.41
52.5765,-1.534128,138.45,17.19,4,131.18,19 / 22,7968914,2019-11-06 18:19:09:376,0.5946,-1.2308,9.8555,-0.0163,0.008,9.8066,0.0098,0.1346,0.0722,-20,-36.69,27.75,277.49,-87,136.24
52.5765,-1.534128,138.45,17.19,4,131.18,19 / 22,7969014,2019-11-06 18:19:09:476,-0.4691,-0.4788,10.4655,0.0281,0.0114,9.8066,0.0247,0.0616,-0.117,-19.94,-37.37,27.5,274.45,-86.93,133.3
52.5765,-1.534128,138.45,17.19,4,131.18,19 / 22,7969114,2019-11-06 18:19:09:576,0.9825,-2.1694,10.5307,0.0185,0.0152,9.8066,-0.0315,0.0698,0.0098,-20.06,-36.87,27.19,274.78,-87.13,134.47
52.5765,-1.534128,138.45,17.19,4,131.18,19 / 22,7969213,2019-11-06 18:19:09:675,0.4069,-0.7828,8.9854,0.0262,-0.0082,9.8066,0.0411,0.1084,-0.0168,-19.69,-36.87,27.06,270.09,-86.81,130.14
52.5765,-1.534128,138.45,17.19,4,131.18,19 / 22,7969314,2019-11-06 18:19:09:776,1.0253,-0.6563,9.3889,0.0236,0.0224,9.8066,-0.0424,0.2221,-0.1066,-19.75,-36.19,27.31,268.36,-86.74,128.38
52.5765,-1.534128,138.45,17.19,4,131.18,19 / 22,7969414,2019-11-06 18:19:09:876,-0.3291,-1.91,9.9319,0.0034,0.0208,9.8066,-0.0228,0.1621,-0.0396,-20,-36.62,26.56,267.72,-86.84,127.73
52.5765,-1.534128,138.45,17.19,4,131.18,19 / 22,7969514,2019-11-06 18:19:09:976,1.4637,0.5208,9.7438,0.0056,0.0183,9.8066,-0.0451,0.295,-0.1146,-20.37,-37.31,26.56,267.33,-87.04,127.11
52.5765,-1.534128,138.45,17.19,4,131.18,19 / 22,7969614,2019-11-06 18:19:10:076,-0.6632,-2.9435,10.1413,0.0241,0.0288,9.8066,0.0399,-0.0703,0.009,-19.69,-37,27.19,264.19,-86.98,124.03
52.5765,-1.534128,138.45,17.19,4,131.18,19 / 22,7969714,2019-11-06 18:19:10:176,2.6724,0.8523,9.9257,-0.0031,0.0195,9.8066,-0.0649,0.2707,-0.1422,-19.81,-37.37,27,265.18,-86.99,125.01
52.5765,-1.534128,138.45,17.19,4,131.18,19 / 22,7969815,2019-11-06 18:19:10:277,1.5002,0.6245,9.3765,0.0317,0.0106,9.8066,0.1003,-0.2151,0.1046,-19.19,-36.87,27.19,263.23,-86.87,121.85
52.5765,-1.534128,138.45,17.19,4,131.18,21 / 22,7969914,2019-11-06 18:19:10:376,1.9405,-1.7682,9.8425,0.0063,-0.0172,9.8066,-0.0022,0.1294,-0.0682,-20.62,-36.81,27.25,260.66,-86.84,121.9
52.5765,-1.534128,138.45,17.19,4,131.18,21 / 22,7970014,2019-11-06 18:19:10:476,-1.2686,-1.1428,9.7704,0.0057,0.0046,9.8066,-0.0341,-0.1991,0.2214,-19.62,-36,26.94,263.97,-86.78,123.93
52.5765,-1.534128,138.45,17.19,4,131.18,21 / 22,7970113,2019-11-06 18:19:10:575,1.6763,0.5233,9.7615,-0.0057,-0.0135,9.8066,0.0099,0.1018,-0.1121,-19.75,-36.37,27.19,262.05,-86.96,121.79
52.5765,-1.534128,138.45,17.19,4,131.18,21 / 22,7970214,2019-11-06 18:19:10:676,2.1928,0.2314,10.3195,-0.0017,0.0119,9.8066,-0.033,-0.1123,0.1086,-20,-36.44,26.88,262.14,-87.09,121.76
52.5765,-1.534128,138.45,17.19,4,131.18,21 / 22,7970314,2019-11-06 18:19:10:776,2.1977,1.6801,10.0586,-0.0058,-0.0226,9.8065,0.0386,0.0701,-0.0362,-19.94,-37.5,27.31,263.54,-87.03,123.31
52.5765,-1.534128,138.45,17.19,4,131.18,21 / 22,7970414,2019-11-06 18:19:10:876,2.1591,-0.1477,9.8752,0,0.0039,9.8066,0.0101,-0.1371,0.0343,-20,-37.06,27,262.53,-87.03,122.3
52.5765,-1.534128,138.45,17.19,4,131.18,21 / 22,7970514,2019-11-06 18:19:10:976,-0.2498,-1.3729,9.7709,-0.0312,-0.0144,9.8065,-0.0166,-0.0442,0.1296,-20.31,-36.31,26.63,262.52,-87.12,122.1
52.5765,-1.534128,138.45,17.19,4,131.18,21 / 22,7970614,2019-11-06 18:19:11:076,1.3677,0.0427,9.4282,-0.0276,0.0034,9.8065,-0.0828,-0.1018,0.0116,-19.94,-36.37,26.56,261.49,-87.42,120.75
52.5765,-1.534128,138.45,17.19,4,131.18,21 / 22,7970714,2019-11-06 18:19:11:176,-0.5986,-1.8372,10.2716,-0.028,-0.026,9.8066,0.0779,-0.1722,0.2014,-20.19,-35.75,26.56,262.11,-87.34,121.47
52.5765,-1.534128,138.45,17.19,4,131.18,21 / 22,7970814,2019-11-06 18:19:11:276,1.2812,0.7889,9.5152,-0.0093,-0.0087,9.8066,-0.015,-0.0721,-0.0076,-20.62,-36.12,26.56,261.31,-87.46,121.82
52.5765,-1.534128,138.45,17.19,4,131.18,19 / 21,7970914,2019-11-06 18:19:11:376,0.4719,-1.7963,9.1942,0.002,-0.0054,9.8066,0.0092,-0.1175,0.1168,-21.25,-35.69,26.38,259.45,-87.63,120.88
52.5765,-1.534128,138.45,17.19,4,131.18,19 / 21,7971014,2019-11-06 18:19:11:476,1.8565,0.149,9.5686,-0.0185,-0.0077,9.8066,0.032,0.1546,-0.0531,-20.25,-36,26.44,259.86,-87.64,119.97
52.5765,-1.534128,138.45,17.19,4,131.18,19 / 21,7971114,2019-11-06 18:19:11:576,0.5161,-1.3864,10.4708,-0.0023,0.0104,9.8066,0.0231,-0.0494,-0.0206,-20.12,-36.19,26.88,260.75,-87.61,119.8
52.5765,-1.534128,138.45,17.19,4,131.18,19 / 21,7971213,2019-11-06 18:19:11:675,-0.3215,-0.9875,9.4039,0.0144,-0.0161,9.8066,-0.0574,0.0696,0.0662,-19.75,-36.25,26.38,258.91,-87.51,119.15
52.5765,-1.534128,138.45,17.19,4,131.18,19 / 21,7971314,2019-11-06 18:19:11:776,-0.487,-1.2414,9.7504,0.0226,0.0165,9.8066,-0.0257,-0.1808,0.1185,-19.87,-36.37,26.81,259.72,-87.66,118.71
52.5765,-1.534128,138.45,17.19,4,131.18,19 / 21,7971414,2019-11-06 18:19:11:876,1.3918,-1.2514,10.3513,-0.0066,-0.0064,9.8066,0.1021,0.0032,0.0171,-20.06,-35.87,26.94,258.29,-87.6,117.33
52.5765,-1.534128,138.45,17.19,4,131.18,19 / 21,7971514,2019-11-06 18:19:11:976,2.6216,-0.7816,10.1585,0.0164,0.0245,9.8066,-0.0243,-0.2774,0.13,-20.69,-35.25,26.31,257.56,-87.67,118.86
52.5765,-1.534128,138.45,17.19,4,131.18,19 / 21,7971614,2019-11-06 18:19:12:076,-1.0521,-2.4158,9.6491,0.0181,0.0035,9.8066,-0.0106,-0.1095,0.1388,-19.56,-34.62,26.88,257.55,-87.64,116.48
52.5765,-1.534128,138.45,17.19,4,131.18,19 / 21,7971714,2019-11-06 18:19:12:176,0.8255,-0.7397,10.1101,0.0323,0.0291,9.8065,0.0375,-0.3046,0.0996,-19.69,-34.81,27.38,260.87,-87.68,119.77
52.5765,-1.534128,138.45,17.19,4,131.18,19 / 21,7971814,2019-11-06 18:19:12:276,-1.2691,-0.2139,9.6473,0.026,0.0036,9.8066,0.0119,-0.1534,0.1215,-19.56,-33.62,26.81,260.15,-87.45,119.21
52.575607,-1.532535,137.71,19.01,6,132.61,19 / 21,7971915,2019-11-06 18:19:12:377,3.1117,0.8656,10.1449,-0.0015,-0.0239,9.8066,-0.0099,0.1397,0.018,-19.25,-34.06,27,264.41,-87.49,122.11
52.575607,-1.532535,137.71,19.01,6,132.61,19 / 21,7972013,2019-11-06 18:19:12:475,0.9708,-0.8127,10.3013,-0.0373,-0.0115,9.8065,0.0498,0.1432,-0.0958,-19.5,-33.75,27.06,265.86,-87.62,123.44
52.575607,-1.532535,137.71,19.01,6,132.61,19 / 21,7972113,2019-11-06 18:19:12:575,0.9873,0.6309,9.2211,-0.0012,-0.0198,9.8066,-0.0551,0.1008,-0.0843,-18.25,-34.37,26.56,268.27,-87.53,124.54
52.575607,-1.532535,137.71,19.01,6,132.61,19 / 21,7972213,2019-11-06 18:19:12:675,0.4313,-1.0155,10.0064,0.0007,-0.0165,9.8066,-0.0587,0.1959,-0.0123,-19,-33.37,26.75,265.67,-87.48,123.31
52.575607,-1.532535,137.71,19.01,6,132.61,19 / 21,7972313,2019-11-06 18:19:12:775,0.1757,-1.2138,10.0364,-0.0061,0.0008,9.8066,0.0314,0.0688,-0.0549,-18.37,-32.81,25.69,267.01,-87.54,124.27
52.575607,-1.532535,137.71,19.01,6,132.61,19 / 21,7972413,2019-11-06 18:19:12:875,0.0759,-0.9251,9.7957,-0.0294,-0.0205,9.8065,0.008,0.225,-0.1771,-18.44,-33.44,25.31,265.85,-87.47,124.31
52.575607,-1.532535,137.71,19.01,6,132.61,19 / 21,7972513,2019-11-06 18:19:12:975,0.7591,1.1877,9.4789,-0.0004,-0.0021,9.8066,-0.0853,0.0895,0.0061,-18.31,-33.06,25,266.18,-87.57,124.52
52.575607,-1.532535,137.71,19.01,6,132.61,19 / 21,7972613,2019-11-06 18:19:13:075,-0.5842,0.5342,8.9063,0.0003,-0.0146,9.8066,-0.1653,0.1762,0.0354,-19.37,-33.87,25.69,264.29,-87.75,122.82
52.575607,-1.532535,137.71,19.01,6,132.61,19 / 21,7972714,2019-11-06 18:19:13:176,1.434,0.9103,10.1575,-0.0336,-0.0049,9.8065,0.0803,0.1461,-0.1446,-19.87,-32.75,25.94,260.3,-87.95,119.9
52.575607,-1.532535,137.71,19.01,6,132.61,19 / 21,7972814,2019-11-06 18:19:13:276,-0.5893,-1.0466,9.6476,-0.0224,-0.0029,9.8065,0.0381,0.1037,-0.073,-20.94,-32.69,25.94,260.02,-87.82,121.06
52.575607,-1.532535,137.71,19.01,6,132.61,21 / 23,7972913,2019-11-06 18:19:13:375,0.8162,-0.1094,10.3762,-0.0043,-0.0072,9.8066,-0.074,0.026,0.0234,-20.62,-32.94,25.5,259.77,-87.83,120.81
52.575607,-1.532535,137.71,19.01,6,132.61,21 / 23,7973013,2019-11-06 18:19:13:475,0.7662,-0.2154,10.4064,0.0074,-0.0022,9.8066,0.1304,0.0486,-0.0213,-21.69,-32.87,26.19,261.15,-87.75,123.54
52.575607,-1.532535,137.71,19.01,6,132.61,21 / 23,7973114,2019-11-06 18:19:13:576,-0.5193,-0.7398,9.353,0.0246,-0.0051,9.8065,0.0585,0.157,-0.1141,-22.12,-32.31,25.38,261.85,-87.72,125.36
52.575607,-1.532535,137.71,19.01,6,132.61,21 / 23,7973214,2019-11-06 18:19:13:676,2.8274,0.3494,9.841,0.0361,0.0061,9.8065,0.0051,0.2118,-0.1229,-22.06,-31.81,25.63,264.34,-87.87,126.56
52.575607,-1.532535,137.71,19.01,6,132.61,21 / 23,7973313,2019-11-06 18:19:13:775,1.0953,-1.1312,10.279,0.0075,0.0234,9.8065,0.0367,0.3261,-0.1437,-21.69,-31.31,25.88,263.54,-87.78,125.78
52.575607,-1.532535,137.71,19.01,6,132.61,21 / 23,7973414,2019-11-06 18:19:13:876,2.4902,0.3924,9.4544,0.0312,0.0375,9.8065,-0.103,0.2883,-0.1532,-21.31,-31.75,27.06,269.24,-87.89,129.08
52.575607,-1.532535,137.71,19.01,6,132.61,21 / 23,7973514,2019-11-06 18:19:13:976,-2.176,-1.5158,10.3684,0.0049,0.0244,9.8066,-0.0062,0.1764,-0.1385,-21.25,-31.69,27.19,261.87,-87.85,121.73
52.575607,-1.532535,137.71,19.01,6,132.61,21 / 23,7973614,2019-11-06 18:19:14:076,1.1288,0.1884,10.1165,-0.0033,0.0206,9.8066,-0.0594,0.2386,-0.1074,-20.81,-31.69,26.88,261.11,-87.81,121
52.575607,-1.532535,137.71,19.01,6,132.61,21 / 23,7973714,2019-11-06 18:19:14:176,-2.2492,-0.519,9.9028,0.0332,0.0072,9.8066,0.0193,0.0578,-0.0462,-21.12,-32.31,27.06,263.89,-87.68,123.92
52.575607,-1.532535,137.71,19.01,6,132.61,21 / 23,7973813,2019-11-06 18:19:14:275,-0.4061,1.0085,9.6579,-0.009,0.0092,9.8066,-0.0866,0.1468,-0.0601,-20.5,-32.37,26.69,265.97,-87.73,124.66
52.575607,-1.532535,137.71,19.01,6,132.61,21 / 23,7973913,2019-11-06 18:19:14:375,-1.4835,-0.1537,9.9304,0.0016,0.0151,9.8066,0.0048,-0.0622,0.0414,-20.31,-32.87,26.69,262.5,-87.83,121.14
52.575607,-1.532535,137.71,19.01,6,132.61,21 / 23,7974013,2019-11-06 18:19:14:475,0.3481,1.7612,9.4852,0.0007,-0.0045,9.8066,-0.0328,0.1779,-0.062,-20.87,-33,26.19,260.61,-87.94,121.53
52.575607,-1.532535,137.71,19.01,6,132.61,21 / 23,7974114,2019-11-06 18:19:14:576,0.5554,0.0733,9.9754,0.0002,0.0097,9.8065,-0.0294,-0.1321,0.0721,-20.44,-32.87,26.31,264.77,-87.97,124.37
52.575607,-1.532535,137.71,19.01,6,132.61,21 / 23,7974214,2019-11-06 18:19:14:676,0.8154,1.1101,9.7339,-0.0073,-0.0142,9.8066,0.061,0.02,-0.1009,-20.5,-33.37,26.44,263.99,-88.02,123.53
52.575607,-1.532535,137.71,19.01,6,132.61,21 / 23,7974314,2019-11-06 18:19:14:776,0.0237,-0.2753,9.437,0.0213,0.0177,9.8066,0.0503,-0.125,-0.007,-19.69,-32.75,26.56,259.89,-88.08,118.27
52.575607,-1.532535,137.71,19.01,6,132.61,21 / 23,7974414,2019-11-06 18:19:14:876,-1.3855,0.2446,10.1387,-0.0051,-0.0106,9.8065,-0.0507,0.1015,0.0277,-19.44,-32.75,26.5,258.2,-88.08,115.2
52.575607,-1.532535,137.71,19.01,6,132.61,21 / 23,7974514,2019-11-06 18:19:14:976,-1.7133,-0.9601,9.8959,0.0257,0.0233,9.8065,0.0262,-0.1329,-0.0018,-19,-32.81,26.5,255.81,-87.87,113
52.575607,-1.532535,137.71,19.01,6,132.61,21 / 23,7974614,2019-11-06 18:19:15:076,1.3729,-0.0826,9.4209,0.0129,-0.0016,9.8066,-0.0054,0.1212,-0.0783,-18.69,-32.94,26.19,254.27,-87.86,112.53
52.575607,-1.532535,137.71,19.01,6,132.61,21 / 23,7974714,2019-11-06 18:19:15:176,-0.1534,0.3948,9.8426,0.0022,0.0126,9.8066,0.0162,-0.0593,0.0241,-18.81,-33.25,26.44,251.19,-87.86,109.41
52.575607,-1.532535,137.71,19.01,6,132.61,21 / 23,7974814,2019-11-06 18:19:15:276,0.2048,1.1408,9.5521,-0.0068,-0.004,9.8066,-0.0661,0.0269,-0.0167,-18.25,-33.06,25.75,252.97,-87.78,109.87
52.575607,-1.532535,137.71,19.01,6,132.61,21 / 22,7974915,2019-11-06 18:19:15:377,-0.2121,0.2428,10.0344,-0.0045,0.0174,9.8066,0.0033,-0.0046,0.0542,-18.81,-34.06,25.44,250.07,-87.76,109.57
52.575607,-1.532535,137.71,19.01,6,132.61,21 / 22,7975013,2019-11-06 18:19:15:475,0.6571,0.7043,9.8188,0.0065,0.0109,9.8066,-0.0158,0.0861,-0.0688,-19.5,-34.12,25.81,254.19,-87.71,112.66
52.575607,-1.532535,137.71,19.01,6,132.61,21 / 22,7975113,2019-11-06 18:19:15:575,-0.7358,0.7282,9.9651,0.0088,0.0018,9.8066,-0.0005,0.1121,-0.0611,-19,-34.62,26.19,253.43,-87.63,112.04
52.575607,-1.532535,137.71,19.01,6,132.61,21 / 22,7975214,2019-11-06 18:19:15:676,-0.127,-0.6735,9.6566,0.0154,0.0015,9.8065,0.0027,0.0339,-0.0485,-19.31,-35.12,25.25,249.66,-87.62,109.37
52.575607,-1.532535,137.71,19.01,6,132.61,21 / 22,7975314,2019-11-06 18:19:15:776,1.726,-2.134,8.633,0.0015,0.0012,9.8066,-0.2277,0.205,-0.0194,-20.31,-35.12,25.81,252.27,-87.68,112.18
52.575607,-1.532535,137.71,19.01,6,132.61,21 / 22,7975414,2019-11-06 18:19:15:876,1.5895,2.0286,10.6432,0.004,0.0068,9.8066,0.1637,0.2818,-0.2098,-20.44,-35,26.25,250.88,-87.68,110.77
52.575607,-1.532535,137.71,19.01,6,132.61,21 / 22,7975514,2019-11-06 18:19:15:976,0.7259,-0.0553,9.3437,0.0903,0.0102,9.8062,0.1335,0.2467,-0.2643,-20.5,-35.5,25.75,251.56,-87.52,111.62
52.575607,-1.532535,137.71,19.01,6,132.61,21 / 22,7975614,2019-11-06 18:19:16:076,0.8825,2.2677,9.7433,0.0712,0.005,9.8064,0.0284,0.2786,-0.1285,-20.87,-36.19,25.25,252.43,-87.74,114.82
52.575607,-1.532535,137.71,19.01,6,132.61,21 / 22,7975714,2019-11-06 18:19:16:176,2.3658,-2.5476,8.906,0.0105,0.0082,9.8065,0.0608,0.1384,-0.0134,-20.81,-36.5,25.56,256.34,-87.34,118.04
52.575607,-1.532535,137.71,19.01,6,132.61,21 / 22,7975816,2019-11-06 18:19:16:278,3.2137,2.0244,10.0922,0.0241,-0.0091,9.8066,0.1283,0.4259,-0.3024,-20.56,-36.06,25.31,259.69,-86.99,122.98
52.575607,-1.532535,137.71,19.01,6,132.61,20 / 22,7975914,2019-11-06 18:19:16:376,-2.0346,-2.4535,8.4863,0.0729,0.0362,9.8063,0.128,0.0272,-0.1467,-20.56,-36.62,25.19,253.82,-87.09,116.99
52.575607,-1.532535,137.71,19.01,6,132.61,20 / 22,7976014,2019-11-06 18:19:16:476,1.3813,3.0775,9.612,0.0439,-0.012,9.8065,-0.0221,0.41,-0.1554,-20.69,-36.56,25.06,249.03,-87.4,111.79
52.575607,-1.532535,137.71,19.01,6,132.61,20 / 22,7976113,2019-11-06 18:19:16:575,1.094,1.3418,9.0357,0.0178,0.0348,9.8065,0.1353,-0.2295,0.2169,-20.81,-36.5,25.5,251.01,-87.05,112.92
52.575607,-1.532535,137.71,19.01,6,132.61,20 / 22,7976213,2019-11-06 18:19:16:675,5.1341,3.0804,8.7704,0.0081,-0.0355,9.8065,0.0644,0.3578,-0.2978,-21.12,-36.81,25,254.81,-86.99,118.11
52.575607,-1.532535,137.71,19.01,6,132.61,20 / 22,7976314,2019-11-06 18:19:16:776,-1.7889,-0.5436,10.0977,0.0568,0.0219,9.8064,0.161,-0.3492,0.0854,-20.75,-36.75,25.69,256.27,-86.88,118.54
52.575607,-1.532535,137.71,19.01,6,132.61,20 / 22,7976414,2019-11-06 18:19:16:876,-2.3745,-0.4907,10.0921,-0.0308,-0.0249,9.8065,-0.1423,0.1879,0.0382,-21,-36.31,25.19,255.18,-87.05,118.34
