GPS LATITUDE (degrees), GPS LONGITUDE (degrees), GPS ALTITUDE (m), GPS SPEED (Kmh), GPS ACCURACY (m), GPS ORIENTATION (Â°),GPS SATELLITES IN RANGE, TIME SINCE START (ms), DATE (YYYY-MO-DD HH-MI-SS_SSS), ACCELEROMETER X (m/s²) , ACCELEROMETER Y (m/s²), ACCELEROMETER Z (m/s²), GRAVITY X (m/s²), GRAVITY Y (m/s²), GRAVITY Z (m/s²), GYROSCOPE Yaw (rad/s), GYROSCOPE Pitch (rad/s), GYROSCOPE Roll (rad/s), MAGNETIC FIELD X (Î¼T), MAGNETIC FIELD Y (Î¼T), MAGNETIC FIELD Z (Î¼T), ORIENTATION (Yaw) (Â°), ORIENTATION (Pitch) (Â°), ORIENTATION (Roll ) (Â°)
53.051266,-1.758229,262.34,2.53,3,35.94,18 / 22,914616,2019-11-06 12:57:36:324,2.0434,-0.6598,9.6258,0.0177,0.0005,9.8066,0.0209,-0.5252,0.0289,-10.75,-42.75,-11.44,146.99,-88.06,99.09
53.051266,-1.758229,262.34,2.53,3,35.94,18 / 22,914715,2019-11-06 12:57:36:423,2.6221,-0.6358,9.086,0.0095,-0.0142,9.8065,-0.0124,-0.5344,0.0763,-11,-42.31,-11.25,149.72,-88.25,102.35
53.051266,-1.758229,262.34,2.53,3,35.94,18 / 22,914814,2019-11-06 12:57:36:522,2.2405,-1.7164,9.7131,-0.0059,-0.0394,9.8065,-0.0592,-0.5706,-0.0079,-12.31,-41.5,-10.31,147.11,-88.63,94.98
53.051266,-1.758229,262.34,2.53,3,35.94,18 / 22,914914,2019-11-06 12:57:36:622,2.1569,-1.5366,9.0105,-0.0076,-0.0359,9.8066,-0.0784,-0.5362,0.0563,-12.25,-43,-10,131.11,-88.74,78.31
53.051266,-1.758229,262.34,2.53,3,35.94,18 / 22,915014,2019-11-06 12:57:36:722,2.0583,-1.3818,10.3272,-0.0061,-0.0312,9.8066,-0.0099,-0.5232,-0.0406,-12.94,-42.25,-8.62,109.5,-88.92,51.49
53.051266,-1.758229,262.34,2.53,3,35.94,18 / 22,915114,2019-11-06 12:57:36:822,1.107,-2.0025,11.2187,-0.0006,0.0028,9.8066,0.0349,-0.4674,-0.1446,-13.87,-42.37,-8.06,115.47,-88.82,52.43
53.051266,-1.758229,262.34,2.53,3,35.94,18 / 22,915214,2019-11-06 12:57:36:922,0.3939,-0.9696,10.5766,0.0085,0.0099,9.8066,0.0344,-0.5596,0.0225,-14.87,-42.06,-7.5,130.45,-88.64,62.84
53.051266,-1.758229,262.34,2.53,3,35.94,18 / 22,915315,2019-11-06 12:57:37:023,1.4865,-0.5387,9.731,0.0315,0.0088,9.8065,0.0671,-0.6081,0.1168,-14,-42.44,-5.56,134.25,-88.89,65.25
53.051266,-1.758229,262.34,2.53,3,35.94,18 / 22,915414,2019-11-06 12:57:37:122,1.5506,-2.0164,9.0448,0.0354,0.0064,9.8066,0.0659,-0.4805,-0.0141,-14.56,-41.87,-4.19,152.56,-89.13,76.4
53.051266,-1.758229,262.34,2.53,3,35.94,18 / 22,915514,2019-11-06 12:57:37:222,1.338,-2.7953,9.6355,0.026,0,9.8066,0.0088,-0.5727,0.1113,-14.75,-42.56,-2.87,185.99,-89.26,107.52
53.051266,-1.758229,262.34,2.53,3,35.94,18 / 22,915614,2019-11-06 12:57:37:322,2.7634,-2.6433,9.4495,0.0172,0.007,9.8066,0.0047,-0.4952,-0.0553,-15.44,-42.25,-1.94,217.71,-89.21,136.65
53.051266,-1.758229,262.34,2.53,3,35.94,18 / 22,915714,2019-11-06 12:57:37:422,1.878,-1.7122,9.6748,-0.0039,0.0059,9.8066,-0.0427,-0.3739,-0.0467,-14.87,-41.69,-1.37,214.96,-89.03,130.32
53.051266,-1.758229,262.34,2.53,3,35.94,18 / 22,915814,2019-11-06 12:57:37:522,2.1046,-2.1021,10.1387,-0.0382,0.0143,9.8066,-0.0423,-0.5895,0.0304,-14.37,-41.31,-0.62,196.8,-88.96,111.76
53.051266,-1.758229,262.34,2.53,3,35.94,18 / 22,915914,2019-11-06 12:57:37:622,0.5078,-0.679,9.7331,-0.0402,-0.0159,9.8065,-0.0718,-0.3786,0.0151,-16.37,-41.87,0,167.71,-88.96,77.13
53.051266,-1.758229,262.34,2.53,3,35.94,18 / 22,916014,2019-11-06 12:57:37:722,1.2014,0.4178,10.1678,-0.0098,0.005,9.8066,-0.0814,-0.5795,0.2081,-16.31,-42,0.5,150.58,-88.97,55.69
53.051266,-1.758229,262.34,2.53,3,35.94,18 / 22,916114,2019-11-06 12:57:37:822,1.1675,0.2687,9.9092,-0.0126,-0.0161,9.8066,0.0222,-0.3219,0.0558,-15.5,-41.81,0.56,128.34,-89.02,32.39
53.051266,-1.758229,262.34,2.53,3,35.94,18 / 22,916214,2019-11-06 12:57:37:922,1.7115,-3.0225,9.5995,0.0067,0.0538,9.8064,0.0588,-0.5851,0.1763,-15.94,-41.69,1.38,143.42,-89.01,48.3
53.051266,-1.758229,262.34,2.53,3,35.94,18 / 22,916314,2019-11-06 12:57:38:022,0.8346,-3.5436,10.5482,0.0057,0.0245,9.8065,0.069,-0.5082,0.0946,-15.69,-42.31,2.06,153.25,-89.04,55.01
53.051266,-1.758229,262.34,2.53,3,35.94,18 / 22,916415,2019-11-06 12:57:38:123,2.3633,1.7786,9.7192,0.0092,0.0613,9.8064,0.0683,-0.4018,0.123,-15.44,-41.44,2.63,161.45,-89.04,59.32
53.051266,-1.758229,262.34,2.53,3,35.94,18 / 21,916514,2019-11-06 12:57:38:222,1.7886,-1.8272,10.0144,0.0196,0.0208,9.8065,0.044,-0.4192,0.0552,-15.56,-41.94,3.31,174.21,-88.86,73.3
53.051266,-1.758229,262.34,2.53,3,35.94,18 / 21,916614,2019-11-06 12:57:38:322,2.0498,1.2141,9.6251,0.0016,0.0236,9.8065,0.0459,-0.3348,-0.0119,-15.12,-42.5,3.81,186.47,-88.83,81.89
53.051266,-1.758229,262.34,2.53,3,35.94,18 / 21,916714,2019-11-06 12:57:38:422,0.9344,-1.4882,9.1406,0.0188,0.0644,9.8064,-0.0292,-0.419,0.2,-15.12,-42.19,3.69,189.55,-88.53,85.27
53.051266,-1.758229,262.34,2.53,3,35.94,18 / 21,916814,2019-11-06 12:57:38:522,1.9887,1.749,9.2277,0.0203,0.0027,9.8065,-0.0865,0.0486,-0.1317,-15.25,-41.81,4,192.23,-88.64,88.08
53.051266,-1.758229,262.34,2.53,3,35.94,18 / 21,916914,2019-11-06 12:57:38:622,1.2809,-1.3989,10.3652,-0.0189,0.0598,9.8064,0.0962,-0.2173,0.0785,-15.06,-41.87,4.13,187.38,-88.33,83.02
53.051266,-1.758229,262.34,2.53,3,35.94,18 / 21,917014,2019-11-06 12:57:38:722,1.5508,-1.2353,8.7786,-0.029,-0.0055,9.8066,-0.0185,0.1563,-0.1212,-14.75,-42.37,4.19,187.36,-88.33,83
53.051266,-1.758229,262.34,2.53,3,35.94,18 / 21,917114,2019-11-06 12:57:38:822,0.817,-2.2099,9.2352,-0.0172,0.0088,9.8066,-0.0636,-0.0633,0.0342,-15.31,-42.75,4,177.49,-88.2,72.34
53.051266,-1.758229,262.34,2.53,3,35.94,18 / 21,917214,2019-11-06 12:57:38:922,1.7885,-0.9251,10.5488,-0.0164,0.0074,9.8066,-0.0321,0.2443,-0.0478,-15.12,-42.19,4.38,173.2,-88.19,67.69
53.051266,-1.758229,262.34,2.53,3,35.94,18 / 21,917315,2019-11-06 12:57:39:023,1.2158,0.8689,9.4667,0.0067,-0.0398,9.8065,-0.0732,0.1412,-0.0819,-15,-41.56,3.75,169.46,-88.17,63.63
53.051266,-1.758229,262.34,2.53,3,35.94,18 / 21,917415,2019-11-06 12:57:39:123,0.7168,-1.4425,9.3416,0.0126,-0.0191,9.8066,0.0616,0.1338,-0.0145,-15.56,-42.25,3.88,172.93,-88.34,68.37
53.051266,-1.758229,262.34,2.53,3,35.94,19 / 19,917514,2019-11-06 12:57:39:222,2.8521,0.5127,10.1014,-0.0055,-0.0443,9.8065,0.0622,0.2336,-0.2102,-15.12,-42.69,4.38,179.71,-88.45,74.76
53.051266,-1.758229,262.34,2.53,3,35.94,19 / 19,917615,2019-11-06 12:57:39:323,1.595,-0.8166,9.9611,-0.0078,0.0126,9.8066,0.0204,-0.1036,0.0415,-15,-42.62,4.63,186.14,-88.2,78.22
53.051266,-1.758229,262.34,2.53,3,35.94,19 / 19,917714,2019-11-06 12:57:39:422,0.9564,2.1041,9.5512,-0.0015,-0.0229,9.8066,-0.0302,0.1105,-0.1348,-14.12,-42.31,5,185.2,-88.1,76.03
53.051266,-1.758229,262.34,2.53,3,35.94,19 / 19,917815,2019-11-06 12:57:39:523,1.1428,-1.2175,9.6603,0.01,0.0069,9.8066,-0.0218,-0.0836,0.0378,-15.06,-42.5,4.63,183.54,-87.97,75.43
53.051266,-1.758229,262.34,2.53,3,35.94,19 / 19,917915,2019-11-06 12:57:39:623,0.3266,-1.5669,9.6888,0.0211,0.0184,9.8065,0.0084,-0.108,0.0177,-14.44,-42.75,5,190.16,-87.75,81.64
53.051266,-1.758229,262.34,2.53,3,35.94,19 / 19,918015,2019-11-06 12:57:39:723,2.0734,0.1274,11.2172,-0.0097,-0.0025,9.8066,0.1824,-0.2583,0.1104,-15,-41.69,4.5,188.7,-87.77,81.16
53.051266,-1.758229,262.34,2.53,3,35.94,19 / 19,918115,2019-11-06 12:57:39:823,-1.6143,-1.2955,10.2352,0.0127,0.0346,9.8066,-0.0882,-0.1543,0.1003,-14,-41.37,3.94,187.66,-87.94,82.48
53.051266,-1.758229,262.34,2.53,3,35.94,19 / 19,918215,2019-11-06 12:57:39:923,2.8959,0.6238,10.8161,0.0326,0.0021,9.8066,-0.103,0.1141,-0.0175,-14.56,-42.19,3,181.5,-87.98,80.34
53.051266,-1.758229,262.34,2.53,3,35.94,19 / 19,918315,2019-11-06 12:57:40:023,3.0828,-3.649,10.3823,0.0256,0.0031,9.8066,0.2391,-0.3931,0.1508,-14.19,-41.62,4.25,195.13,-88.11,90.6
53.051266,-1.758229,262.34,2.53,3,35.94,19 / 19,918415,2019-11-06 12:57:40:123,1.7588,1.1763,9.2167,-0.0361,-0.051,9.8064,0.0046,0.403,-0.2213,-14.56,-41.94,3.31,196.27,-88.2,96.34
53.051266,-1.758229,262.34,2.53,3,35.94,19 / 19,918515,2019-11-06 12:57:40:223,1.6695,4.3539,9.6607,-0.02,0.0468,9.8064,-0.2231,0.0889,0.0268,-14.81,-42.19,3.56,185.38,-88.33,80.87
53.051266,-1.758229,262.34,2.53,3,35.94,19 / 19,918614,2019-11-06 12:57:40:322,1.4658,2.9867,9.2804,0.033,-0.0565,9.8064,-0.0544,0.5011,-0.1588,-14.62,-41.75,3,173.66,-88.66,71.94
53.051266,-1.758229,262.34,2.53,3,35.94,19 / 19,918714,2019-11-06 12:57:40:422,3.9899,0.1795,11.5117,0.0056,-0.0321,9.8065,0.198,0.244,-0.2032,-14.87,-41.62,4.25,181.09,-88.8,76.22
53.051266,-1.758229,262.34,2.53,3,35.94,19 / 19,918815,2019-11-06 12:57:40:523,-0.6672,-2.2688,9.8682,-0.0216,-0.0526,9.8065,0.0455,0.3286,-0.1915,-15.12,-42,3.69,194.86,-88.45,90.99
53.051266,-1.758229,262.34,2.53,3,35.94,19 / 19,918914,2019-11-06 12:57:40:622,0.8457,-2.0308,10.4131,0.0031,-0.0164,9.8066,-0.1125,0.2356,-0.1255,-14.94,-41.5,3.38,191.27,-88.65,90.67
53.051266,-1.758229,262.34,2.53,3,35.94,19 / 19,919014,2019-11-06 12:57:40:722,1.3419,-3.5694,11.145,0.0634,-0.1496,9.8053,-0.4353,0.8017,-0.4229,-15.12,-41.81,3.81,185.4,-88.48,80.86
53.051266,-1.758229,262.34,2.53,3,35.94,19 / 19,919115,2019-11-06 12:57:40:823,1.8554,2.6558,10.1364,0.0065,-0.0314,9.8065,0.1299,0.3307,-0.093,-15.25,-41.75,3.25,195.04,-89.11,94.36
53.051266,-1.758229,262.34,2.53,3,35.94,19 / 19,919214,2019-11-06 12:57:40:922,2.2893,-0.4477,8.9149,-0.0455,-0.0487,9.8064,0.112,-0.0461,-0.0738,-15.19,-41.44,3.5,197.79,-89.26,93.45
53.051266,-1.758229,262.34,2.53,3,35.94,19 / 19,919314,2019-11-06 12:57:41:022,1.5658,-2.0372,10.0314,-0.0428,0.0122,9.8065,0.0482,-0.1579,0.0377,-15.5,-42.25,3.06,198.81,-89.22,98.19
53.051266,-1.758229,262.34,2.53,3,35.94,19 / 19,919414,2019-11-06 12:57:41:122,0.7999,-0.7778,9.4516,-0.0238,0.0101,9.8065,0.0185,0.1912,-0.0867,-15.62,-41.69,3.75,200.73,-89.26,97.36
53.051266,-1.758229,262.34,2.53,3,35.94,19 / 19,919514,2019-11-06 12:57:41:222,0.0313,1.721,8.8934,0.0048,0.0358,9.8065,0.1205,-0.3161,0.0516,-15.31,-42.25,2.69,185.38,-89.03,84.31
53.051266,-1.758229,262.34,2.53,3,35.94,19 / 19,919614,2019-11-06 12:57:41:322,0.9219,-1.0317,9.5407,-0.0101,-0.0191,9.8066,-0.1179,-0.2066,0.1285,-15.75,-42.37,2.44,179.79,-88.72,82.65
53.051266,-1.758229,262.34,2.53,3,35.94,19 / 19,919714,2019-11-06 12:57:41:422,0.3325,-0.2038,9.5376,-0.0105,-0.0048,9.8066,-0.1434,0.1401,-0.0444,-15.5,-41.69,3.13,185.2,-88.79,84.19
53.051266,-1.758229,262.34,2.53,3,35.94,19 / 19,919814,2019-11-06 12:57:41:522,1.8906,1.8135,9.0817,-0.0095,0.0335,9.8065,0.0486,0.1255,-0.0958,-14.75,-42.62,2.38,181.82,-88.62,84.35
53.051266,-1.758229,262.34,2.53,3,35.94,19 / 19,919914,2019-11-06 12:57:41:622,-0.3467,-1.5902,10.0939,0.0108,0.039,9.8065,0.0456,-0.0626,-0.0017,-15.19,-41.94,1.69,181.73,-88.25,84.28
53.051266,-1.758229,262.34,2.53,3,35.94,19 / 19,920014,2019-11-06 12:57:41:722,-0.899,-0.6568,9.3543,0.0431,-0.0216,9.8065,0.0618,-0.1231,0.0739,-15.19,-42.56,3.13,188.02,-88.33,87.36
53.051266,-1.758229,262.34,2.53,3,35.94,19 / 19,920114,2019-11-06 12:57:41:822,3.0596,1.2469,10.4167,-0.0394,-0.0162,9.8065,-0.0808,-0.0505,0.1201,-14.56,-42.44,2.38,183.32,-88.43,85.98
53.051266,-1.758229,262.34,2.53,3,35.94,19 / 19,920214,2019-11-06 12:57:41:922,0.9322,-0.3823,11.101,-0.0315,-0.0249,9.8065,0.0137,-0.1214,0.1023,-15.19,-42.19,2.5,202.22,-88.46,102.5
53.051266,-1.758229,262.34,2.53,3,35.94,19 / 19,920314,2019-11-06 12:57:42:022,0.6242,2.244,8.3917,0.0114,-0.0287,9.8065,0.1105,-0.2177,0.1893,-15.69,-42.5,2.94,204.16,-88.76,104.84
53.051266,-1.758229,262.34,2.53,3,35.94,19 / 19,920414,2019-11-06 12:57:42:122,0.1098,-3.1694,10.5993,0.0213,-0.0288,9.8066,0.0362,-0.2512,0.118,-15.62,-42.06,2.38,201.43,-88.82,105.42
53.051266,-1.758229,262.34,2.53,3,35.94,18 / 21,920514,2019-11-06 12:57:42:222,0.8759,1.0156,9.27,-0.0036,-0.0381,9.8065,0.055,-0.3165,0.2068,-15.56,-41.81,2.31,205.9,-88.9,110.02
53.051266,-1.758229,262.34,2.53,3,35.94,18 / 21,920614,2019-11-06 12:57:42:322,0.1555,-4.2125,11.0101,-0.0082,-0.0505,9.8065,0.0546,-0.444,0.224,-15.31,-41.5,2.75,216.01,-89.02,116.25
53.051266,-1.758229,262.34,2.53,3,35.94,18 / 21,920714,2019-11-06 12:57:42:422,1.2386,0.813,10.1724,0.0381,-0.0537,9.8064,0.0064,-0.0056,-0.0391,-14.81,-42.06,2.94,221.88,-88.86,122.66
53.051266,-1.758229,262.34,2.53,3,35.94,18 / 21,920814,2019-11-06 12:57:42:522,-1.4473,-2.9024,10.4581,0.0121,0.0011,9.8066,0.0486,-0.2357,0.1435,-15.31,-42.37,2.75,222.57,-88.84,123.41
53.051266,-1.758229,262.34,2.53,3,35.94,18 / 21,920914,2019-11-06 12:57:42:622,1.7096,0.3759,9.0966,-0.0091,-0.0245,9.8066,-0.1328,0.3015,-0.0733,-15.75,-42.31,2.63,223.75,-88.87,125.13
53.051266,-1.758229,262.34,2.53,3,35.94,18 / 21,921014,2019-11-06 12:57:42:722,2.0034,1.8834,9.2219,-0.0194,0.0428,9.8065,-0.0115,-0.0248,-0.038,-15.37,-41.37,2.88,224.5,-89.05,124.96
53.051266,-1.758229,262.34,2.53,3,35.94,18 / 21,921114,2019-11-06 12:57:42:822,0.9545,2.3624,9.915,-0.0015,-0.0087,9.8066,0.003,0.4231,-0.216,-15.81,-41.94,2.44,206.81,-89.07,110.78
53.051266,-1.758229,262.34,2.53,3,35.94,18 / 21,921214,2019-11-06 12:57:42:922,-0.0147,0.8025,9.7611,0.0145,0.0439,9.8065,-0.005,0.1482,-0.0732,-15.75,-40.87,3.13,212.17,-89.05,112.83
53.051266,-1.758229,262.34,2.53,3,35.94,18 / 21,921314,2019-11-06 12:57:43:022,-0.0273,-2.849,11.7715,-0.0011,-0.0045,9.8066,-0.1805,0.4165,-0.1006,-15.75,-42.06,3.38,224.47,-89.13,125.42
53.051266,-1.758229,262.34,2.53,3,35.94,18 / 21,921414,2019-11-06 12:57:43:122,1.304,-0.6632,10.8514,-0.0175,0.0537,9.8065,0.0153,0.2627,-0.2417,-15.87,-41.37,3.5,237.82,-89.23,135.4
53.051266,-1.758229,262.34,2.53,3,35.94,19 / 20,921514,2019-11-06 12:57:43:222,-2.0104,-2.3519,9.3447,0.0067,0.0289,9.8065,0.0369,0.2237,-0.1539,-15.25,-41.12,2.25,211.08,-89.23,114.56
53.051266,-1.758229,262.34,2.53,3,35.94,19 / 20,921614,2019-11-06 12:57:43:322,1.9318,1.5827,10.0802,0.0238,0.0489,9.8064,-0.0648,0.2694,-0.1968,-15.56,-41.25,2.06,196.42,-89.47,99.67
53.051266,-1.758229,262.34,2.53,3,35.94,19 / 20,921714,2019-11-06 12:57:43:422,0.9332,-1.0241,9.6884,-0.0254,0.012,9.8066,-0.0906,-0.0611,-0.0048,-15.44,-41.56,2.75,206.25,-89.22,105.89
53.051266,-1.758229,262.34,2.53,3,35.94,19 / 20,921814,2019-11-06 12:57:43:522,-0.1145,0.9325,9.9831,-0.028,-0.0158,9.8065,-0.0524,0.1416,-0.0292,-15.75,-41.81,3.38,213.17,-89.07,113.86
53.051266,-1.758229,262.34,2.53,3,35.94,19 / 20,921914,2019-11-06 12:57:43:622,-0.4817,1.457,10.4537,0.0275,0.0312,9.8065,-0.0272,-0.1954,0.0613,-15.5,-41.94,3.88,219.13,-88.71,116.39
53.051266,-1.758229,262.34,2.53,3,35.94,19 / 20,922014,2019-11-06 12:57:43:722,-1.469,0.0084,9.7969,0.0254,0.0016,9.8066,0.0876,-0.0933,0.0076,-15.25,-41.94,3.5,221.98,-88.73,119.35
53.051266,-1.758229,262.34,2.53,3,35.94,19 / 20,922114,2019-11-06 12:57:43:822,0.054,-0.01,11.1466,0.0023,-0.0189,9.8066,0.0409,-0.1196,-0.0079,-15.25,-42,3.44,225.61,-88.6,127.05
53.051266,-1.758229,262.34,2.53,3,35.94,19 / 20,922214,2019-11-06 12:57:43:922,-2.8676,-1.5631,9.0975,-0.0337,-0.0282,9.8065,-0.1414,-0.3101,0.2848,-14.69,-41.87,3.5,229.61,-88.43,127.9
53.051266,-1.758229,262.34,2.53,3,35.94,19 / 20,922315,2019-11-06 12:57:44:023,-1.6412,1.0186,9.2453,-0.0133,-0.0439,9.8065,-0.0594,0.0061,-0.0002,-15.19,-42.69,3.63,229.02,-88.67,126.86
53.051266,-1.758229,262.34,2.53,3,35.94,19 / 20,922414,2019-11-06 12:57:44:122,-2.9247,-2.2752,9.5834,0.0045,-0.0038,9.8066,0.0046,-0.3057,0.0886,-15.37,-42,4.19,224.1,-88.54,121.91
53.051266,-1.758229,262.34,2.53,3,35.94,19 / 20,922515,2019-11-06 12:57:44:223,-1.9386,-0.3146,9.8498,-0.0056,-0.0436,9.8065,0.0596,0.2009,-0.1934,-14.69,-42.44,2.63,220.82,-88.57,122.07
53.051266,-1.758229,262.34,2.53,3,35.94,19 / 20,922614,2019-11-06 12:57:44:322,-3.1649,-2.4955,9.8359,0.0051,0.0256,9.8065,-0.0683,-0.1743,0.1045,-14.56,-42.12,3.88,223,-88.27,121.24
53.051266,-1.758229,262.34,2.53,3,35.94,19 / 20,922714,2019-11-06 12:57:44:422,-1.9326,-0.3272,10.0115,-0.0128,-0.0093,9.8066,-0.1052,0.4423,-0.1775,-14.25,-42.56,3,217.79,-88.12,119.15
53.051266,-1.758229,262.34,2.53,3,35.94,19 / 20,922814,2019-11-06 12:57:44:522,-0.483,4.56,9.8422,0.0171,0.0671,9.8063,0.0279,0.1942,-0.2394,-14.44,-42.62,3.13,215.1,-88.18,116.14
53.051266,-1.758229,262.34,2.53,3,35.94,19 / 20,922914,2019-11-06 12:57:44:622,-3.1608,-0.2607,9.6193,0.0123,0.0312,9.8065,0.0179,0.5215,-0.183,-14.75,-42.25,3.19,212.96,-87.9,114.77
53.051266,-1.758229,262.34,2.53,3,35.94,19 / 20,923014,2019-11-06 12:57:44:722,-4.2801,6.3326,9.4599,0.0059,0.0862,9.8062,-0.0715,0.5796,-0.4506,-14.06,-41.81,3.13,207.59,-87.52,108.84
53.051266,-1.758229,262.34,2.53,3,35.94,19 / 20,923114,2019-11-06 12:57:44:822,-3.5517,-1.8992,9.6021,0.0075,0.0607,9.8064,0.0317,0.1681,-0.0421,-14.56,-43,3,209.62,-87.66,111.55
53.051266,-1.758229,262.34,2.53,3,35.94,19 / 20,923214,2019-11-06 12:57:44:922,-2.9177,3.0311,9.368,-0.0021,0.0381,9.8066,-0.1591,0.4039,-0.3267,-14.12,-42.81,3.38,210.38,-87.63,111.86
53.051266,-1.758229,262.34,2.53,3,35.94,19 / 20,923315,2019-11-06 12:57:45:023,-6.2109,-2.2858,8.6872,0.0161,0.0412,9.8065,-0.0356,-0.0441,0.1957,-14.62,-42.44,3,210.41,-87.45,112.62
53.051266,-1.758229,262.34,2.53,3,35.94,19 / 20,923414,2019-11-06 12:57:45:122,-2.9715,1.1362,10.9587,0.0306,-0.0022,9.8065,0.1023,0.5019,-0.4503,-13.69,-42.87,3.06,206.98,-87.5,108.27
53.051186,-1.756992,264.42,11.54,3,97.52,18 / 21,923514,2019-11-06 12:57:45:222,-4.5371,-0.8958,10.4356,-0.0049,-0.0082,9.8066,0.1429,-0.3373,-0.0123,-14.94,-42.31,3.5,214.87,-87.57,113.68
53.051186,-1.756992,264.42,11.54,3,97.52,18 / 21,923614,2019-11-06 12:57:45:322,-4.9201,-1.9006,9.5807,0.0242,-0.0143,9.8065,-0.0827,0.0224,-0.0064,-14.62,-43.06,3.44,216.08,-87.52,118.84
53.051186,-1.756992,264.42,11.54,3,97.52,18 / 21,923715,2019-11-06 12:57:45:423,-5.564,-0.5169,8.9337,0.0328,0.0493,9.8064,-0.0608,-0.2972,0.2584,-14.62,-42.81,3.81,219.21,-87.17,119.21
53.051186,-1.756992,264.42,11.54,3,97.52,18 / 21,923814,2019-11-06 12:57:45:522,-3.98,-1.2509,10.7293,-0.0206,0.0117,9.8066,0.1222,-0.288,0.072,-14.31,-43.5,3.25,216.5,-87.39,119.05
53.051186,-1.756992,264.42,11.54,3,97.52,18 / 21,923914,2019-11-06 12:57:45:622,-3.6581,3.9558,9.8527,0.0036,0.0419,9.8065,0.0428,-0.1876,0.1465,-14.31,-42.94,3.75,223.12,-87.43,122.35
53.051186,-1.756992,264.42,11.54,3,97.52,18 / 21,924014,2019-11-06 12:57:45:722,-4.3542,-1.2155,10.0426,0.0027,0.0383,9.8065,0.0381,-0.4033,0.2691,-14.69,-42.31,3.75,221.29,-87.31,121.13
53.051186,-1.756992,264.42,11.54,3,97.52,18 / 21,924114,2019-11-06 12:57:45:822,-4.1823,4.1158,9.1387,0.0051,0.0229,9.8066,0.0464,0.0331,0.0756,-13.94,-42.25,3.38,223.12,-87.49,126.04
53.051186,-1.756992,264.42,11.54,3,97.52,18 / 21,924214,2019-11-06 12:57:45:922,-4.5409,1.0275,9.5099,-0.0021,0.0125,9.8066,-0.0425,-0.2586,0.104,-14.37,-42.44,3.88,228.74,-87.55,128.09
53.051186,-1.756992,264.42,11.54,3,97.52,18 / 21,924314,2019-11-06 12:57:46:022,-4.7243,2.8682,10.0431,-0.0023,-0.0278,9.8065,-0.0618,0.2032,-0.035,-15.19,-42.5,4.13,231.24,-87.83,130.88
53.051186,-1.756992,264.42,11.54,3,97.52,18 / 21,924414,2019-11-06 12:57:46:122,-4.1176,0.5639,9.8695,-0.0007,0.0041,9.8066,-0.0306,-0.0132,0.0633,-14.31,-42,4,231.86,-88,130.44
53.051186,-1.756992,264.42,11.54,3,97.52,18 / 20,924515,2019-11-06 12:57:46:223,-4.204,-0.7692,9.4695,0.0087,-0.0261,9.8066,0.0308,0.1441,-0.0654,-15.12,-42.19,3.31,230.27,-88.09,132.98
53.051186,-1.756992,264.42,11.54,3,97.52,18 / 20,924615,2019-11-06 12:57:46:323,-4.5238,-0.0222,9.1425,-0.0025,-0.0057,9.8066,0.0013,0.0442,-0.0379,-15.12,-42.19,3.81,238.31,-88.08,137.79
53.051186,-1.756992,264.42,11.54,3,97.52,18 / 20,924715,2019-11-06 12:57:46:423,-3.4612,-0.3447,10.2138,-0.0096,-0.0324,9.8065,-0.041,0.1774,-0.0442,-14.62,-42.12,4,238.87,-88.08,138.36
53.051186,-1.756992,264.42,11.54,3,97.52,18 / 20,924815,2019-11-06 12:57:46:523,-3.2695,2.1101,9.4659,-0.0051,-0.0181,9.8066,-0.0642,0.1933,-0.0816,-15.31,-42.31,3.56,243.01,-88.33,142.11
53.051186,-1.756992,264.42,11.54,3,97.52,18 / 20,924915,2019-11-06 12:57:46:623,-3.1151,-0.4422,9.9267,-0.012,-0.0264,9.8066,0.0234,0.0627,-0.0054,-15.31,-42.56,3.56,244.93,-88.51,143.74
53.051186,-1.756992,264.42,11.54,3,97.52,18 / 20,925015,2019-11-06 12:57:46:723,-2.911,2.6034,9.3148,-0.0055,-0.0373,9.8066,-0.046,0.2164,-0.11,-15.62,-42.12,3.69,248.16,-88.58,147.48
53.051186,-1.756992,264.42,11.54,3,97.52,18 / 20,925115,2019-11-06 12:57:46:823,-2.5889,0.6247,9.9743,0.0037,-0.0172,9.8066,0.0002,-0.0948,0.1025,-15.5,-42.44,3.88,249.07,-88.7,147.42
53.051186,-1.756992,264.42,11.54,3,97.52,18 / 20,925214,2019-11-06 12:57:46:922,-2.4228,1.8582,9.6813,-0.009,-0.0243,9.8065,0.0108,0.086,-0.0501,-15.56,-42.56,3.25,256.21,-88.85,158.53
53.051186,-1.756992,264.42,11.54,3,97.52,18 / 20,925315,2019-11-06 12:57:47:023,-3.4395,0.0936,8.9804,0.0019,-0.0149,9.8066,0.0163,-0.0962,0.0717,-16.19,-41.69,3.56,256.56,-89.13,154.67
53.051186,-1.756992,264.42,11.54,3,97.52,18 / 20,925415,2019-11-06 12:57:47:123,-2.933,0.4721,10.4113,-0.023,-0.0052,9.8066,0.031,-0.0893,0.0435,-15.87,-41.94,3.69,265.01,-89.19,163.03
53.051186,-1.756992,264.42,11.54,3,97.52,18 / 20,925514,2019-11-06 12:57:47:222,-2.983,1.3106,9.7536,-0.0145,-0.013,9.8065,-0.0017,0.0912,0.0168,-15.25,-42.19,4.25,280.84,-89.34,177.67
53.051186,-1.756992,264.42,11.54,3,97.52,18 / 20,925614,2019-11-06 12:57:47:322,-2.3709,1.5079,10.4883,0.0112,-0.0088,9.8066,0.0851,0.1223,-0.0406,-15.75,-42.37,3.56,287.5,-89.28,-174.79
53.051186,-1.756992,264.42,11.54,3,97.52,18 / 20,925715,2019-11-06 12:57:47:423,-3.246,0.1088,9.4438,-0.0245,-0.0238,9.8066,0.0765,0.0277,-0.0313,-16.5,-41.81,4.75,295.57,-89.2,-169.97
53.051186,-1.756992,264.42,11.54,3,97.52,18 / 20,925815,2019-11-06 12:57:47:523,-2.2265,1.9089,9.7904,0.0081,-0.0237,9.8066,-0.0594,0.2602,-0.0695,-16.81,-41.62,4.38,309.11,-89.14,-152.52
53.051186,-1.756992,264.42,11.54,3,97.52,18 / 20,925915,2019-11-06 12:57:47:623,-3.2507,0.0954,9.8247,0.0015,0.0018,9.8066,-0.0052,-0.0344,0.046,-16.81,-41.44,3.56,323.52,-89.13,-138.5
53.051186,-1.756992,264.42,11.54,3,97.52,18 / 20,926015,2019-11-06 12:57:47:723,-1.9813,0.1075,10.0074,-0.0087,-0.0073,9.8066,0.0574,0.0132,-0.0003,-16.62,-41.94,4.06,327.25,-89.13,-134.86
53.051186,-1.756992,264.42,11.54,3,97.52,18 / 20,926114,2019-11-06 12:57:47:822,-2.9043,2.0739,13.3031,0.0037,0.0067,9.8066,-0.0748,0.5277,-0.1556,-16.44,-41.37,3.88,326.07,-89.1,-136.71
53.051186,-1.756992,264.42,11.54,3,97.52,18 / 20,926214,2019-11-06 12:57:47:922,-2.6734,1.868,8.9507,0.0763,-0.031,9.8062,-0.2387,0.2359,-0.011,-16.81,-41.44,3.88,323.17,-89.23,-138.99
53.051186,-1.756992,264.42,11.54,3,97.52,18 / 20,926314,2019-11-06 12:57:48:022,-1.7168,-0.8646,10.01,0.025,-0.0218,9.8066,-0.0422,0.2049,0.1015,-16.81,-41.5,4.5,345.73,-89.27,-120.24
53.051186,-1.756992,264.42,11.54,3,97.52,18 / 20,926414,2019-11-06 12:57:48:122,-0.9346,-0.2608,10.0764,-0.0384,-0.0622,9.8063,0.1157,0.1497,-0.3112,-16.44,-41.44,3.94,351.73,-88.9,-111.91
53.051186,-1.756992,264.42,11.54,3,97.52,19 / 21,926514,2019-11-06 12:57:48:222,-1.3729,-0.944,9.939,-0.033,-0.031,9.8065,0.1318,0.152,-0.0949,-15.94,-42.44,4.44,337.77,-89.04,-125.34
53.051186,-1.756992,264.42,11.54,3,97.52,19 / 21,926614,2019-11-06 12:57:48:322,-0.967,2.8195,7.3184,0.0252,-0.0185,9.8065,-0.3216,0.0564,-0.1033,-16.56,-42.19,3.81,341.73,-88.88,-120.66
53.051186,-1.756992,264.42,11.54,3,97.52,19 / 21,926714,2019-11-06 12:57:48:422,-1.7385,0.6888,9.1809,0.0062,-0.0313,9.8065,-0.0206,0.1543,0.0017,-17.19,-41.81,3.75,339.44,-89,-122.95
53.051186,-1.756992,264.42,11.54,3,97.52,19 / 21,926814,2019-11-06 12:57:48:522,-0.8862,1.2988,10.0511,0.0253,-0.0093,9.8065,0.0043,-0.0245,-0.1114,-17.31,-41.5,3.5,330.24,-88.86,-131.67
53.051186,-1.756992,264.42,11.54,3,97.52,19 / 21,926914,2019-11-06 12:57:48:622,-1.5644,-0.6531,9.8743,0.0027,-0.0239,9.8066,-0.017,0.046,-0.0313,-17.06,-41.81,4.19,347.49,-89,-115.23
53.051186,-1.756992,264.42,11.54,3,97.52,19 / 21,927014,2019-11-06 12:57:48:722,-1.3455,1.2414,9.4483,-0.0116,-0.0223,9.8066,0.0162,0.1218,-0.0891,-17.5,-42.12,4,350.28,-88.82,-112.47
53.051186,-1.756992,264.42,11.54,3,97.52,19 / 21,927115,2019-11-06 12:57:48:823,-1.1265,-0.768,10.0156,-0.0051,-0.0068,9.8066,-0.0156,0.01,-0.001,-17.12,-41.81,4.25,350.14,-88.85,-112.62
53.051186,-1.756992,264.42,11.54,3,97.52,19 / 21,927215,2019-11-06 12:57:48:923,-1.3028,0.7493,9.7488,0.0524,-0.017,9.8064,-0.0439,0.1719,-0.0998,-17.25,-41.75,3.63,348.56,-88.8,-114.1
53.051186,-1.756992,264.42,11.54,3,97.52,19 / 21,927315,2019-11-06 12:57:49:023,-1.6801,-0.3161,9.5006,0.0114,0.0017,9.8066,-0.1176,-0.0684,0.0867,-17.69,-41.87,4.56,353.09,-88.84,-112.12
53.051186,-1.756992,264.42,11.54,3,97.52,19 / 21,927414,2019-11-06 12:57:49:122,-0.9131,0.2799,10.0549,-0.007,-0.0074,9.8066,0.0205,0.0057,-0.0043,-17.37,-41.5,3.94,2.45,-88.77,-100.91
53.051186,-1.756992,264.42,11.54,3,97.52,21 / 21,927514,2019-11-06 12:57:49:222,-0.8328,0.6981,9.5863,-0.0087,0.0079,9.8066,0.0309,-0.0916,0.0282,-17.62,-41.31,3.94,1.95,-88.76,-100.67
53.051186,-1.756992,264.42,11.54,3,97.52,21 / 21,927614,2019-11-06 12:57:49:322,-0.9436,0.1218,9.5181,-0.0107,0.0068,9.8065,0.0061,-0.0759,0.0328,-16.62,-41.37,3.88,7.25,-88.8,-96.34
53.051186,-1.756992,264.42,11.54,3,97.52,21 / 21,927714,2019-11-06 12:57:49:422,-0.4929,-1.4123,10.7616,-0.0256,-0.0324,9.8066,0.0715,0.0924,-0.1477,-17.25,-41.37,4.63,3.6,-88.9,-102.95
53.051186,-1.756992,264.42,11.54,3,97.52,21 / 21,927814,2019-11-06 12:57:49:522,-0.9107,0.8949,8.9682,0.0305,-0.0092,9.8065,-0.1519,0.1376,0.0193,-17.06,-41.37,3.75,5.56,-88.83,-97.95
53.051186,-1.756992,264.42,11.54,3,97.52,21 / 21,927914,2019-11-06 12:57:49:622,-1.262,-1.0752,9.3715,0.0221,0.0064,9.8066,-0.0979,0.0285,0.1,-16.81,-41.69,4.06,10.88,-88.82,-92.9
53.051186,-1.756992,264.42,11.54,3,97.52,21 / 21,928014,2019-11-06 12:57:49:722,-1.0263,1.9069,8.7599,-0.0196,-0.029,9.8065,-0.0782,0.3022,-0.1213,-16.94,-41,3.63,17.39,-88.71,-86.76
53.051186,-1.756992,264.42,11.54,3,97.52,21 / 21,928115,2019-11-06 12:57:49:823,-0.0439,-0.5716,10.1977,0.0126,-0.0013,9.8066,-0.0202,0.0489,-0.0217,-17.37,-41.31,4.06,20.08,-88.86,-84.08
53.051186,-1.756992,264.42,11.54,3,97.52,21 / 21,928214,2019-11-06 12:57:49:922,-0.8754,-0.6083,9.2924,-0.0071,-0.0042,9.8066,-0.1582,0.0276,0.0274,-17.19,-41.69,3.81,18.7,-88.95,-85.36
53.051186,-1.756992,264.42,11.54,3,97.52,21 / 21,928314,2019-11-06 12:57:50:022,0.0348,-0.2242,9.6943,-0.0129,-0.0449,9.8065,-0.0132,0.063,-0.0307,-16.87,-42.06,4,36.7,-88.87,-68.17
53.051186,-1.756992,264.42,11.54,3,97.52,21 / 21,928415,2019-11-06 12:57:50:123,0.3689,0.781,9.8836,0.0249,0.0106,9.8065,0.075,0.0587,-0.0977,-17.75,-41.56,3.81,29.44,-88.74,-74.5
53.051186,-1.756992,264.42,11.54,3,97.52,20 / 21,928514,2019-11-06 12:57:50:222,0.1712,-0.7615,10.3624,0.0111,-0.0217,9.8065,-0.0878,-0.0218,0.0327,-17.81,-41.62,4.31,28,-88.88,-75.73
53.051186,-1.756992,264.42,11.54,3,97.52,20 / 21,928615,2019-11-06 12:57:50:323,-0.1527,-0.922,9.9277,0.0136,0.0118,9.8066,0.095,-0.1277,0.033,-17.44,-41.62,4.13,28.89,-88.78,-75.77
53.051186,-1.756992,264.42,11.54,3,97.52,20 / 21,928714,2019-11-06 12:57:50:422,0.3535,0.6038,9.8479,-0.0142,-0.0063,9.8066,0.0244,0.0553,-0.0679,-17.5,-41.75,4.88,29.85,-88.81,-77.95
53.051186,-1.756992,264.42,11.54,3,97.52,20 / 21,928814,2019-11-06 12:57:50:522,-0.1127,0.3182,9.7288,0.003,0.0146,9.8066,-0.0237,-0.0513,0.0421,-17.87,-41.37,4.69,33.61,-88.78,-73.4
53.051186,-1.756992,264.42,11.54,3,97.52,20 / 21,928915,2019-11-06 12:57:50:623,0.064,0.6103,9.5761,0.0007,-0.0058,9.8066,-0.0411,0.0996,-0.0368,-17.37,-41.69,3.94,34.05,-88.72,-70.92
53.051186,-1.756992,264.42,11.54,3,97.52,20 / 21,929015,2019-11-06 12:57:50:723,0.1707,0.0144,10.0386,-0.0106,0.005,9.8066,0.0231,0.0148,-0.0114,-17.06,-41.31,4.44,39.23,-88.71,-65.94
53.051186,-1.756992,264.42,11.54,3,97.52,20 / 21,929115,2019-11-06 12:57:50:823,-0.2357,0.0207,8.9909,-0.0188,0.0189,9.8066,0.1508,0.101,-0.0735,-17.37,-41.62,3.75,42.04,-88.7,-63.3
53.051186,-1.756992,264.42,11.54,3,97.52,20 / 21,929215,2019-11-06 12:57:50:923,-0.5702,-1.009,9.5488,0.0004,0.007,9.8066,-0.0604,-0.0736,0.0107,-17.5,-41.19,4.44,42.61,-88.87,-62.43
53.051186,-1.756992,264.42,11.54,3,97.52,20 / 21,929315,2019-11-06 12:57:51:023,-0.1424,0.7171,9.5552,-0.0225,0.0122,9.8066,0.0175,-0.0345,0.0592,-17.12,-41.62,4.19,51.15,-88.74,-54.47
53.051186,-1.756992,264.42,11.54,3,97.52,20 / 21,929414,2019-11-06 12:57:51:122,0.0592,0.1515,9.7216,-0.0191,-0.0059,9.8066,-0.0527,-0.011,-0.0327,-17,-42.06,3.75,54.85,-88.51,-51.33
53.051186,-1.756992,264.42,11.54,3,97.52,20 / 22,929515,2019-11-06 12:57:51:223,0.1889,0.0915,9.9646,-0.0286,-0.0047,9.8065,-0.0272,0.0262,-0.0132,-17.06,-41.75,3.88,60.22,-88.29,-46.6
53.051186,-1.756992,264.42,11.54,3,97.52,20 / 22,929614,2019-11-06 12:57:51:322,-0.484,0.1602,9.3305,-0.0065,-0.0147,9.8066,-0.113,0.0632,0.016,-17.44,-41.75,4.19,60.91,-88.12,-46.3
53.051186,-1.756992,264.42,11.54,3,97.52,20 / 22,929717,2019-11-06 12:57:51:425,0.3292,-0.1615,10.0474,0.0022,0.0003,9.8066,-0.0363,-0.0222,-0.0065,-17.75,-42.19,3.81,64.52,-88.11,-41.92
53.051186,-1.756992,264.42,11.54,3,97.52,20 / 22,929815,2019-11-06 12:57:51:523,0.0244,0.0868,9.7056,-0.0043,0.0124,9.8065,-0.0037,0.0233,-0.006,-17.31,-41.62,4.63,72.86,-88.09,-37.87
53.051186,-1.756992,264.42,11.54,3,97.52,20 / 22,929914,2019-11-06 12:57:51:622,0.4593,-0.3572,10.073,0.03,-0.0135,9.8065,0.0998,-0.0072,-0.0354,-17.56,-42.12,4.44,67.56,-88.1,-38.98
53.051186,-1.756992,264.42,11.54,3,97.52,20 / 22,930014,2019-11-06 12:57:51:722,0.0933,-0.0372,9.8631,-0.0046,-0.0044,9.8066,-0.0221,0.0321,-0.0153,-17.44,-42,4.63,66.42,-88.3,-43.68
53.051186,-1.756992,264.42,11.54,3,97.52,20 / 22,930114,2019-11-06 12:57:51:822,0.0123,-0.4458,9.7585,-0.0009,0.0067,9.8066,-0.0197,-0.0204,0.0386,-17.19,-41.31,4.5,69.42,-88.24,-40.79
53.051186,-1.756992,264.42,11.54,3,97.52,20 / 22,930214,2019-11-06 12:57:51:922,0.2979,-0.1135,9.9948,-0.0096,-0.0014,9.8066,0.0145,-0.0133,-0.0167,-16.94,-41.69,4.13,67.57,-88.14,-39.81
53.051186,-1.756992,264.42,11.54,3,97.52,20 / 22,930315,2019-11-06 12:57:52:023,0.0154,0.2695,9.6463,-0.0093,0.009,9.8066,0.0206,-0.0254,0.0204,-17.06,-41.06,4.19,69.11,-88.1,-38.32
53.051186,-1.756992,264.42,11.54,3,97.52,20 / 22,930414,2019-11-06 12:57:52:122,0.0825,-0.151,9.7303,-0.0398,0.0165,9.8065,0.0132,-0.0389,0.0093,-17.5,-42.06,3.63,76.66,-87.87,-31.58
53.051186,-1.756992,264.42,11.54,3,97.52,20 / 21,930514,2019-11-06 12:57:52:222,0.2622,-0.2038,9.9794,0.013,0.004,9.8066,0.0254,0.0522,-0.0566,-17,-41.94,3.94,78.87,-87.8,-29.58
53.051186,-1.756992,264.42,11.54,3,97.52,20 / 21,930614,2019-11-06 12:57:52:322,0.0749,-0.1327,9.819,-0.0087,0.0101,9.8066,-0.0236,0.0268,0.0203,-17.12,-41.94,4.31,82.55,-87.89,-25.75
53.051186,-1.756992,264.42,11.54,3,97.52,20 / 21,930714,2019-11-06 12:57:52:422,0.3031,0.2084,9.8516,-0.0009,-0.0001,9.8066,-0.0116,0.0506,-0.0548,-17.31,-42.12,3.88,82.69,-87.78,-25.86
53.051186,-1.756992,264.42,11.54,3,97.52,20 / 21,930814,2019-11-06 12:57:52:522,0.3331,-0.3008,9.9033,-0.0136,-0.0014,9.8066,-0.003,-0.0134,0.0408,-17.19,-41.75,4.25,84.14,-87.66,-24.72
53.051186,-1.756992,264.42,11.54,3,97.52,20 / 21,930914,2019-11-06 12:57:52:622,0.1294,-0.3968,9.7879,-0.0166,-0.0026,9.8065,-0.0093,0.0043,-0.0136,-17.19,-41.56,3.75,84.61,-87.56,-24.51
53.051186,-1.756992,264.42,11.54,3,97.52,20 / 21,931014,2019-11-06 12:57:52:722,0.5532,0.0033,10.0539,0.0037,0.0054,9.8066,0.0463,0.0241,0.0023,-17.56,-41.62,3.88,85.92,-87.46,-22.39
53.051186,-1.756992,264.42,11.54,3,97.52,20 / 21,931114,2019-11-06 12:57:52:822,0.129,-0.6487,9.8047,-0.0191,0.002,9.8066,0.0156,-0.0082,0.0203,-17.75,-41.94,3.31,82.78,-87.41,-22.61
53.051186,-1.756992,264.42,11.54,3,97.52,20 / 21,931214,2019-11-06 12:57:52:922,0.2121,0.0243,9.7332,-0.0204,-0.002,9.8066,0.0015,0.0412,-0.0262,-16.87,-41.75,3.25,85.35,-87.17,-21.56
53.051186,-1.756992,264.42,11.54,3,97.52,20 / 21,931314,2019-11-06 12:57:53:022,0.2377,0.3021,9.6197,-0.0041,0.008,9.8066,-0.0267,0.0412,0.0432,-17.69,-42.5,3.88,89.59,-87.31,-19.07
53.051186,-1.756992,264.42,11.54,3,97.52,20 / 21,931415,2019-11-06 12:57:53:123,0.3732,-0.2429,9.9361,-0.011,-0.0015,9.8066,0.0062,-0.0074,-0.007,-17.56,-41.44,4.31,88.26,-87.2,-20.52
53.051186,-1.756992,264.42,11.54,3,97.52,21 / 22,931514,2019-11-06 12:57:53:222,0.1893,-0.4924,9.8029,-0.0076,-0.0101,9.8066,0.0024,0.0163,-0.0167,-17.12,-42.06,4.06,90.55,-87.18,-19.49
53.051186,-1.756992,264.42,11.54,3,97.52,21 / 22,931615,2019-11-06 12:57:53:323,0.0362,-0.2915,9.643,-0.0047,0.0073,9.8066,-0.0111,0.0137,-0.0127,-17.44,-41.5,4.25,89.58,-87.05,-20.62
53.051186,-1.756992,264.42,11.54,3,97.52,21 / 22,931714,2019-11-06 12:57:53:422,0.3372,-0.4543,9.7979,-0.008,-0.003,9.8066,-0.0105,0.03,-0.022,-17.62,-41.62,3.63,89.25,-86.95,-20.24
53.051186,-1.756992,264.42,11.54,3,97.52,21 / 22,931814,2019-11-06 12:57:53:522,0.7743,-0.0121,9.9144,-0.0141,-0.0057,9.8066,0.0291,0.0439,-0.0328,-17.44,-41.62,4.5,93.63,-86.83,-20.28
53.051186,-1.756992,264.42,11.54,3,97.52,21 / 22,931915,2019-11-06 12:57:53:623,0.5706,-0.1563,9.77,0,0.003,9.8066,-0.018,0.0167,-0.0065,-16.75,-41.56,3.69,91.95,-86.84,-18.9
53.051186,-1.756992,264.42,11.54,3,97.52,21 / 22,932015,2019-11-06 12:57:53:723,0.9682,-0.3507,9.9756,-0.0068,-0.0024,9.8066,0.0474,0.029,-0.0079,-16.81,-41.62,3.44,89.27,-86.77,-18.64
53.051186,-1.756992,264.42,11.54,3,97.52,21 / 22,932114,2019-11-06 12:57:53:822,1.0319,-0.1791,9.7446,-0.0102,0.008,9.8066,-0.0122,-0.0142,0.016,-17.5,-41.62,4.13,92.16,-86.75,-18.93
53.051186,-1.756992,264.42,11.54,3,97.52,21 / 22,932214,2019-11-06 12:57:53:922,0.6793,-0.4397,9.7648,0.0003,0.0012,9.8065,0.0027,-0.0018,0.0093,-17.37,-42.25,4.63,96.07,-86.63,-18.28
53.051186,-1.756992,264.42,11.54,3,97.52,21 / 22,932315,2019-11-06 12:57:54:023,0.8171,-0.3352,9.856,0.0003,0.008,9.8066,0.0192,0.0486,-0.033,-17.19,-41.19,4.19,93.13,-86.6,-18.11
53.051186,-1.756992,264.42,11.54,3,97.52,21 / 22,932414,2019-11-06 12:57:54:122,0.7326,-0.4953,9.7751,-0.0073,-0.0048,9.8065,-0.0031,0.0161,-0.0047,-17.19,-41.81,4.19,93.74,-86.55,-17.8
53.051163,-1.756699,264.36,0,3,95.67,20 / 22,932514,2019-11-06 12:57:54:222,0.6083,-0.3619,9.8002,-0.0091,-0.0131,9.8066,0.0243,-0.0023,0.0156,-17.25,-41.69,4.31,94.47,-86.57,-17.03
53.051163,-1.756699,264.36,0,3,95.67,20 / 22,932615,2019-11-06 12:57:54:323,0.8445,-0.4113,9.7417,0.0054,0.0043,9.8066,0.0013,-0.0074,-0.0262,-17,-41.87,4.63,96.43,-86.56,-18.07
53.051163,-1.756699,264.36,0,3,95.67,20 / 22,932714,2019-11-06 12:57:54:422,0.8816,0.5411,9.5039,-0.0007,-0.0007,9.8066,-0.0083,0.0372,-0.0003,-17.31,-41.62,5.13,95.32,-86.5,-19.35
53.051163,-1.756699,264.36,0,3,95.67,20 / 22,932815,2019-11-06 12:57:54:523,0.3277,-0.0626,9.8998,-0.0027,0.014,9.8066,-0.0087,-0.0881,0.0272,-16.94,-41.62,4.63,95.37,-86.47,-19.37
53.051163,-1.756699,264.36,0,3,95.67,20 / 22,932914,2019-11-06 12:57:54:622,0.6368,0.6928,9.7574,-0.0033,-0.0093,9.8066,-0.0154,0.0815,-0.0437,-17.31,-42.31,4.31,92.7,-86.42,-19.17
53.051163,-1.756699,264.36,0,3,95.67,20 / 22,933014,2019-11-06 12:57:54:722,0.2686,-0.4288,9.8302,0.0012,0.0108,9.8066,-0.0091,-0.0287,0.0204,-17.12,-42.25,4.19,92.43,-86.39,-19.53
53.051163,-1.756699,264.36,0,3,95.67,20 / 22,933114,2019-11-06 12:57:54:822,1.4923,0.2905,10.4588,0.0433,0.0235,9.8065,-0.1083,-0.011,0.037,-17.31,-41.87,4.31,92.62,-86.36,-19.41
53.051163,-1.756699,264.36,0,3,95.67,20 / 22,933214,2019-11-06 12:57:54:922,0.4625,-0.6628,10.0275,-0.0035,0.0238,9.8066,-0.0069,-0.034,0.1406,-16.69,-42,4.19,94.36,-86.46,-17.41
53.051163,-1.756699,264.36,0,3,95.67,20 / 22,933314,2019-11-06 12:57:55:022,0.2797,0.3251,9.7678,-0.0033,-0.0121,9.8066,-0.0375,0.018,-0.0976,-17.5,-41.37,4.56,94.55,-86.41,-20.15
53.051163,-1.756699,264.36,0,3,95.67,20 / 22,933414,2019-11-06 12:57:55:122,0.1494,-0.9109,9.9646,0.0069,0.0132,9.8066,0.0393,-0.004,0.0872,-17.25,-41.44,4.5,96.54,-86.43,-18.07
53.051163,-1.756699,264.36,0,3,95.67,20 / 21,933514,2019-11-06 12:57:55:222,0.2802,0.0355,9.868,0.005,0.0017,9.8066,0.0043,-0.0704,0.0181,-16.75,-41.44,4.13,92.65,-86.46,-18.93
53.051163,-1.756699,264.36,0,3,95.67,20 / 21,933614,2019-11-06 12:57:55:322,0.3573,0.065,9.8661,-0.0054,-0.002,9.8066,-0.0195,-0.005,0.0385,-17.12,-41.25,4.69,95.68,-86.44,-18.93
53.051163,-1.756699,264.36,0,3,95.67,20 / 21,933714,2019-11-06 12:57:55:422,0.192,-0.0505,9.7459,0.0035,0.0069,9.8066,-0.0086,0.0469,0.0212,-17.56,-41.25,4.31,90.42,-86.41,-20.11
53.051163,-1.756699,264.36,0,3,95.67,20 / 21,933814,2019-11-06 12:57:55:522,-0.4067,-0.7011,9.509,-0.01,-0.0123,9.8066,-0.0383,-0.0126,0.0294,-16.87,-41,4.5,94.17,-86.38,-20.61
53.051163,-1.756699,264.36,0,3,95.67,20 / 21,933914,2019-11-06 12:57:55:622,-0.0246,-0.552,9.6868,0.011,0.0151,9.8066,-0.0125,-0.0606,0.0642,-17.19,-41.56,3.88,92.06,-86.39,-19.9
53.051163,-1.756699,264.36,0,3,95.67,20 / 21,934015,2019-11-06 12:57:55:723,0.0691,-0.491,9.9816,-0.0042,0.0037,9.8066,0.0136,-0.0397,0.0138,-17.12,-41.31,4.31,91.39,-86.38,-20.39
53.051163,-1.756699,264.36,0,3,95.67,20 / 21,934115,2019-11-06 12:57:55:823,0.3464,0.2248,9.8035,0.0014,0.007,9.8066,0.0124,-0.0289,0.0164,-17.44,-41.56,4.56,94.32,-86.4,-20.61
53.051163,-1.756699,264.36,0,3,95.67,20 / 21,934215,2019-11-06 12:57:55:923,0.4164,1.7119,9.2641,-0.0122,0.0025,9.8066,0.0902,0.0372,0.0493,-17.12,-41.44,4.69,94.8,-86.37,-20
53.051163,-1.756699,264.36,0,3,95.67,20 / 21,934315,2019-11-06 12:57:56:023,0.481,-0.9265,10.3269,0.0041,0.0052,9.8066,-0.0382,-0.1006,0.0055,-16.69,-41.12,4.81,93.22,-86.45,-21.41
53.051163,-1.756699,264.36,0,3,95.67,20 / 21,934415,2019-11-06 12:57:56:123,0.5118,-0.6687,9.8653,0.0016,-0.0018,9.8066,0.0227,0.0287,0.047,-16.87,-41,4.19,91.34,-86.42,-20.33
53.051163,-1.756699,264.36,0,3,95.67,21 / 21,934515,2019-11-06 12:57:56:223,0.4882,-0.4475,9.8375,0.0027,0.0002,9.8066,-0.0119,0.0064,-0.0308,-16.87,-41.62,4.63,93.67,-86.48,-21.08
53.051163,-1.756699,264.36,0,3,95.67,21 / 21,934614,2019-11-06 12:57:56:322,0.6381,-0.2257,9.8324,-0.0038,-0.004,9.8066,-0.0042,0.0421,0.0046,-17.12,-40.81,4.44,90.99,-86.48,-20.55
53.051163,-1.756699,264.36,0,3,95.67,21 / 21,934714,2019-11-06 12:57:56:422,0.5263,-0.3807,9.9903,0.0013,0.003,9.8066,0.0123,-0.0131,0.0172,-17.37,-41.56,4.5,93.87,-86.48,-20.89
53.051163,-1.756699,264.36,0,3,95.67,21 / 21,934814,2019-11-06 12:57:56:522,0.0785,-0.5748,9.6992,0.0064,-0.005,9.8066,-0.0278,-0.0081,0.0136,-16.62,-41,4.94,93.26,-86.54,-21.14
53.051163,-1.756699,264.36,0,3,95.67,21 / 21,934914,2019-11-06 12:57:56:622,0.2163,-0.7224,9.7705,0.0079,0.0117,9.8066,-0.0024,-0.0506,0.0685,-17.37,-41.62,4.25,91.01,-86.57,-20.51
53.051163,-1.756699,264.36,0,3,95.67,21 / 21,935014,2019-11-06 12:57:56:722,0.4855,-0.3334,9.9227,-0.0039,-0.004,9.8066,0.0189,-0.0347,-0.0207,-17.44,-41.31,4.06,89.7,-86.56,-21.66
53.051163,-1.756699,264.36,0,3,95.67,21 / 21,935114,2019-11-06 12:57:56:822,0.4192,0.2455,9.6842,-0.0005,0.008,9.8066,0.0184,-0.0476,0.0311,-16.31,-41.5,4.25,90.98,-86.59,-21.56
53.051163,-1.756699,264.36,0,3,95.67,21 / 21,935215,2019-11-06 12:57:56:923,0.2646,-0.571,9.8368,0.0032,0.0017,9.8066,-0.0029,-0.0341,0.0138,-17.19,-41.56,4.56,92.98,-86.61,-21.47
53.051163,-1.756699,264.36,0,3,95.67,21 / 21,935315,2019-11-06 12:57:57:023,1.0428,-0.7667,10.371,-0.0301,-0.0048,9.8065,0.1494,-0.0123,-0.0678,-17.37,-41.69,4.69,93.08,-86.73,-21.09
53.051163,-1.756699,264.36,0,3,95.67,21 / 21,935414,2019-11-06 12:57:57:122,0.3507,-0.248,9.7674,-0.0045,-0.0057,9.8066,0.0023,0.031,0.0279,-16.81,-41.37,4.25,89.63,-86.71,-21.36
53.051163,-1.756699,264.36,0,3,95.67,21 / 21,935514,2019-11-06 12:57:57:222,0.637,0.0549,9.8756,0.0023,0.0207,9.8066,-0.02,0.0027,0.0351,-17.25,-41.37,3.94,90.58,-86.72,-20.39
53.051163,-1.756699,264.36,0,3,95.67,21 / 21,935615,2019-11-06 12:57:57:323,0.4306,-0.4803,10.0314,-0.0085,-0.0056,9.8066,-0.0022,0.0219,-0.0127,-17.19,-41,4.31,90.74,-86.7,-20.29
53.051163,-1.756699,264.36,0,3,95.67,21 / 21,935715,2019-11-06 12:57:57:423,0.3886,-0.2994,9.7818,-0.0043,0.0041,9.8066,-0.0031,-0.0309,0.0451,-17.62,-41.44,4.19,89.28,-86.75,-20.5
53.051163,-1.756699,264.36,0,3,95.67,21 / 21,935814,2019-11-06 12:57:57:522,0.228,-0.1874,9.6577,0.0034,-0.0088,9.8066,-0.0277,-0.0408,0.0069,-16.81,-41.19,4.56,92.22,-86.74,-21.72
53.051163,-1.756699,264.36,0,3,95.67,21 / 21,935914,2019-11-06 12:57:57:622,0.459,-0.8531,10.1201,0.0001,0.0028,9.8066,0.0147,-0.0397,0.0501,-17.12,-41.44,4.56,91.95,-86.72,-22.05
53.051163,-1.756699,264.36,0,3,95.67,21 / 21,936014,2019-11-06 12:57:57:722,0.3525,0.0816,9.6516,0.0077,-0.0052,9.8066,-0.0278,0.0044,-0.0194,-17,-41.75,4,88.28,-86.73,-22.87
53.051163,-1.756699,264.36,0,3,95.67,21 / 21,936114,2019-11-06 12:57:57:822,0.3707,0.0248,9.7503,0.004,0.0014,9.8066,0.0039,-0.0518,0.0169,-16.81,-41.19,4.38,88.44,-86.75,-22.46
53.051163,-1.756699,264.36,0,3,95.67,21 / 21,936214,2019-11-06 12:57:57:922,0.3142,-0.0932,9.6744,-0.0011,0.0016,9.8066,0.0035,-0.0141,0.0124,-17.12,-41.44,4.25,87.87,-86.78,-22.96
53.051163,-1.756699,264.36,0,3,95.67,21 / 21,936314,2019-11-06 12:57:58:022,0.512,-0.0767,9.7995,-0.0009,-0.0122,9.8066,0.0184,-0.0336,-0.0169,-17.25,-41.44,4.19,88.82,-86.79,-21.97
53.051163,-1.756699,264.36,0,3,95.67,21 / 21,936415,2019-11-06 12:57:58:123,0.5889,-0.2404,9.8783,0.0134,0.0194,9.8065,-0.0187,0.0088,0.0188,-16.87,-41.5,4.06,88.54,-86.94,-21.9
53.051163,-1.756699,264.36,0,3,95.67,20 / 21,936515,2019-11-06 12:57:58:223,0.4149,-0.3417,10.028,0.0057,0.0087,9.8066,0.0309,-0.0583,0.0351,-16.81,-41.75,4.69,91.98,-86.83,-21.94
53.051163,-1.756699,264.36,0,3,95.67,20 / 21,936615,2019-11-06 12:57:58:323,0.5261,-0.0216,9.7835,0.007,-0.0085,9.8066,0.0001,-0.0332,-0.0159,-16.94,-42,3.81,87.56,-86.94,-23.07
53.051163,-1.756699,264.36,0,3,95.67,20 / 21,936714,2019-11-06 12:57:58:422,0.4711,0.295,9.7399,0.0075,0.0103,9.8065,0.0069,-0.0503,0.0767,-17,-41.31,4.5,89.61,-86.95,-23.85
53.051163,-1.756699,264.36,0,3,95.67,20 / 21,936814,2019-11-06 12:57:58:522,0.6122,0.2748,9.7669,-0.0034,-0.0095,9.8066,0.0045,-0.002,-0.0409,-16.75,-41.75,4.88,88.3,-86.96,-25.32
53.051163,-1.756699,264.36,0,3,95.67,20 / 21,936914,2019-11-06 12:57:58:622,0.3004,-0.1104,9.7788,0.0018,0.0084,9.8066,0.0178,-0.069,0.0524,-17.31,-41.37,4.5,88.01,-87,-25.35
53.051163,-1.756699,264.36,0,3,95.67,20 / 21,937014,2019-11-06 12:57:58:722,0.0544,-0.7646,9.8785,0.0028,-0.0012,9.8066,-0.0054,-0.02,0.0047,-16.69,-41.81,3.94,84.58,-87.03,-25.8
53.051163,-1.756699,264.36,0,3,95.67,20 / 21,937114,2019-11-06 12:57:58:822,0.7325,0.417,9.8713,0.0006,-0.0094,9.8066,0.0101,-0.001,-0.0538,-17.25,-41.31,4.06,85.57,-87.15,-24.36
53.051163,-1.756699,264.36,0,3,95.67,20 / 21,937214,2019-11-06 12:57:58:922,0.0752,-1.1934,10.0646,0.0128,0.0202,9.8066,0.0111,-0.092,0.0944,-17.56,-40.94,4.81,88.04,-87.26,-23.51
53.051163,-1.756699,264.36,0,3,95.67,20 / 21,937315,2019-11-06 12:57:59:023,0.5775,0.1877,9.8029,0.0002,0.0052,9.8066,-0.0068,-0.0274,0.0294,-17.25,-41.25,4.69,87.37,-87.22,-25.45
53.051163,-1.756699,264.36,0,3,95.67,20 / 21,937415,2019-11-06 12:57:59:123,0.0737,0.0513,9.5552,0.0025,0.0029,9.8066,-0.0416,-0.0011,0.007,-16.94,-41.62,3.94,83.93,-87.21,-26.01
53.051163,-1.756699,264.36,0,3,95.67,21 / 21,937515,2019-11-06 12:57:59:223,0.5866,0.5876,9.6822,-0.0057,0.0079,9.8066,0.0431,-0.0683,-0.006,-16.94,-41.62,4.69,85.03,-87.28,-27.8
53.051163,-1.756699,264.36,0,3,95.67,21 / 21,937615,2019-11-06 12:57:59:323,-0.076,-0.8061,9.7682,0.0083,0.0149,9.8066,-0.0218,-0.1116,0.0769,-16.94,-41.87,4.5,85.75,-87.32,-26.98
53.051163,-1.756699,264.36,0,3,95.67,21 / 21,937715,2019-11-06 12:57:59:423,0.4662,0.3737,9.6338,0.0088,0.0073,9.8066,-0.0233,-0.0021,0.0146,-16.75,-41.81,4.63,84.59,-87.29,-28.21
53.051163,-1.756699,264.36,0,3,95.67,21 / 21,937815,2019-11-06 12:57:59:523,0.1432,-0.3281,9.9123,0.0005,0.0132,9.8065,-0.0112,0.0499,-0.0284,-16.69,-41.06,4.56,85.29,-87.34,-27.25
53.051163,-1.756699,264.36,0,3,95.67,21 / 21,937914,2019-11-06 12:57:59:622,0.7995,0.6367,9.6883,0.0061,0.0144,9.8066,0.0226,-0.0947,0.0663,-16.94,-41.25,3.38,80.07,-87.42,-26
53.051163,-1.756699,264.36,0,3,95.67,21 / 21,938014,2019-11-06 12:57:59:722,0.4432,0.143,9.7739,0.0005,0.0007,9.8066,-0.0138,0.0176,-0.0114,-17.19,-41,4.38,82.11,-87.43,-27.14
53.051163,-1.756699,264.36,0,3,95.67,21 / 21,938114,2019-11-06 12:57:59:822,0.4076,-0.3873,9.726,-0.0017,0.0028,9.8066,0.0271,-0.0081,0.0113,-17.19,-41.06,4.44,81.72,-87.42,-27.54
53.051163,-1.756699,264.36,0,3,95.67,21 / 21,938214,2019-11-06 12:57:59:922,0.6853,-0.1016,9.8287,0.0045,-0.0061,9.8066,-0.0035,0.0318,-0.0137,-17.06,-41,4.44,80.42,-87.48,-28.67
53.051163,-1.756699,264.36,0,3,95.67,21 / 21,938314,2019-11-06 12:58:00:022,0.5857,-0.244,9.8849,-0.0004,0.003,9.8066,-0.0176,-0.028,0.0048,-17.37,-41.87,4.63,82.97,-87.51,-29.31
53.051163,-1.756699,264.36,0,3,95.67,21 / 21,938415,2019-11-06 12:58:00:123,0.134,-0.7873,9.7639,0.0119,-0.0014,9.8066,0.0224,-0.1295,0.0659,-17.19,-41.44,4.69,82.38,-87.54,-29.67
53.051163,-1.756699,264.36,0,3,95.67,21 / 21,938515,2019-11-06 12:58:00:223,1.0707,0.4934,9.8179,0.0066,0.008,9.8065,-0.02,-0.0148,0.0362,-17.19,-40.94,5.13,81.53,-87.58,-30.42
53.051163,-1.756699,264.36,0,3,95.67,21 / 21,938615,2019-11-06 12:58:00:323,0.4199,-0.4973,9.8214,0.0014,0.008,9.8066,0.0134,-0.087,0.033,-16.94,-41.69,4.38,77.68,-87.55,-31.34
53.051163,-1.756699,264.36,0,3,95.67,21 / 21,938714,2019-11-06 12:58:00:422,0.3289,0.4691,9.8198,-0.002,-0.0008,9.8066,-0.0037,0.0232,-0.0187,-17.5,-41.12,4.56,79.62,-87.57,-32.32
53.051163,-1.756699,264.36,0,3,95.67,21 / 21,938814,2019-11-06 12:58:00:522,-0.1158,-0.2997,9.8177,0.0006,0.0099,9.8066,0.0025,-0.044,0.0121,-17.56,-41.44,4.38,75.63,-87.57,-32.17
53.051163,-1.756699,264.36,0,3,95.67,21 / 21,938914,2019-11-06 12:58:00:622,0.6198,-0.2694,10.1895,0.0101,-0.0125,9.8066,-0.0123,-0.0484,0.0107,-16.94,-41.5,4.56,80,-87.56,-31.96
53.051163,-1.756699,264.36,0,3,95.67,21 / 21,939014,2019-11-06 12:58:00:722,-0.0889,0.963,9.5948,0.0032,0.0046,9.8065,0.0303,0.063,-0.0162,-16.87,-41.5,4.56,75.74,-87.69,-35.85
53.051163,-1.756699,264.36,0,3,95.67,21 / 21,939114,2019-11-06 12:58:00:822,-0.2198,-0.5642,9.9105,-0.0081,-0.0153,9.8066,-0.0305,-0.0106,-0.0629,-17,-41.81,4.31,72.07,-87.69,-36.47
53.051163,-1.756699,264.36,0,3,95.67,21 / 21,939215,2019-11-06 12:58:00:923,0.0006,0.1208,9.9652,-0.0007,-0.0061,9.8066,-0.0191,0.0928,-0.0259,-16.5,-41.19,4.44,73.49,-87.67,-36.12
53.051163,-1.756699,264.36,0,3,95.67,21 / 21,939315,2019-11-06 12:58:01:023,-0.6836,0.7197,9.0988,-0.0142,0.0132,9.8066,-0.0349,-0.0142,0.0236,-16.25,-41.31,4.94,79.59,-87.67,-33.4
53.051163,-1.756699,264.36,0,3,95.67,21 / 21,939414,2019-11-06 12:58:01:122,0.6362,0.2463,9.881,-0.0092,0.0107,9.8066,0.0545,0.0212,-0.0508,-16.56,-41.25,4.56,78.07,-87.58,-33.82
53.051163,-1.756699,264.36,0,3,95.67,21 / 21,939514,2019-11-06 12:58:01:222,0.0958,-1.6377,9.9713,-0.0059,-0.0342,9.8065,0.0046,0.1143,-0.16,-16.69,-41.5,3.94,76.1,-87.72,-32.35
53.051163,-1.756699,264.36,0,3,95.67,21 / 21,939614,2019-11-06 12:58:01:322,0.1617,-0.0159,9.7238,0.0083,0.0032,9.8066,-0.0127,0.1014,0.0258,-17.06,-41.25,4.19,72.85,-87.72,-35.53
53.051163,-1.756699,264.36,0,3,95.67,21 / 21,939714,2019-11-06 12:58:01:422,0.6586,-2.741,11.407,0.0972,-0.0614,9.8059,-0.1852,0.0015,0.0079,-17.06,-41.25,3.81,67.88,-87.88,-39.98
53.051163,-1.756699,264.36,0,3,95.67,21 / 21,939814,2019-11-06 12:58:01:522,0.4227,0.5716,9.8359,0.0033,-0.0209,9.8066,0.076,0.1592,-0.1155,-16.94,-41.44,4.75,71.98,-87.66,-39.58
53.051163,-1.756699,264.36,0,3,95.67,21 / 21,939914,2019-11-06 12:58:01:622,0.4273,-0.0116,9.7806,-0.0159,-0.0209,9.8065,0.0073,0.0224,-0.1212,-17.56,-40.81,4.38,68.55,-87.93,-38.29
53.051163,-1.756699,264.36,0,3,95.67,21 / 21,940014,2019-11-06 12:58:01:722,-0.0151,-0.3497,9.7896,0.0016,0.0009,9.8066,-0.0359,0.0168,0.0386,-17.06,-41,4.75,72.92,-87.88,-38.18
53.051163,-1.756699,264.36,0,3,95.67,21 / 21,940114,2019-11-06 12:58:01:822,0.3114,-0.1488,10.0771,-0.0044,0.006,9.8066,-0.0453,-0.0052,0.007,-17.31,-41.5,4.19,71.98,-87.76,-36.28
53.051163,-1.756699,264.36,0,3,95.67,21 / 21,940215,2019-11-06 12:58:01:923,0.7077,0.4041,9.782,0.0005,-0.0123,9.8066,0.0468,0.0408,-0.0262,-17.19,-40.81,4.81,74.28,-87.69,-37.28
53.051163,-1.756699,264.36,0,3,95.67,21 / 21,940315,2019-11-06 12:58:02:023,0.3249,-0.0215,9.9388,-0.0028,0.0144,9.8066,0.025,-0.0831,0.0442,-17,-41,4.56,75.59,-87.76,-35.84
53.051163,-1.756699,264.36,0,3,95.67,21 / 21,940417,2019-11-06 12:58:02:125,-0.0163,-0.8114,9.8868,0.0042,0.0024,9.8066,-0.0063,-0.0401,0.043,-17.44,-41.25,4.94,75.1,-87.76,-36.3
53.051163,-1.756699,264.36,0,3,95.67,21 / 22,940514,2019-11-06 12:58:02:222,0.0725,-0.2835,9.7304,0.0072,0.0134,9.8066,-0.0179,-0.0548,0.0572,-17.19,-41.31,4.5,74.23,-87.73,-37.24
53.051163,-1.756699,264.36,0,3,95.67,21 / 22,940614,2019-11-06 12:58:02:322,0.0954,-0.7082,9.9966,-0.003,0.0057,9.8066,0.0215,-0.0815,0.024,-17,-40.94,4.5,75.41,-87.74,-36.05
53.051163,-1.756699,264.36,0,3,95.67,21 / 22,940714,2019-11-06 12:58:02:422,0.4581,0.2789,9.8021,0.0014,0.0081,9.8066,0.0077,-0.0356,0.0212,-17.44,-41.06,4.38,71.41,-87.75,-36.85
53.051163,-1.756699,264.36,0,3,95.67,21 / 22,940814,2019-11-06 12:58:02:522,-0.0055,-0.6051,9.8682,0.0049,0.0099,9.8066,-0.0003,-0.063,0.0396,-16.69,-41.56,4.31,72.04,-87.8,-36.25
53.051163,-1.756699,264.36,0,3,95.67,21 / 22,940914,2019-11-06 12:58:02:622,0.4156,0.3075,9.8219,0.0028,0.0005,9.8066,-0.0074,0.0354,-0.0067,-17.56,-41.31,4.63,73.22,-87.82,-36.91
53.051163,-1.756699,264.36,0,3,95.67,21 / 22,941014,2019-11-06 12:58:02:722,0.3671,-0.1069,9.9373,0.0017,0.0085,9.8066,0.015,-0.0349,0.0238,-16.75,-41.12,4.38,71.58,-87.82,-36.54
53.051163,-1.756699,264.36,0,3,95.67,21 / 22,941114,2019-11-06 12:58:02:822,0.2706,0.3265,9.811,0,-0.0082,9.8066,-0.008,0.0391,-0.0463,-17.44,-41.19,4.31,71.03,-87.84,-37.02
53.051163,-1.756699,264.36,0,3,95.67,21 / 22,941214,2019-11-06 12:58:02:922,0.1779,-0.1671,9.8423,0.0022,0.0031,9.8066,-0.0034,0.0033,0.0073,-17,-40.5,4.69,73.41,-87.85,-37.64
53.051163,-1.756699,264.36,0,3,95.67,21 / 22,941314,2019-11-06 12:58:03:022,0.2102,-0.5686,10.0034,0.0018,-0.0077,9.8066,-0.0124,0.037,-0.0309,-17.25,-41.06,5,73.24,-87.85,-37.94
53.051163,-1.756699,264.36,0,3,95.67,21 / 22,941414,2019-11-06 12:58:03:122,0.0671,-0.2978,9.8505,0.0009,0.0005,9.8066,-0.0024,0.0329,0.0081,-16.94,-41.12,3.63,69.37,-87.87,-38.56
53.051163,-1.756699,264.36,0,3,95.67,21 / 22,941514,2019-11-06 12:58:03:222,0.1774,-0.3462,9.9066,0.0028,-0.0042,9.8066,-0.006,0.05,-0.0174,-17.5,-41.75,3.94,68.3,-87.89,-39.68
53.051163,-1.756699,264.36,0,3,95.67,21 / 22,941614,2019-11-06 12:58:03:322,0.3918,0.0364,9.9285,0.0008,-0.0034,9.8066,0.0108,0.0408,-0.0038,-16.87,-41.25,4.25,68.41,-87.91,-39.41
53.051163,-1.756699,264.36,0,3,95.67,21 / 22,941714,2019-11-06 12:58:03:422,0.1751,-0.3184,9.8789,0.0003,-0.0051,9.8066,0.0025,0.0105,-0.0143,-17,-41.12,4.31,67.7,-87.93,-40.05
53.051163,-1.756699,264.36,0,3,95.67,21 / 22,941814,2019-11-06 12:58:03:522,0.2082,0.1283,9.831,-0.0013,-0.0067,9.8066,0.0054,0.0184,-0.0272,-16.87,-40.87,4.31,66.52,-87.94,-41.19
53.051163,-1.756699,264.36,0,3,95.67,21 / 22,941915,2019-11-06 12:58:03:623,0.2786,-0.2026,9.9576,0.0011,0.0012,9.8066,-0.0106,-0.0213,0.002,-17.69,-41.12,4,65.03,-87.95,-41.64
53.051163,-1.756699,264.36,0,3,95.67,21 / 22,942014,2019-11-06 12:58:03:722,0.4144,-0.0032,9.9213,0.0001,-0.0052,9.8066,-0.0051,0.0042,-0.0199,-17.37,-41.31,4.19,65.78,-87.97,-41.83
53.051163,-1.756699,264.36,0,3,95.67,21 / 22,942114,2019-11-06 12:58:03:822,0.1316,-0.2583,9.8454,0.0009,0.0029,9.8066,0.0002,-0.0208,0.0168,-16.56,-41.44,4.25,65.38,-87.98,-42.18
53.051163,-1.756699,264.36,0,3,95.67,21 / 22,942214,2019-11-06 12:58:03:922,0.0093,-0.1285,9.8661,0,-0.0057,9.8066,-0.0045,0.0098,-0.0135,-17,-40.94,4.06,64.88,-87.99,-42.65
53.051163,-1.756699,264.36,0,3,95.67,21 / 22,942315,2019-11-06 12:58:04:023,0.2009,0.6407,9.7468,-0.0086,0.0227,9.8065,0.0289,0.0371,-0.0162,-17.75,-41.5,4.25,63.32,-88.01,-43.18
53.051163,-1.756699,264.36,0,3,95.67,21 / 22,942415,2019-11-06 12:58:04:123,0.1588,-0.3438,9.9128,-0.0032,-0.007,9.8066,-0.0032,-0.0143,-0.0109,-17.12,-41.81,4.19,64.79,-88.05,-42.7
53.051163,-1.756699,264.36,0,3,95.67,20 / 22,942515,2019-11-06 12:58:04:223,0.1589,-0.0885,9.7746,0.0013,0.0042,9.8066,0.0023,0.0786,-0.0136,-16.56,-41.37,4.31,65.51,-88.14,-41.71
53.051163,-1.756699,264.36,0,3,95.67,20 / 22,942615,2019-11-06 12:58:04:323,0.0646,-0.2529,9.8817,0.0041,-0.0006,9.8066,-0.0294,0.0127,0.0212,-17.25,-41.37,4.44,65.57,-88.18,-41.58
53.051163,-1.756699,264.36,0,3,95.67,20 / 22,942714,2019-11-06 12:58:04:422,0.0871,0.0986,9.7215,0.0025,-0.0018,9.8066,-0.0065,-0.0026,0.0117,-16.75,-41.25,4,65.82,-88.12,-41.45
53.051163,-1.756699,264.36,0,3,95.67,20 / 22,942814,2019-11-06 12:58:04:522,-0.0293,-1.243,9.9803,0.0031,0.0116,9.8066,0.0132,-0.1256,0.1008,-17.31,-41.69,4.13,65.56,-88.19,-41.66
53.051163,-1.756699,264.36,0,3,95.67,20 / 22,942914,2019-11-06 12:58:04:622,0.242,0.0757,9.8288,-0.0064,-0.0034,9.8066,-0.0159,-0.0095,0.0153,-17,-41.62,4.5,67.36,-88.12,-43.16
53.051163,-1.756699,264.36,0,3,95.67,20 / 22,943014,2019-11-06 12:58:04:722,-0.0201,-1.1002,10.0213,0.0025,0.0217,9.8065,0.0234,-0.1059,0.105,-17,-41.12,3.88,65.05,-88.07,-42.31
53.051163,-1.756699,264.36,0,3,95.67,20 / 22,943114,2019-11-06 12:58:04:822,0.345,0.5524,9.8065,0,0.0002,9.8066,0.0057,0.0841,-0.0237,-17,-41.06,3.81,62.95,-88.04,-44.39
53.051163,-1.756699,264.36,0,3,95.67,20 / 22,943214,2019-11-06 12:58:04:922,0.31,0.2321,9.8585,0.0031,0.0108,9.8066,0.0093,-0.04,0.0451,-16.94,-41.62,3.94,63.7,-88.08,-43.71
53.051163,-1.756699,264.36,0,3,95.67,20 / 22,943314,2019-11-06 12:58:05:022,0.591,0.5367,9.9523,0.0003,-0.0054,9.8066,0.0042,0.112,-0.0315,-17.19,-41.44,4.44,62.84,-88.08,-44.43
53.051163,-1.756699,264.36,0,3,95.67,20 / 22,943415,2019-11-06 12:58:05:123,0.1266,-0.0742,9.8235,0.0035,0.0031,9.8066,-0.0068,0.0045,-0.0103,-17.31,-41,4.13,62.68,-88.09,-44.57
53.051163,-1.756699,264.36,0,3,95.67,21 / 22,943514,2019-11-06 12:58:05:222,-0.2636,-0.7909,9.7581,-0.0039,-0.0129,9.8066,0.0193,0.0952,-0.0491,-17.44,-41.19,3.88,61.74,-88.05,-45.56
53.051163,-1.756699,264.36,0,3,95.67,21 / 22,943615,2019-11-06 12:58:05:323,0.0826,-0.3474,9.9393,0.0024,-0.0065,9.8066,-0.0181,0.048,-0.0568,-17.31,-41.62,4.13,61.71,-88.08,-45.6
53.051163,-1.756699,264.36,0,3,95.67,21 / 22,943715,2019-11-06 12:58:05:423,0.0157,-0.5879,9.8906,-0.0012,-0.0107,9.8065,-0.0005,0.0456,-0.0322,-17.19,-41.5,4.63,66.1,-88.1,-44.31
53.051163,-1.756699,264.36,0,3,95.67,21 / 22,943814,2019-11-06 12:58:05:522,0.2007,0.4316,9.7303,-0.0004,-0.0101,9.8066,-0.0179,0.0532,-0.0636,-17,-41.06,3.94,60.98,-88.08,-46.23
53.051163,-1.756699,264.36,0,3,95.67,21 / 22,943914,2019-11-06 12:58:05:622,-0.1028,-0.3449,9.8218,-0.0013,-0.0069,9.8066,-0.0035,0.0029,-0.0221,-17.31,-41.37,4.25,62.17,-88.11,-45.01
53.051163,-1.756699,264.36,0,3,95.67,21 / 22,944014,2019-11-06 12:58:05:722,0.2775,0.4127,9.7873,-0.0002,-0.0091,9.8066,-0.0218,0.0681,-0.04,-17.19,-41.81,4.25,60.7,-88.1,-46.53
53.051163,-1.756699,264.36,0,3,95.67,21 / 22,944114,2019-11-06 12:58:05:822,0.295,-0.2721,9.9409,0.0025,-0.0042,9.8066,-0.0153,-0.0088,0.0071,-16.56,-41.5,3.81,60.53,-88.11,-46.58
53.051163,-1.756699,264.36,0,3,95.67,21 / 22,944214,2019-11-06 12:58:05:922,0.0942,0.4162,9.6757,-0.0004,-0.0063,9.8066,0.0015,0.0537,-0.0129,-17.81,-41.44,4,59.26,-88.12,-46.88
53.051163,-1.756699,264.36,0,3,95.67,21 / 22,944314,2019-11-06 12:58:06:022,0.1274,-0.2486,9.922,0.001,0.0013,9.8066,-0.0099,-0.0095,0.0097,-16.75,-41,4.19,60.36,-88.13,-46.71
53.051163,-1.756699,264.36,0,3,95.67,21 / 22,944414,2019-11-06 12:58:06:122,0.229,-0.4709,10.0212,-0.0003,-0.0015,9.8066,0.0173,0.0267,0.0157,-17.06,-41.12,4.06,60.55,-88.13,-46.52
53.051163,-1.756699,264.36,0,3,95.67,20 / 21,944514,2019-11-06 12:58:06:222,0.1055,-0.3207,9.8459,0.0005,0.0028,9.8066,-0.0006,-0.045,0.0027,-17.12,-41.25,3.88,59.66,-88.13,-47.38
53.051163,-1.756699,264.36,0,3,95.67,20 / 21,944614,2019-11-06 12:58:06:322,0.0761,-0.2786,9.9262,-0.001,0.0002,9.8066,0.0197,-0.026,0.0149,-17.44,-41.56,4.81,63.5,-88.14,-46.85
53.051163,-1.756699,264.36,0,3,95.67,20 / 21,944714,2019-11-06 12:58:06:422,0.3102,0.1445,9.9498,0.0024,0.0073,9.8066,-0.0142,-0.0506,0.0121,-17.31,-41.37,4.38,59.81,-88.17,-47.17
53.051163,-1.756699,264.36,0,3,95.67,20 / 21,944814,2019-11-06 12:58:06:522,0.2254,-0.249,9.9726,0.0005,0.0043,9.8066,0.0064,-0.0497,0.0191,-16.94,-41.62,4.56,63.52,-88.16,-46.79
53.051163,-1.756699,264.36,0,3,95.67,20 / 21,944914,2019-11-06 12:58:06:622,0.1974,0.0675,9.8396,0.0007,0.0058,9.8066,-0.0033,-0.0146,0.0152,-17.37,-40.44,4.44,59.18,-88.15,-47.72
53.051163,-1.756699,264.36,0,3,95.67,20 / 21,945014,2019-11-06 12:58:06:722,0.0017,-0.1632,9.8422,0.0009,0.0028,9.8066,0.0009,-0.0302,0.0118,-16.87,-41.31,4.5,63.24,-88.17,-46.93
53.051163,-1.756699,264.36,0,3,95.67,20 / 21,945114,2019-11-06 12:58:06:822,0.2599,-0.1378,9.913,0.0009,0.0047,9.8065,0.0047,0.0117,0.0279,-17.62,-41,4.06,58.43,-88.18,-47.56
53.051163,-1.756699,264.36,0,3,95.67,20 / 21,945214,2019-11-06 12:58:06:922,0.1089,-0.5861,10.1064,-0.0006,0.0095,9.8066,0.0086,-0.0291,0.039,-16.94,-41.44,4.5,64.05,-88.21,-46.07
53.051163,-1.756699,264.36,0,3,95.67,20 / 21,945315,2019-11-06 12:58:07:023,0.0237,0.1055,9.8053,-0.0017,0.0003,9.8066,0.0252,0.0712,-0.0046,-15.94,-40.94,4.25,61.08,-88.2,-46.9
53.051163,-1.756699,264.36,0,3,95.67,20 / 21,945414,2019-11-06 12:58:07:122,0.1905,-0.0397,9.8477,0.0016,0.0002,9.8066,-0.0021,0.0052,0.0111,-17.44,-41.62,4.38,59.7,-88.22,-47.25
53.051163,-1.756699,264.36,0,3,95.67,20 / 21,945514,2019-11-06 12:58:07:222,0.2591,-0.2036,9.8651,0.0015,0.002,9.8066,0.0038,-0.0031,0.0107,-17.56,-41.12,4.25,58.1,-88.21,-47.82
53.051163,-1.756699,264.36,0,3,95.67,20 / 21,945614,2019-11-06 12:58:07:322,-0.0223,-0.07,9.8366,0.0005,0.0004,9.8066,0.0065,-0.0121,-0.0037,-16.94,-41.62,4.69,62.42,-88.22,-47.72
53.051163,-1.756699,264.36,0,3,95.67,20 / 21,945714,2019-11-06 12:58:07:422,-0.0013,-0.0374,9.8423,-0.0007,0.0033,9.8066,0.0153,-0.0123,-0.0113,-17.19,-40.75,4.44,59.26,-88.22,-47.59
53.051163,-1.756699,264.36,0,3,95.67,20 / 21,945814,2019-11-06 12:58:07:522,0.0808,-0.1712,9.8994,0.007,0.0026,9.8066,0.0094,-0.0481,0.0045,-17.06,-41.25,4.06,57.9,-88.27,-48.79
53.051163,-1.756699,264.36,0,3,95.67,20 / 21,945914,2019-11-06 12:58:07:622,0.1684,-0.023,9.8123,0.0069,0.0036,9.8066,-0.0085,-0.0534,0.0224,-17.19,-40.75,4.13,57.21,-88.25,-49.5
53.051163,-1.756699,264.36,0,3,95.67,20 / 21,946014,2019-11-06 12:58:07:722,0.1943,-0.1574,9.9359,-0.0012,0.0039,9.8066,0.024,-0.0406,-0.0203,-17.44,-41.06,4.38,57.48,-88.27,-49.21
53.051163,-1.756699,264.36,0,3,95.67,20 / 21,946115,2019-11-06 12:58:07:823,0.0121,0.06,9.7301,0.0005,-0.002,9.8066,-0.0173,-0.0019,-0.0152,-17.31,-41.62,4,57.56,-88.3,-49.15
53.051163,-1.756699,264.36,0,3,95.67,20 / 21,946214,2019-11-06 12:58:07:922,0.1967,-0.2733,9.9517,-0.001,0.0026,9.8066,0.0041,-0.0255,-0.0059,-17.12,-40.87,3.75,57.63,-88.29,-49.01
53.051163,-1.756699,264.36,0,3,95.67,20 / 21,946314,2019-11-06 12:58:08:022,0.2483,-0.2024,9.9786,0.0028,0.0007,9.8066,-0.0034,-0.0035,-0.0147,-17.87,-41.19,4.06,57.26,-88.29,-48.48
53.051163,-1.756699,264.36,0,3,95.67,20 / 21,946414,2019-11-06 12:58:08:122,0.189,-0.1913,9.94,-0.0073,0.0026,9.8066,0.0013,-0.0071,0.0139,-17.19,-41.31,3.94,59.46,-88.26,-47.32
53.051163,-1.756699,264.36,0,3,95.67,20 / 20,946515,2019-11-06 12:58:08:223,0.1179,-0.2062,10.057,-0.0008,0.0033,9.8066,0.0028,-0.0113,-0.0037,-17.5,-41.44,4.31,55.39,-88.29,-51.17
53.051163,-1.756699,264.36,0,3,95.67,20 / 20,946614,2019-11-06 12:58:08:322,-0.1074,-0.3533,9.7652,0.0037,0.0031,9.8066,-0.0083,0.0089,0.0462,-17.06,-41.37,4.19,56.67,-88.32,-49.87
53.051163,-1.756699,264.36,0,3,95.67,20 / 20,946714,2019-11-06 12:58:08:422,0.1576,-0.2865,9.9685,0.0002,0.0069,9.8066,0.0159,0.0043,0.0302,-17.12,-41.37,4.25,55.64,-88.28,-50.95
53.051163,-1.756699,264.36,0,3,95.67,20 / 20,946814,2019-11-06 12:58:08:522,0.0388,-0.2916,9.9246,-0.0007,-0.001,9.8066,0.0098,-0.0171,0.0056,-16.81,-41.37,4.38,56.45,-88.3,-50.13
53.051163,-1.756699,264.36,0,3,95.67,20 / 20,946915,2019-11-06 12:58:08:623,0.1888,0.2014,9.7406,0.0002,0.0048,9.8066,0.0417,-0.026,0.0198,-17.12,-41.19,4,56.94,-88.32,-49.61
53.051163,-1.756699,264.36,0,3,95.67,20 / 20,947015,2019-11-06 12:58:08:723,-0.0709,-0.1901,9.7955,0.0041,0.0013,9.8066,-0.0184,-0.0334,-0.0067,-16.94,-41.31,4,54.88,-88.35,-51.55
