GPS LATITUDE (degrees), GPS LONGITUDE (degrees), GPS ALTITUDE (m), GPS SPEED (Kmh), GPS ACCURACY (m), GPS ORIENTATION (Â°),GPS SATELLITES IN RANGE, TIME SINCE START (ms), DATE (YYYY-MO-DD HH-MI-SS_SSS), ACCELEROMETER X (m/s²) , ACCELEROMETER Y (m/s²), ACCELEROMETER Z (m/s²), GRAVITY X (m/s²), GRAVITY Y (m/s²), GRAVITY Z (m/s²), GYROSCOPE Yaw (rad/s), GYROSCOPE Pitch (rad/s), GYROSCOPE Roll (rad/s), MAGNETIC FIELD X (Î¼T), MAGNETIC FIELD Y (Î¼T), MAGNETIC FIELD Z (Î¼T), ORIENTATION (Yaw) (Â°), ORIENTATION (Pitch) (Â°), ORIENTATION (Roll ) (Â°)
52.892147,-1.7711,134.07,26.74,4,291.52,23 / 24,1118512,2019-11-06 12:04:32:393,-0.292,-1.2352,8.8173,-0.071,-0.038,9.8063,0.1227,-0.5398,0.3489,-1.69,-37.37,8.31,305.76,-88.63,144.8
52.892147,-1.7711,134.07,26.74,4,291.52,23 / 24,1118611,2019-11-06 12:04:32:492,4.957,0.4908,8.6525,0.0704,0.0197,9.8064,0.1328,-0.289,0.1603,-1.31,-37.19,8.13,300.32,-88.71,132.59
52.892147,-1.7711,134.07,26.74,4,291.52,23 / 24,1118713,2019-11-06 12:04:32:594,-1.5682,-2.0175,10.3662,0.0705,0.0283,9.8063,-0.1427,0.5255,-0.2925,-1.5,-36.5,8,290.44,-88.3,124.7
52.892147,-1.7711,134.07,26.74,4,291.52,23 / 24,1118812,2019-11-06 12:04:32:693,5.3652,0.9451,8.2113,0.0266,0.0296,9.8065,-0.0146,-0.0366,0.0294,-1.25,-37,8.13,286.9,-88.38,121.15
52.892147,-1.7711,134.07,26.74,4,291.52,23 / 24,1118911,2019-11-06 12:04:32:792,-1.4011,-0.3672,8.9694,0.0658,0.054,9.8062,-0.1474,0.6594,-0.2587,-1.31,-37.31,8.13,280.28,-88.46,114.4
52.892147,-1.7711,134.07,26.74,4,291.52,23 / 24,1119012,2019-11-06 12:04:32:893,5.2544,2.0752,8.9064,-0.0396,-0.0017,9.8065,-0.0329,0.3026,-0.2415,-1.12,-37.37,7.63,284.42,-88.85,116.66
52.892147,-1.7711,134.07,26.74,4,291.52,23 / 24,1119112,2019-11-06 12:04:32:993,-1.0591,-1.1539,10.3679,0.0378,0.0328,9.8064,-0.1111,0.4298,-0.1682,-1.19,-37.5,8.31,280.1,-88.8,112.66
52.892147,-1.7711,134.07,26.74,4,291.52,23 / 24,1119212,2019-11-06 12:04:33:093,3.4991,0.7619,9.1517,-0.0509,-0.001,9.8065,-0.076,0.4221,-0.3077,-1.12,-37.37,8.44,286.45,-88.92,118.32
52.892147,-1.7711,134.07,26.74,4,291.52,23 / 24,1119312,2019-11-06 12:04:33:193,-3.2645,-1.3577,9.7123,0.0289,0.038,9.8065,-0.1232,0.4763,-0.2047,-1.56,-37.06,7.75,263.21,-88.96,101.9
52.892147,-1.7711,134.07,26.74,4,291.52,23 / 24,1119412,2019-11-06 12:04:33:293,-0.1714,0.8011,8.6755,-0.0616,-0.0087,9.8064,-0.098,0.4335,-0.3136,-0.75,-37.31,8.19,257.11,-88.96,88.87
52.892147,-1.7711,134.07,26.74,4,291.52,23 / 23,1119512,2019-11-06 12:04:33:393,-1.9627,1.3274,9.2594,0.0038,0.0278,9.8066,-0.0222,0.2753,-0.0673,-1.19,-37.06,8.25,249.24,-88.65,82.18
52.892147,-1.7711,134.07,26.74,4,291.52,23 / 23,1119612,2019-11-06 12:04:33:493,3.2949,0.904,8.6737,-0.0517,-0.0156,9.8065,-0.0791,0.4431,-0.2597,-1.19,-36.87,7.63,254.21,-88.72,86.98
52.892147,-1.7711,134.07,26.74,4,291.52,23 / 23,1119712,2019-11-06 12:04:33:593,1.5213,0.9242,9.7676,-0.0204,0.0085,9.8065,-0.0753,0.1085,-0.008,-0.87,-36.94,8.38,248.41,-88.59,81.55
52.892147,-1.7711,134.07,26.74,4,291.52,23 / 23,1119812,2019-11-06 12:04:33:693,3.4408,2.2603,8.2311,-0.0617,-0.0303,9.8063,-0.1007,0.4722,-0.2061,-1.5,-36.81,7.69,248.36,-88.57,81.6
52.892147,-1.7711,134.07,26.74,4,291.52,23 / 23,1119912,2019-11-06 12:04:33:793,0.6387,-1.0487,10.8441,-0.0369,-0.0014,9.8065,-0.197,-0.0611,0.1391,-2.12,-37.37,7.19,232.93,-88.96,73.09
52.892147,-1.7711,134.07,26.74,4,291.52,23 / 23,1120012,2019-11-06 12:04:33:893,-1.7575,0.8654,9.2008,-0.0088,-0.04,9.8066,-0.134,0.2147,-0.0854,-1.62,-37.25,7.31,232.38,-88.95,72.55
52.892147,-1.7711,134.07,26.74,4,291.52,23 / 23,1120112,2019-11-06 12:04:33:993,0.7535,-0.0665,8.9117,-0.0215,0.0228,9.8065,-0.0553,-0.0491,-0.0041,-1.69,-36.87,7.31,224.12,-88.77,64.43
52.892147,-1.7711,134.07,26.74,4,291.52,23 / 23,1120212,2019-11-06 12:04:34:093,0.9605,0.6154,9.9762,-0.02,0.0026,9.8066,-0.0565,0.0495,-0.0344,-1.25,-36.37,7.94,229.08,-88.76,60.4
52.892147,-1.7711,134.07,26.74,4,291.52,23 / 23,1120312,2019-11-06 12:04:34:193,2.874,1.7848,9.3847,-0.0158,-0.0292,9.8066,0.1174,-0.1214,0.0559,-1.37,-37.37,7.75,230.54,-88.8,61.89
52.892147,-1.7711,134.07,26.74,4,291.52,23 / 23,1120411,2019-11-06 12:04:34:292,-0.1474,-0.7265,9.7837,0.0037,-0.0104,9.8066,0.0403,-0.3021,0.1188,-0.56,-37.37,7.31,229.5,-88.57,63.32
52.892147,-1.7711,134.07,26.74,4,291.52,22 / 23,1120512,2019-11-06 12:04:34:393,3.8083,0.5762,8.8531,-0.0353,-0.0123,9.8065,-0.028,0.1977,-0.1322,-0.94,-36.94,8.31,229.95,-88.49,62.39
52.892147,-1.7711,134.07,26.74,4,291.52,22 / 23,1120611,2019-11-06 12:04:34:492,-1.5251,0.1831,9.666,0.0054,0.0163,9.8066,-0.0574,0.4918,-0.271,-0.37,-37.06,7.94,234.62,-88.14,61.64
52.892147,-1.7711,134.07,26.74,4,291.52,22 / 23,1120711,2019-11-06 12:04:34:592,3.4089,0.2653,9.5831,-0.0478,-0.0314,9.8064,-0.025,0.2366,-0.1324,-0.62,-36.94,7.31,228.75,-88.23,63.83
52.892147,-1.7711,134.07,26.74,4,291.52,22 / 23,1120812,2019-11-06 12:04:34:693,-2.4248,-1.3351,11.3892,0.0153,0.0184,9.8066,-0.2013,0.437,-0.0536,-0.25,-36.81,8.19,234.7,-88.11,61.83
52.892147,-1.7711,134.07,26.74,4,291.52,22 / 23,1120912,2019-11-06 12:04:34:793,0.8087,0.4262,8.2379,-0.0021,-0.0258,9.8066,-0.0714,0.429,-0.2757,-0.5,-37.37,7.56,235.77,-88.34,62.13
52.892147,-1.7711,134.07,26.74,4,291.52,22 / 23,1121012,2019-11-06 12:04:34:893,-3.3388,-0.1665,9.0851,0.0558,0.0345,9.8064,-0.1018,0.2448,-0.0605,-0.56,-36.69,8,218.91,-88.38,50.71
52.892147,-1.7711,134.07,26.74,4,291.52,22 / 23,1121112,2019-11-06 12:04:34:993,3.5722,0.3153,7.9587,0.031,0.012,9.8065,-0.1124,0.5275,-0.4091,0,-36.5,8.31,224.01,-87.9,50.57
52.892147,-1.7711,134.07,26.74,4,291.52,22 / 23,1121212,2019-11-06 12:04:35:093,4.0618,-0.2543,9.8342,0.0892,0.0394,9.8061,-0.0889,0.0905,0.053,-0.19,-37.12,9.06,228.94,-87.23,57.52
52.892147,-1.7711,134.07,26.74,4,291.52,22 / 23,1121312,2019-11-06 12:04:35:193,4.9064,2.0284,9.9671,0.055,-0.0001,9.8064,-0.0301,0.4997,-0.1804,-0.06,-36.44,8.19,229.03,-87.27,58.32
52.892147,-1.7711,134.07,26.74,4,291.52,22 / 23,1121412,2019-11-06 12:04:35:293,4.8263,-0.3955,10.7302,0.0375,0.0029,9.8066,-0.0001,-0.4574,0.3832,-0.37,-36.75,8.19,231.24,-87.42,60.55
52.892147,-1.7711,134.07,26.74,4,291.52,20 / 23,1121512,2019-11-06 12:04:35:393,-3.8736,-1.8743,10.078,0.0717,-0.0008,9.8063,-0.0775,0.0409,0.0519,-0.37,-36.56,8.13,230.77,-87.6,59.37
52.892147,-1.7711,134.07,26.74,4,291.52,20 / 23,1121612,2019-11-06 12:04:35:493,0.4238,1.1758,8.2663,0.0046,0.0216,9.8066,0.0345,-0.4372,0.2834,-0.62,-37.12,8.38,216.25,-87.73,49.53
52.892147,-1.7711,134.07,26.74,4,291.52,20 / 23,1121712,2019-11-06 12:04:35:593,-1.8279,-0.7398,9.3695,0.0683,0.0437,9.8062,-0.0221,-0.1577,0.0097,-0.94,-36.62,7.56,214.3,-87.44,48.03
52.892147,-1.7711,134.07,26.74,4,291.52,20 / 23,1121811,2019-11-06 12:04:35:692,2.9836,-0.4784,8.786,-0.0126,0.0062,9.8065,0.0817,-0.2512,0.068,0.13,-36.94,8.31,221.51,-87.33,49.68
52.892147,-1.7711,134.07,26.74,4,291.52,20 / 23,1121912,2019-11-06 12:04:35:793,-1.944,0.4174,8.8559,-0.0129,0.0298,9.8065,-0.0888,-0.233,0.354,-0.19,-37.12,7.81,219.45,-87.24,47.56
52.892147,-1.7711,134.07,26.74,4,291.52,20 / 23,1122012,2019-11-06 12:04:35:893,1.0994,0.47,9.9113,-0.0543,0.0201,9.8065,-0.0666,0.0296,0.0537,-0.44,-36.94,8.06,215.7,-87.45,42.58
52.892147,-1.7711,134.07,26.74,4,291.52,20 / 23,1122112,2019-11-06 12:04:35:993,1.4355,-1.6566,9.2308,-0.0198,0.0354,9.8065,-0.1125,-0.0405,0.1055,-0.12,-36.5,8.25,211.55,-87.29,37.9
52.892147,-1.7711,134.07,26.74,4,291.52,20 / 23,1122212,2019-11-06 12:04:36:093,0.6328,1.4153,10.0165,-0.0115,0.0137,9.8066,0.0537,0.0551,0.0153,-0.44,-37.06,8.19,206.37,-87.06,32.4
52.892147,-1.7711,134.07,26.74,4,291.52,20 / 23,1122313,2019-11-06 12:04:36:194,-0.1024,0.3871,10.2807,0.0096,0.0045,9.8066,-0.0441,-0.005,0.0688,-0.56,-36.87,8.06,201.65,-87.05,33.76
52.892147,-1.7711,134.07,26.74,4,291.52,20 / 23,1122412,2019-11-06 12:04:36:293,2.3483,-0.6368,8.9661,-0.0027,-0.0075,9.8066,0.0914,-0.1433,0.0815,-0.62,-37.31,7.81,202.14,-87.01,34.41
52.892147,-1.7711,134.07,26.74,4,291.52,21 / 22,1122513,2019-11-06 12:04:36:394,1.9245,0.1279,9.548,0.0097,0.0368,9.8066,-0.0223,-0.1252,0.135,0.13,-36.5,8.56,206.47,-86.82,32.12
52.892147,-1.7711,134.07,26.74,4,291.52,21 / 22,1122611,2019-11-06 12:04:36:492,1.2259,1.592,8.5339,-0.0265,0.0033,9.8066,0.0962,-0.0846,0.0369,-0.5,-37.12,7.31,200.84,-86.7,27.02
52.892147,-1.7711,134.07,26.74,4,291.52,21 / 22,1122711,2019-11-06 12:04:36:592,-0.0812,-0.1636,9.9852,-0.0204,0.025,9.8065,-0.0008,-0.0545,0.0273,-0.12,-37.06,8.25,198.39,-86.56,23.39
52.892147,-1.7711,134.07,26.74,4,291.52,21 / 22,1122811,2019-11-06 12:04:36:692,0.6697,0.7453,9.156,-0.0003,-0.0153,9.8065,-0.0277,0.0646,-0.0182,-0.06,-36.94,8.31,197.89,-86.51,22.82
52.892147,-1.7711,134.07,26.74,4,291.52,21 / 22,1122912,2019-11-06 12:04:36:793,-0.2018,0.0826,9.1823,0.0016,0.0451,9.8065,-0.0746,-0.0355,0.047,-0.81,-37.44,8.5,192.54,-86.44,22.01
52.892147,-1.7711,134.07,26.74,4,291.52,21 / 22,1123012,2019-11-06 12:04:36:893,1.3573,0.0937,9.1675,-0.0216,-0.0099,9.8065,0.0402,-0.1115,0.0109,-0.69,-37.31,7.31,189.25,-86.55,20.26
52.892147,-1.7711,134.07,26.74,4,291.52,21 / 22,1123112,2019-11-06 12:04:36:993,0.43,0.516,9.8591,-0.0101,0.0018,9.8066,0.0693,-0.1578,0.1642,-0.69,-37.62,8.19,189.9,-86.48,19.86
52.892147,-1.7711,134.07,26.74,4,291.52,21 / 22,1123212,2019-11-06 12:04:37:093,1.6482,0.7618,9.4935,-0.0136,-0.0201,9.8065,0.0229,0.0234,-0.0836,-0.5,-37.37,8.56,195.78,-86.53,19.63
52.892147,-1.7711,134.07,26.74,4,291.52,21 / 22,1123312,2019-11-06 12:04:37:193,-0.4442,0.8842,10.0834,-0.0287,0.0049,9.8065,0.0119,-0.1783,0.1388,-0.94,-37,8.38,189.27,-86.43,19.02
52.892147,-1.7711,134.07,26.74,4,291.52,21 / 22,1123412,2019-11-06 12:04:37:293,-2.6114,-1.5164,10.3853,-0.0427,-0.0136,9.8065,-0.0931,0.2432,-0.1405,-1.25,-37,7.88,189.43,-86.19,19.39
52.892147,-1.7711,134.07,26.74,4,291.52,19 / 21,1123512,2019-11-06 12:04:37:393,-0.2835,0.8175,10.3505,-0.0524,-0.0352,9.8064,-0.129,0.5576,-0.2873,-0.87,-37.5,7.88,188.75,-86.02,18.63
52.892147,-1.7711,134.07,26.74,4,291.52,19 / 21,1123612,2019-11-06 12:04:37:493,-3.263,1.1448,9.8992,0.0807,0.0388,9.8062,-0.0487,0.5121,-0.1839,-0.75,-36.94,8.13,189.74,-86.07,19.89
52.892147,-1.7711,134.07,26.74,4,291.52,19 / 21,1123712,2019-11-06 12:04:37:593,0.6035,1.405,9.7935,-0.0133,0.0009,9.8066,-0.0886,0.1135,-0.1321,-0.75,-37.75,8.13,187.98,-86,17.7
52.892147,-1.7711,134.07,26.74,4,291.52,19 / 21,1123812,2019-11-06 12:04:37:693,-3.6672,0.1729,9.7796,0.0551,0.0452,9.8063,-0.0061,0.4471,-0.2728,-0.56,-37.25,7.81,189.42,-85.76,19.71
52.892147,-1.7711,134.07,26.74,4,291.52,19 / 21,1123912,2019-11-06 12:04:37:793,2.3359,3.0347,10.2936,-0.0132,0.0009,9.8066,0.0244,0.2731,-0.1499,-0.25,-37.25,8.31,195.14,-85.9,20.06
52.892147,-1.7711,134.07,26.74,4,291.52,19 / 21,1124011,2019-11-06 12:04:37:892,2.3975,1.3158,10.6889,0.0481,0.012,9.8065,0.1039,-0.2178,0.0379,-0.56,-37.37,7.56,192.06,-85.99,23.01
52.892147,-1.7711,134.07,26.74,4,291.52,19 / 21,1124112,2019-11-06 12:04:37:993,3.7986,3.1053,9.2854,-0.0417,-0.0119,9.8065,-0.1035,0.5009,-0.1946,-0.5,-37.5,8.13,195.44,-86.18,20.12
52.892147,-1.7711,134.07,26.74,4,291.52,19 / 21,1124212,2019-11-06 12:04:38:093,1.0481,1.1429,9.8664,0.0094,0.0237,9.8065,-0.0138,0.312,-0.1026,-0.44,-37.69,8.5,196.52,-86.01,21.28
52.892147,-1.7711,134.07,26.74,4,291.52,19 / 21,1124312,2019-11-06 12:04:38:193,5.8167,2.0778,8.5002,-0.0757,-0.0368,9.8062,-0.2023,0.6572,-0.2962,-0.44,-37.5,8.31,193.83,-86.24,17.96
52.892147,-1.7711,134.07,26.74,4,291.52,19 / 21,1124412,2019-11-06 12:04:38:293,0.2468,1.0203,9.8092,-0.0399,-0.0202,9.8065,0.1076,-0.2543,0.2115,-1.44,-37.44,8.88,189.52,-86.16,18.43
52.892147,-1.7711,134.07,26.74,4,291.52,19 / 21,1124512,2019-11-06 12:04:38:393,-5.0688,0.7551,11.4957,-0.0702,-0.05,9.8062,0.0031,0.3028,-0.2066,-0.62,-37.44,8.31,191.56,-86.13,22.21
52.892147,-1.7711,134.07,26.74,4,291.52,19 / 21,1124612,2019-11-06 12:04:38:493,-1.0654,1.2732,10.1551,-0.0684,-0.0256,9.8064,0.1264,-0.6197,0.3945,-0.25,-37.44,8.69,194.67,-86.48,18.31
52.892147,-1.7711,134.07,26.74,4,291.52,19 / 21,1124712,2019-11-06 12:04:38:593,-4.2079,-0.4857,11.2167,-0.0393,0.0039,9.8065,0.0267,-0.1234,-0.0304,-0.69,-37.06,8.56,190.56,-86.38,19.58
52.892147,-1.7711,134.07,26.74,4,291.52,19 / 21,1124812,2019-11-06 12:04:38:693,2.8064,0.6834,9.9817,-0.0617,-0.0356,9.8063,-0.0583,0.4189,-0.0818,-0.44,-36.94,7.94,195.33,-86.29,19.84
52.892147,-1.7711,134.07,26.74,4,291.52,19 / 21,1124912,2019-11-06 12:04:38:793,-4.2403,0.7738,11.2138,0.0816,0.013,9.8063,0.1746,-0.4547,0.3647,-0.37,-37.44,9.06,201.09,-86.11,26.81
52.892147,-1.7711,134.07,26.74,4,291.52,19 / 21,1125012,2019-11-06 12:04:38:893,2.6821,2.5475,10.2718,-0.0311,-0.0232,9.8065,-0.0262,-0.129,0.007,-0.44,-37.19,7.94,199.49,-86.38,25.05
52.892147,-1.7711,134.07,26.74,4,291.52,19 / 21,1125112,2019-11-06 12:04:38:993,3.2072,4.1548,9.2768,0.068,0.0071,9.8063,-0.0357,-0.3638,0.338,-0.5,-37.25,9,203.45,-86.23,29.59
52.892147,-1.7711,134.07,26.74,4,291.52,19 / 21,1125212,2019-11-06 12:04:39:093,0.4806,1.2134,11.1896,0.022,0.0336,9.8065,-0.008,0.2119,-0.0065,-0.56,-37.31,9.38,194.76,-86.26,24.97
52.892147,-1.7711,134.07,26.74,4,291.52,19 / 21,1125312,2019-11-06 12:04:39:193,0.63,1.4943,9.7584,0.0169,-0.0236,9.8065,-0.0202,0.0326,0.0481,-0.62,-37.56,9.13,197.61,-86.43,28.45
52.892147,-1.7711,134.07,26.74,4,291.52,19 / 21,1125412,2019-11-06 12:04:39:293,-3.0085,2.4311,11.033,0.035,0.0043,9.8065,-0.0636,0.3385,-0.2217,0.31,-36.81,9.5,205.31,-86.44,30.91
52.892147,-1.7711,134.07,26.74,4,291.52,20 / 22,1125512,2019-11-06 12:04:39:393,2.445,0.3277,9.5191,0.0375,-0.0039,9.8066,-0.0251,0.0816,0.1035,-0.06,-37.62,9.38,204.74,-86.58,30.75
52.892147,-1.7711,134.07,26.74,4,291.52,20 / 22,1125612,2019-11-06 12:04:39:493,-1.8949,0.7747,10.7027,0.0111,-0.0172,9.8065,0.073,-0.3255,0.1068,0.19,-38.31,10.13,208.09,-86.6,34.14
52.892147,-1.7711,134.07,26.74,4,291.52,20 / 22,1125712,2019-11-06 12:04:39:593,0.2736,2.5746,9.1819,0.0108,-0.0345,9.8065,-0.1219,0.0298,-0.0683,-0.31,-38,9.81,212.44,-86.93,38.68
52.892147,-1.7711,134.07,26.74,4,291.52,20 / 22,1125812,2019-11-06 12:04:39:693,-2.9689,1.8518,10.2975,0.0775,0.0278,9.8063,-0.2123,0.4272,-0.1148,-0.19,-37.56,9.94,215.02,-86.92,41.73
52.892147,-1.7711,134.07,26.74,4,291.52,20 / 22,1125911,2019-11-06 12:04:39:792,1.9902,3.7356,8.8006,-0.025,0.0532,9.8064,0.1455,-0.0599,-0.0439,0.44,-38.44,9.88,216.52,-87.17,42.9
52.892147,-1.7711,134.07,26.74,4,291.52,20 / 22,1126011,2019-11-06 12:04:39:892,-2.0148,1.4379,9.9865,0.0194,0.0325,9.8066,-0.1924,0.3311,0.1004,-0.31,-36.81,9.19,208.59,-87,34.47
52.892147,-1.7711,134.07,26.74,4,291.52,20 / 22,1126111,2019-11-06 12:04:39:992,1.4657,6.8916,11.0842,-0.0658,-0.0058,9.8063,0.0458,0.0997,-0.4371,-0.62,-37.44,9.44,202.01,-87.23,32.57
52.892147,-1.7711,134.07,26.74,4,291.52,20 / 22,1126211,2019-11-06 12:04:40:092,-1.0824,-2.6541,9.855,0.062,0.0281,9.8064,0.1164,0.1653,-0.2875,0.31,-37.19,10.06,213.59,-86.87,39.97
52.892147,-1.7711,134.07,26.74,4,291.52,20 / 22,1126312,2019-11-06 12:04:40:193,2.3491,1.7737,10.2891,-0.0018,-0.0031,9.8065,0.0363,0.2598,-0.0585,-0.12,-36.94,10.44,212.22,-87,38.12
52.892147,-1.7711,134.07,26.74,4,291.52,20 / 22,1126412,2019-11-06 12:04:40:293,-2.2806,1.689,11.4871,-0.0086,-0.0126,9.8066,0.0507,-0.118,-0.0756,-0.37,-37.5,10.38,213.31,-86.99,39.41
52.892147,-1.7711,134.07,26.74,4,291.52,21 / 22,1126512,2019-11-06 12:04:40:393,0.2159,4.8586,9.5969,-0.0187,-0.0142,9.8066,0.0648,0.258,-0.0684,-0.56,-37.56,10.81,212.11,-87.08,42.61
52.892147,-1.7711,134.07,26.74,4,291.52,21 / 22,1126611,2019-11-06 12:04:40:492,-1.6881,4.6563,11.1131,0.03,-0.034,9.8065,0.0786,0.0696,0.0271,0,-38.06,11.5,221.86,-87.34,47.46
52.892147,-1.7711,134.07,26.74,4,291.52,21 / 22,1126712,2019-11-06 12:04:40:593,1.4775,5.7411,8.5356,-0.0278,-0.0294,9.8065,-0.2125,0.3559,-0.1417,-0.25,-37.56,10.44,220.78,-87.5,46.98
52.892147,-1.7711,134.07,26.74,4,291.52,21 / 22,1126812,2019-11-06 12:04:40:693,1.2277,2.3992,10.7973,-0.0105,0.0252,9.8066,0.0196,0.0531,-0.1584,-0.37,-37.37,10.81,218.64,-87.21,44.48
52.892147,-1.7711,134.07,26.74,4,291.52,21 / 22,1126912,2019-11-06 12:04:40:793,-2.1166,2.0524,9.8913,0.0397,-0.0428,9.8064,0.0583,-0.2097,0.0944,-0.31,-37.31,10.38,226.51,-87.33,53.67
52.892147,-1.7711,134.07,26.74,4,291.52,21 / 22,1127012,2019-11-06 12:04:40:893,1.4346,0.921,9.8937,0.0565,-0.0175,9.8064,0.1435,0.075,0.0472,-0.56,-37.75,11.19,223.65,-87.42,54.96
52.892147,-1.7711,134.07,26.74,4,291.52,21 / 22,1127112,2019-11-06 12:04:40:993,1.5682,3.0516,10.5852,0.0657,-0.0448,9.8063,-0.1596,-0.1705,0.1623,0,-37.87,11.13,226.52,-87.72,52.23
52.892147,-1.7711,134.07,26.74,4,291.52,21 / 22,1127212,2019-11-06 12:04:41:093,-0.8805,2.9827,9.9591,0.0202,0.0095,9.8065,-0.028,0.1466,-0.101,0,-38.12,11.5,232.99,-87.56,59.13
52.892147,-1.7711,134.07,26.74,4,291.52,21 / 22,1127312,2019-11-06 12:04:41:193,-3.6555,0.6832,10.7214,0.0051,-0.0107,9.8066,0.2021,-0.2119,0.1067,-0.19,-37.75,11.63,238.53,-87.5,65.28
52.892147,-1.7711,134.07,26.74,4,291.52,21 / 22,1127412,2019-11-06 12:04:41:293,0.196,6.9686,9.8529,-0.0126,0.007,9.8066,0.1206,-0.3287,0.0616,-0.31,-37.81,11.69,241.03,-87.49,67.97
52.89265,-1.774406,134.62,18.78,4,275.11,20 / 23,1127512,2019-11-06 12:04:41:393,3.5757,5.9242,10.1962,0.0563,-0.0122,9.8064,0.0863,-0.0946,-0.0234,-0.19,-37.56,11.75,242.11,-87.5,69.12
52.89265,-1.774406,134.62,18.78,4,275.11,20 / 23,1127612,2019-11-06 12:04:41:493,1.8984,5.5141,11.4026,-0.0072,0.0078,9.8066,0.2082,0.4431,-0.2376,0.31,-37.31,12,247.19,-87.37,74.67
52.89265,-1.774406,134.62,18.78,4,275.11,20 / 23,1127712,2019-11-06 12:04:41:593,-1.0155,3.5497,10.4639,0.0336,-0.0001,9.8066,-0.0704,0.0192,-0.0748,0.19,-37.62,11.63,248.37,-87.16,76.73
52.89265,-1.774406,134.62,18.78,4,275.11,20 / 23,1127812,2019-11-06 12:04:41:693,1.0177,3.9574,8.8221,0.0001,-0.0231,9.8065,-0.0982,-0.1618,0.1576,-0.19,-37.44,12.06,251.75,-87.25,79.8
52.89265,-1.774406,134.62,18.78,4,275.11,20 / 23,1127912,2019-11-06 12:04:41:793,-0.0493,3.3098,10.8426,-0.0138,-0.0079,9.8066,0.0986,0.274,-0.085,0.31,-37.75,12.38,247.76,-87.13,76.18
52.89265,-1.774406,134.62,18.78,4,275.11,20 / 23,1128012,2019-11-06 12:04:41:893,-1.485,4.4126,9.9016,-0.0357,0.0007,9.8066,-0.0712,-0.0548,0.08,-0.12,-37.62,12.44,247.62,-87.2,75.84
52.89265,-1.774406,134.62,18.78,4,275.11,20 / 23,1128112,2019-11-06 12:04:41:993,-2.819,6.841,10.1912,0.0006,0.0041,9.8066,-0.1003,0.3682,-0.0897,0.06,-37.5,12.69,251.18,-87.07,79.08
52.89265,-1.774406,134.62,18.78,4,275.11,20 / 23,1128212,2019-11-06 12:04:42:093,0.8179,2.191,10.044,-0.0307,-0.0189,9.8066,-0.0913,-0.0108,-0.0813,0.25,-38.12,12.25,247.48,-87.14,75.86
52.89265,-1.774406,134.62,18.78,4,275.11,20 / 23,1128312,2019-11-06 12:04:42:193,0.3103,4.8795,9.9596,-0.0215,-0.0081,9.8065,0.1115,0.2163,-0.0633,0,-37.19,12.06,247.89,-87.11,76.15
52.89265,-1.774406,134.62,18.78,4,275.11,20 / 23,1128412,2019-11-06 12:04:42:293,3.3802,1.7235,9.2783,-0.0292,0.0041,9.8066,-0.1471,0.2968,-0.122,0.25,-36.87,12.5,251.15,-87.08,79.03
52.89265,-1.774406,134.62,18.78,4,275.11,18 / 22,1128512,2019-11-06 12:04:42:393,-5.5945,2.4415,10.5661,-0.0156,0.0396,9.8066,0.0246,-0.4167,0.3706,0.44,-37.25,12.69,250.21,-87.16,77.82
52.89265,-1.774406,134.62,18.78,4,275.11,18 / 22,1128612,2019-11-06 12:04:42:493,-1.0168,1.2711,9.8152,-0.077,-0.0438,9.8062,-0.0226,0.0962,0.2412,0.38,-37.19,13.06,252.58,-87.19,80.22
52.89265,-1.774406,134.62,18.78,4,275.11,18 / 22,1128712,2019-11-06 12:04:42:593,-0.876,-0.3287,10.234,0.0531,-0.0021,9.8065,-0.1719,0.2717,0.1552,0.19,-37.62,13.38,248.51,-86.83,77.13
52.89265,-1.774406,134.62,18.78,4,275.11,18 / 22,1128812,2019-11-06 12:04:42:693,-2.2453,4.5058,8.3978,0.0534,-0.0677,9.8062,0.1091,0.3941,-0.5434,0.81,-38.19,13.06,258.29,-86.74,83.23
52.89265,-1.774406,134.62,18.78,4,275.11,18 / 22,1128912,2019-11-06 12:04:42:793,1.9545,4.4713,8.2932,0.0379,-0.0523,9.8063,0.1732,-0.1805,0.0402,0.25,-38.12,13.63,255.08,-86.38,84.59
52.89265,-1.774406,134.62,18.78,4,275.11,18 / 22,1129012,2019-11-06 12:04:42:893,-5.2501,4.4426,11.037,0.0211,-0.0001,9.8066,0.1404,-0.4417,0.3556,0.69,-37.5,12.75,256.74,-86.27,82.7
52.89265,-1.774406,134.62,18.78,4,275.11,18 / 22,1129112,2019-11-06 12:04:42:993,3.47,0.3227,11.1697,-0.0857,-0.0382,9.8062,0.0015,-0.0826,0.0361,0.5,-37.12,13.44,261.11,-86.56,86.39
52.89265,-1.774406,134.62,18.78,4,275.11,18 / 22,1129212,2019-11-06 12:04:43:093,2.8737,4.6399,9.025,-0.023,-0.0482,9.8064,-0.0046,-0.4969,0.4674,0.25,-37.31,13.94,262.38,-86.44,91.76
52.89265,-1.774406,134.62,18.78,4,275.11,18 / 22,1129312,2019-11-06 12:04:43:193,9.0962,5.2739,8.7397,-0.0904,-0.0134,9.8062,-0.2775,-0.222,0.1912,0.31,-36.75,13.94,259.08,-86.1,89.24
52.89265,-1.774406,134.62,18.78,4,275.11,18 / 22,1129412,2019-11-06 12:04:43:293,-0.8728,1.7806,9.7494,0.0084,-0.0507,9.8065,0.1299,-0.5572,0.4723,0.81,-37.31,14.06,261.04,-86.17,86.98
52.89265,-1.774406,134.62,18.78,4,275.11,19 / 21,1129512,2019-11-06 12:04:43:393,-1.2851,4.8801,11.6412,-0.0097,-0.0681,9.8064,0.2369,-0.1607,0.1529,0.31,-37.44,14.94,265.04,-86.25,94.3
52.89265,-1.774406,134.62,18.78,4,275.11,19 / 21,1129612,2019-11-06 12:04:43:493,1.1801,-1.2412,11.4124,-0.0438,-0.0693,9.8062,0.1512,0.0353,0.1288,0.75,-37.94,15.38,277.47,-86.04,103.67
52.89265,-1.774406,134.62,18.78,4,275.11,19 / 21,1129712,2019-11-06 12:04:43:593,5.1029,7.0129,9.8359,-0.0109,-0.0318,9.8065,-0.0657,-0.0293,0.1453,0.63,-37,15.81,276.11,-85.35,103.31
52.89265,-1.774406,134.62,18.78,4,275.11,19 / 21,1129812,2019-11-06 12:04:43:693,5.2955,5.2544,7.9911,0.0033,-0.0204,9.8066,0.0508,-0.5945,0.3828,1,-37.12,16,275.34,-85.32,102.63
52.89265,-1.774406,134.62,18.78,4,275.11,19 / 21,1129912,2019-11-06 12:04:43:793,4.686,5.6226,9.8507,-0.1483,-0.0354,9.8054,-0.0021,0.7692,-0.0161,0.88,-36.81,15.94,273.02,-85.05,100.98
52.89265,-1.774406,134.62,18.78,4,275.11,19 / 21,1130012,2019-11-06 12:04:43:893,5.1147,1.7845,9.727,-0.0623,-0.0031,9.8064,0.0179,-0.0373,-0.0499,0.38,-37.31,17,274.67,-85.81,103.84
52.89265,-1.774406,134.62,18.78,4,275.11,19 / 21,1130112,2019-11-06 12:04:43:993,-1.9066,0.1099,9.2277,-0.0643,-0.0191,9.8064,0.0185,0.6241,-0.1611,0.44,-36.94,17.25,276.85,-85.88,105.83
52.89265,-1.774406,134.62,18.78,4,275.11,19 / 21,1130212,2019-11-06 12:04:44:093,1.6606,2.4292,9.4922,-0.0589,0.0008,9.8064,-0.1174,0.2104,-0.0644,0.56,-36.75,17.31,279.55,-85.88,105.09
52.89265,-1.774406,134.62,18.78,4,275.11,19 / 21,1130311,2019-11-06 12:04:44:192,-2.2739,3.0059,9.708,-0.0037,0.0181,9.8066,-0.0406,0.8473,-0.3953,0.69,-36.94,17.69,277.61,-85.89,102.85
52.89265,-1.774406,134.62,18.78,4,275.11,19 / 21,1130412,2019-11-06 12:04:44:293,5.2651,5.6486,9.4978,-0.0798,-0.0215,9.8063,-0.0179,0.594,-0.1614,0.31,-37.37,19.13,277.5,-85.94,105.4
52.89265,-1.774406,134.62,18.78,4,275.11,19 / 22,1130512,2019-11-06 12:04:44:393,2.5205,3.2845,9.6273,0.0343,0.0086,9.8066,0.0401,-0.2374,0.3292,0.25,-37.75,19.56,278.08,-85.99,105.67
52.89265,-1.774406,134.62,18.78,4,275.11,19 / 22,1130611,2019-11-06 12:04:44:492,6.2708,4.9436,10.0349,-0.0902,-0.0199,9.8062,-0.0828,0.7554,-0.0737,0.06,-37.37,19.69,278.82,-86.06,106.07
52.89265,-1.774406,134.62,18.78,4,275.11,19 / 22,1130712,2019-11-06 12:04:44:593,0.6814,1.969,9.872,0.058,0.0212,9.8064,0.0048,0.6192,-0.2469,-0.69,-37.62,20.69,274.21,-85.91,104.35
52.89265,-1.774406,134.62,18.78,4,275.11,19 / 22,1130812,2019-11-06 12:04:44:693,-3.1356,-0.2471,10.388,-0.016,-0.0167,9.8065,-0.0493,1.0437,-0.3562,-0.12,-36.87,20.81,283.23,-86.16,109.88
52.89265,-1.774406,134.62,18.78,4,275.11,19 / 22,1130912,2019-11-06 12:04:44:793,-0.0918,0.9467,9.4357,0.1025,0.0044,9.8061,0.0889,0.2013,0.1145,0.25,-37,22.44,285.41,-85.61,112.61
52.89265,-1.774406,134.62,18.78,4,275.11,19 / 22,1131012,2019-11-06 12:04:44:893,-4.4327,-1.5064,10.1372,0.0581,0.0123,9.8064,-0.1177,0.8396,-0.3488,-0.75,-36.31,22.06,286.33,-85.78,115.62
52.89265,-1.774406,134.62,18.78,4,275.11,19 / 22,1131112,2019-11-06 12:04:44:993,0.845,1.2807,9.1009,0.0503,-0.0088,9.8065,0.0602,-0.6334,0.5491,-0.37,-37.44,23.13,292.22,-86.03,118.2
52.89265,-1.774406,134.62,18.78,4,275.11,19 / 22,1131212,2019-11-06 12:04:45:093,-4.3915,-0.3189,10.3413,0.1073,0.0299,9.8059,0.1107,0.0195,0.0774,-1.06,-37.37,23.19,286.14,-85.82,115.14
52.89265,-1.774406,134.62,18.78,4,275.11,19 / 22,1131312,2019-11-06 12:04:45:193,3.2732,0.0731,9.6306,-0.013,0.0159,9.8066,0.0293,-0.2356,0.0978,-2.06,-36.94,24.19,289.3,-86.36,119.39
52.89265,-1.774406,134.62,18.78,4,275.11,19 / 22,1131412,2019-11-06 12:04:45:293,-3.6272,-0.199,10.1957,-0.0026,0.0051,9.8066,0.0719,-0.2265,0.43,-1.81,-37.56,24.25,289.99,-86.41,120.12
52.89265,-1.774406,134.62,18.78,4,275.11,20 / 21,1131512,2019-11-06 12:04:45:393,4.9929,1.3786,8.7409,-0.0565,-0.0028,9.8065,0.1414,0.0076,0.1884,-1.94,-36.81,24.88,288.97,-86.51,118.47
52.89265,-1.774406,134.62,18.78,4,275.11,20 / 21,1131612,2019-11-06 12:04:45:493,1.9139,0.7592,10.2271,0.022,0.0271,9.8065,-0.0975,-0.2712,0.2172,-2.25,-36.62,25.56,286.62,-86.25,116.17
52.89265,-1.774406,134.62,18.78,4,275.11,20 / 21,1131712,2019-11-06 12:04:45:593,5.8176,1.4422,9.8056,-0.0799,0.0072,9.8062,-0.0449,0.0505,0.2078,-2.31,-36.37,25.25,283.22,-86.04,113.38
52.89265,-1.774406,134.62,18.78,4,275.11,20 / 21,1131812,2019-11-06 12:04:45:693,0.4607,1.7813,9.3878,0.0284,0.0135,9.8065,-0.039,-0.1042,0.125,-1.87,-36.44,25.94,280.75,-86.15,110.42
52.89265,-1.774406,134.62,18.78,4,275.11,20 / 21,1131912,2019-11-06 12:04:45:793,-2.3973,1.802,10.9781,-0.0025,0.018,9.8066,-0.1259,0.6158,-0.2994,-2.56,-37.62,26.31,276.05,-86.21,108.13
52.89265,-1.774406,134.62,18.78,4,275.11,20 / 21,1132012,2019-11-06 12:04:45:893,1.571,-0.6753,9.1438,-0.0456,-0.0369,9.8065,-0.0703,0.2866,0.0448,-2.12,-36.69,26.31,280.15,-86.09,110.05
52.89265,-1.774406,134.62,18.78,4,275.11,20 / 21,1132112,2019-11-06 12:04:45:993,-3.2635,1.4144,9.7608,-0.0569,0.0009,9.8065,0.0249,0.9105,-0.3689,-3.12,-36.94,26.81,277.24,-86.24,108.69
52.89265,-1.774406,134.62,18.78,4,275.11,20 / 21,1132212,2019-11-06 12:04:46:093,6.3799,2.3141,11.6506,-0.1389,-0.0481,9.8055,-0.0771,0.5369,-0.2834,-3.06,-37.25,27.38,284.54,-86.79,115.14
52.89265,-1.774406,134.62,18.78,4,275.11,20 / 21,1132312,2019-11-06 12:04:46:193,-2.9549,-1.3961,10.5453,0.0314,0.0076,9.8065,0.0648,0.8358,-0.4436,-2.75,-36.19,28.13,286.11,-86.13,117.03
52.89265,-1.774406,134.62,18.78,4,275.11,20 / 21,1132414,2019-11-06 12:04:46:295,2.2326,2.9462,9.8085,-0.0184,-0.0157,9.8066,-0.0327,0.3245,-0.027,-3.56,-36.12,29,287.19,-85.75,120.09
52.89265,-1.774406,134.62,18.78,4,275.11,20 / 21,1132511,2019-11-06 12:04:46:392,-0.7441,-1.0245,9.6165,-0.0215,-0.0102,9.8066,-0.0196,0.2099,-0.0651,-3.37,-36.75,29.5,291.33,-85.54,122.21
52.89265,-1.774406,134.62,18.78,4,275.11,20 / 21,1132612,2019-11-06 12:04:46:493,3.4317,0.8964,9.4335,-0.0088,0.0238,9.8066,-0.0204,0.1614,-0.115,-4.06,-35.87,29.31,285.81,-85.42,119.15
52.89265,-1.774406,134.62,18.78,4,275.11,20 / 21,1132711,2019-11-06 12:04:46:592,1.3266,0.3755,9.7039,0.0509,0.0221,9.8064,-0.0288,0.07,0.1207,-3.44,-36.5,29.94,285.49,-85.33,116.64
52.89265,-1.774406,134.62,18.78,4,275.11,20 / 21,1132812,2019-11-06 12:04:46:693,-0.0306,-0.4698,9.6129,0.034,0.0033,9.8066,0.0011,0.3282,-0.0925,-4,-36.81,29.38,279.36,-84.99,113.53
52.89265,-1.774406,134.62,18.78,4,275.11,20 / 21,1132912,2019-11-06 12:04:46:793,0.8979,-1.5661,9.7793,0.028,-0.009,9.8066,0.0122,0.1291,0.014,-4.19,-36.5,30.19,279.31,-84.68,113.23
52.89265,-1.774406,134.62,18.78,4,275.11,20 / 21,1133012,2019-11-06 12:04:46:893,1.0611,-0.4711,10.1067,0.0278,-0.0034,9.8065,-0.0464,0.2957,-0.0279,-4.12,-36.37,30.94,279.37,-84.56,112.98
52.89265,-1.774406,134.62,18.78,4,275.11,20 / 21,1133112,2019-11-06 12:04:46:993,1.6034,-0.3979,9.8603,0.0078,0.0007,9.8066,-0.0338,0.1067,0.0151,-4.31,-35.94,31.13,278.54,-84.62,112.09
52.89265,-1.774406,134.62,18.78,4,275.11,20 / 21,1133211,2019-11-06 12:04:47:092,0.2748,-0.2754,9.784,0.0145,0.0147,9.8065,0.0312,0.0638,0.0734,-4.75,-35.81,30.88,275.8,-84.64,111.13
52.89265,-1.774406,134.62,18.78,4,275.11,20 / 21,1133311,2019-11-06 12:04:47:192,1.1124,0.3386,9.5442,0.0034,0.0053,9.8066,-0.0219,0.1032,-0.0274,-5,-36.25,31.25,276.23,-84.65,111.54
52.89265,-1.774406,134.62,18.78,4,275.11,20 / 21,1133412,2019-11-06 12:04:47:293,-1.6976,-1.2521,9.8572,0.0246,0.0126,9.8065,0.0162,0.2245,-0.0803,-4.44,-35.81,31.38,277.13,-84.55,110.78
52.89265,-1.774406,134.62,18.78,4,275.11,20 / 20,1133512,2019-11-06 12:04:47:393,-0.0851,0.8364,9.8846,-0.0074,-0.0104,9.8066,0.0071,0.2707,-0.0927,-5.19,-36.62,31.75,277.34,-84.56,112.45
52.89265,-1.774406,134.62,18.78,4,275.11,20 / 20,1133613,2019-11-06 12:04:47:494,-0.3437,-0.1361,9.8883,-0.0015,-0.0102,9.8066,0.0103,0.0575,0.0135,-4.94,-36.56,31.69,278.27,-84.53,113.39
52.89265,-1.774406,134.62,18.78,4,275.11,20 / 20,1133712,2019-11-06 12:04:47:593,0.7541,0.5082,9.9711,-0.0394,-0.0142,9.8065,-0.0051,0.2424,-0.1277,-5.06,-36.81,32,278.69,-84.55,113.8
52.89265,-1.774406,134.62,18.78,4,275.11,20 / 20,1133812,2019-11-06 12:04:47:693,0.2979,-0.8767,9.7028,-0.0247,-0.0111,9.8065,0.0412,0.2546,-0.1725,-5.06,-36.5,31.31,280,-84.71,115.2
52.89265,-1.774406,134.62,18.78,4,275.11,20 / 20,1133912,2019-11-06 12:04:47:793,-3.6652,-1.8881,9.7561,-0.0196,0.0028,9.8066,-0.0029,0.0033,-0.038,-5.44,-36.37,31.5,280.7,-84.64,115.51
52.89265,-1.774406,134.62,18.78,4,275.11,20 / 20,1134012,2019-11-06 12:04:47:893,-1.0782,-0.8873,9.3901,-0.0435,-0.0057,9.8065,-0.0118,-0.3735,0.2819,-5.19,-35.44,31.25,279.6,-84.64,114.71
52.89265,-1.774406,134.62,18.78,4,275.11,20 / 20,1134113,2019-11-06 12:04:47:994,-4.3432,-1.0043,9.8114,-0.0402,0.0107,9.8065,0.0065,-0.1767,0.0051,-5.06,-36.75,30.94,277.9,-84.6,113.43
52.89265,-1.774406,134.62,18.78,4,275.11,20 / 20,1134211,2019-11-06 12:04:48:092,-0.8709,-0.1761,10.1789,-0.0475,0.0068,9.8065,0.0023,-0.3385,0.1763,-5.5,-35.94,30.63,277.11,-84.95,112.07
52.89265,-1.774406,134.62,18.78,4,275.11,20 / 20,1134312,2019-11-06 12:04:48:193,-2.776,-1.0937,10.1237,-0.014,0.0233,9.8065,0.0248,-0.2649,0.0644,-5,-37.25,31.06,275.24,-85.07,110.24
52.89265,-1.774406,134.62,18.78,4,275.11,20 / 20,1134412,2019-11-06 12:04:48:293,-2.5067,-0.1987,9.54,-0.0245,0.0007,9.8066,-0.002,-0.1815,-0.0041,-4.81,-37.31,31.06,274.89,-85.2,109.73
52.89265,-1.774406,134.62,18.78,4,275.11,20 / 20,1134512,2019-11-06 12:04:48:393,-2.8651,-0.28,9.4753,-0.0152,0.0056,9.8066,0.0417,-0.2576,0.0038,-5,-37.31,30.38,273.4,-85.32,108.58
52.89265,-1.774406,134.62,18.78,4,275.11,20 / 20,1134612,2019-11-06 12:04:48:493,-4.1869,-1.1731,10.374,-0.0046,0.01,9.8066,0.0559,-0.3086,0.0796,-4.5,-36.81,30.44,275.13,-85.41,108.35
52.89265,-1.774406,134.62,18.78,4,275.11,20 / 20,1134712,2019-11-06 12:04:48:593,-3.2521,0.4037,9.9561,0.0103,0.0246,9.8066,0.0235,-0.3155,-0.0205,-4.19,-36.69,29.94,274.91,-85.43,108.1
52.89265,-1.774406,134.62,18.78,4,275.11,20 / 20,1134812,2019-11-06 12:04:48:693,-4.6424,-1.6933,8.7427,0.015,0.01,9.8066,0.0978,-0.2835,-0.0726,-3.69,-36.5,29.5,271.94,-85.34,105.1
52.89265,-1.774406,134.62,18.78,4,275.11,20 / 20,1134912,2019-11-06 12:04:48:793,-4.6364,-0.6106,9.7719,0.0208,0.0266,9.8066,0.0409,-0.388,-0.0333,-3.56,-36.25,28.5,269.56,-85.37,103.13
52.89265,-1.774406,134.62,18.78,4,275.11,20 / 20,1135012,2019-11-06 12:04:48:893,-5.3236,-0.5137,9.7762,0.0485,0.0108,9.8065,0.0513,-0.1661,-0.1728,-3.87,-36.37,27.75,265.6,-85.18,99.86
52.89265,-1.774406,134.62,18.78,4,275.11,20 / 20,1135112,2019-11-06 12:04:48:993,-4.0643,0.0131,10.3947,0.0231,-0.0165,9.8065,-0.0698,-0.3216,0.0621,-2.87,-37.25,27.44,263.93,-85.26,96.7
52.89265,-1.774406,134.62,18.78,4,275.11,20 / 20,1135212,2019-11-06 12:04:49:093,-3.3567,0.6631,10.0503,0.042,-0.0336,9.8064,-0.0313,-0.327,0.0406,-1.94,-36.94,27.44,265.41,-85.2,96.21
52.89265,-1.774406,134.62,18.78,4,275.11,20 / 20,1135312,2019-11-06 12:04:49:193,-3.6821,-1.4008,9.4904,0.0084,0.0062,9.8066,0.0885,-0.3442,-0.0516,-2.31,-37,27.25,267.63,-84.96,98.78
52.89265,-1.774406,134.62,18.78,4,275.11,20 / 20,1135412,2019-11-06 12:04:49:293,-4.0746,-1.0774,8.8269,-0.0047,0.0131,9.8066,0.0174,-0.4129,0.025,-1.75,-36.81,26.56,266.81,-84.77,98.2
52.89265,-1.774406,134.62,18.78,4,275.11,21 / 21,1135512,2019-11-06 12:04:49:393,-4.5364,-1.3853,9.2462,-0.0217,0.0223,9.8065,-0.0394,-0.2701,-0.0374,-1.12,-36.87,25.81,264.92,-84.92,94.33
52.89265,-1.774406,134.62,18.78,4,275.11,21 / 21,1135612,2019-11-06 12:04:49:493,-2.5884,0.4237,9.2852,-0.0184,0.0311,9.8065,-0.0804,-0.5582,0.1352,-0.37,-36.94,24.63,262.11,-84.9,89.59
52.89265,-1.774406,134.62,18.78,4,275.11,21 / 21,1135712,2019-11-06 12:04:49:593,-4.397,0.3362,9.6869,-0.0181,0.02,9.8066,-0.0075,-0.3824,0.0432,-0.94,-36.62,24.06,254.76,-84.87,84.75
52.89265,-1.774406,134.62,18.78,4,275.11,21 / 21,1135812,2019-11-06 12:04:49:693,-1.7376,0.6967,9.9409,-0.0569,0.0084,9.8065,0.0929,-0.7066,0.199,-0.25,-36.81,23.63,254.22,-85.05,81.55
52.89265,-1.774406,134.62,18.78,4,275.11,21 / 21,1135911,2019-11-06 12:04:49:792,-5.4922,-0.6175,9.7644,0.0078,-0.0052,9.8066,0.0723,-0.5323,0.1239,-0.19,-37.87,22.44,254.7,-85.04,82.96
52.89265,-1.774406,134.62,18.78,4,275.11,21 / 21,1136012,2019-11-06 12:04:49:893,-5.2707,-0.2086,9.5505,-0.033,-0.0175,9.8065,0.0051,-0.2377,-0.0549,-0.37,-37.06,22.13,256.76,-85.24,84.55
52.89265,-1.774406,134.62,18.78,4,275.11,21 / 21,1136112,2019-11-06 12:04:49:993,-7.0229,-2.0396,10.0716,0.0076,0.0123,9.8066,0.0792,-0.681,0.1179,0.13,-37.19,21.19,254.58,-85.21,82.72
52.89265,-1.774406,134.62,18.78,4,275.11,21 / 21,1136212,2019-11-06 12:04:50:093,-4.7975,-0.7482,9.307,-0.0092,0.0172,9.8065,0.0582,-0.5071,0.0077,0,-37.19,20.5,252.61,-85.24,80.6
52.89265,-1.774406,134.62,18.78,4,275.11,21 / 21,1136312,2019-11-06 12:04:50:193,-7.0179,-1.0416,9.7178,0.0379,0.0241,9.8065,0.0466,-0.679,0.1531,0.31,-37.06,19.88,250.01,-85.35,78.08
52.89265,-1.774406,134.62,18.78,4,275.11,21 / 21,1136412,2019-11-06 12:04:50:293,-2.4119,-1.5556,9.0396,0.0249,0.0189,9.8066,-0.028,-0.2695,-0.0713,0.56,-36.69,19.56,249.7,-85.13,75.26
52.89238,-1.775616,134,9.09,4,259.76,20 / 21,1136513,2019-11-06 12:04:50:394,-4.7038,-1.2551,9.3914,0.0053,0.0301,9.8066,-0.0033,-0.7018,0.1766,0.38,-37,19.56,244.22,-85.31,71.99
52.89238,-1.775616,134,9.09,4,259.76,20 / 21,1136612,2019-11-06 12:04:50:493,-4.4045,0.67,9.9282,-0.0187,0.007,9.8066,-0.0307,-0.3267,-0.0212,-0.12,-37.44,17.88,238.73,-85.25,67.03
52.89238,-1.775616,134,9.09,4,259.76,20 / 21,1136711,2019-11-06 12:04:50:592,-1.0325,0.0963,9.985,-0.0646,-0.0041,9.8064,0.042,-0.8794,0.2715,0.81,-37.75,17.13,240.12,-85.26,65.89
52.89238,-1.775616,134,9.09,4,259.76,20 / 21,1136811,2019-11-06 12:04:50:692,-8.1941,-1.0752,9.4429,0.0052,-0.0041,9.8065,0.0135,-0.6282,0.1783,0.56,-37.44,15.75,239.5,-85.24,65.36
52.89238,-1.775616,134,9.09,4,259.76,20 / 21,1136911,2019-11-06 12:04:50:792,-1.4809,-0.8222,9.4053,-0.0688,0.007,9.8064,-0.0576,-0.879,0.3251,1.31,-37.69,15,236.74,-85.39,62.64
52.89238,-1.775616,134,9.09,4,259.76,20 / 21,1137011,2019-11-06 12:04:50:892,-7.9036,-1.0719,9.4258,0.0273,0.0296,9.8065,0.0169,-0.784,0.2074,0.75,-36.44,14.25,232.03,-85,58.01
52.89238,-1.775616,134,9.09,4,259.76,20 / 21,1137111,2019-11-06 12:04:50:992,-3.447,0.1504,9.8984,-0.056,0.0204,9.8064,0.0758,-0.6862,0.1897,1.06,-37.37,12.69,227.25,-85.14,52.95
52.89238,-1.775616,134,9.09,4,259.76,20 / 21,1137211,2019-11-06 12:04:51:092,-6.1825,-1.1084,9.5587,0.0257,-0.0005,9.8065,0.0434,-0.6893,0.1647,0.69,-36.37,12.31,226.66,-85.06,52.61
52.89238,-1.775616,134,9.09,4,259.76,20 / 21,1137312,2019-11-06 12:04:51:193,-3.5543,-0.5808,10.0006,-0.0167,-0.0066,9.8066,0.0131,-0.3422,-0.0208,0.38,-36.75,11.25,220.95,-85.28,51.32
52.89238,-1.775616,134,9.09,4,259.76,20 / 21,1137412,2019-11-06 12:04:51:293,-3.668,-0.3686,9.6435,0.0287,0.0124,9.8065,-0.0149,-0.188,-0.1303,0.81,-36.75,10.81,224.99,-85.38,50.72
52.89238,-1.775616,134,9.09,4,259.76,22 / 22,1137512,2019-11-06 12:04:51:393,-4.4314,0.2038,10.1182,0.0153,0.0187,9.8065,-0.006,-0.3035,-0.1161,0.25,-37.94,9.63,218.41,-85.22,49.68
52.89238,-1.775616,134,9.09,4,259.76,22 / 22,1137612,2019-11-06 12:04:51:493,-2.3779,-1.4631,9.3392,-0.0028,0.013,9.8066,-0.055,-0.1979,-0.0448,-0.06,-38,9.44,214.49,-85.24,45.85
52.89238,-1.775616,134,9.09,4,259.76,22 / 22,1137711,2019-11-06 12:04:51:592,-3.7997,0.0062,9.898,0.023,0.0142,9.8065,0.0117,-0.4414,0.0458,-0.37,-37.87,9.19,213.67,-85.15,44.99
52.89238,-1.775616,134,9.09,4,259.76,22 / 22,1137811,2019-11-06 12:04:51:692,-3.1379,-0.0496,9.6592,-0.0166,0.0014,9.8066,-0.0186,-0.4507,-0.0098,0.56,-36.69,7.75,216.69,-85.29,42.49
52.89238,-1.775616,134,9.09,4,259.76,22 / 22,1137912,2019-11-06 12:04:51:793,-3.0602,-1.0595,9.8882,-0.0033,0.0124,9.8065,0.0429,-0.4744,0.0939,-0.69,-37.19,7.13,203.15,-85.21,41.1
52.89238,-1.775616,134,9.09,4,259.76,22 / 22,1138012,2019-11-06 12:04:51:893,-1.838,-0.9274,9.9052,-0.0282,-0.0005,9.8066,0.0255,-0.337,0.0197,-0.31,-37.5,6.31,206.74,-85.13,40.29
52.89238,-1.775616,134,9.09,4,259.76,22 / 22,1138112,2019-11-06 12:04:51:993,-2.6301,-0.7141,10.2071,-0.0152,0.0044,9.8066,0.0519,-0.4397,-0.0208,-0.87,-36.75,5.69,198.76,-85.18,37.63
52.89238,-1.775616,134,9.09,4,259.76,22 / 22,1138212,2019-11-06 12:04:52:093,-2.5337,-1.2551,9.4095,-0.0216,-0.0218,9.8066,0.076,-0.3479,-0.0141,-1.25,-36.81,5.56,198.44,-85.42,36.69
52.89238,-1.775616,134,9.09,4,259.76,22 / 22,1138312,2019-11-06 12:04:52:193,-2.3902,-0.2777,9.9481,-0.0137,-0.0124,9.8066,0.0229,-0.4428,0.0452,-1.5,-38.06,5.88,198.47,-85.54,36.73
52.89238,-1.775616,134,9.09,4,259.76,22 / 22,1138412,2019-11-06 12:04:52:293,-1.7872,-0.724,10.1165,-0.0333,-0.0157,9.8065,-0.0271,-0.227,-0.1662,-1.19,-37.69,4.19,191.74,-85.87,33.5
52.89238,-1.775616,134,9.09,4,259.76,20 / 22,1138512,2019-11-06 12:04:52:393,-2.4061,-0.628,10.226,-0.0395,-0.0218,9.8065,0.0157,-0.4984,0.1669,-2.06,-37.62,4.06,183.83,-85.89,32.71
52.89238,-1.775616,134,9.09,4,259.76,20 / 22,1138612,2019-11-06 12:04:52:493,-4.2379,-2.7331,10.1397,-0.0264,-0.0227,9.8066,-0.0332,-0.0235,-0.1162,-1.81,-37.37,3.75,184.02,-85.84,32.98
52.89238,-1.775616,134,9.09,4,259.76,20 / 22,1138712,2019-11-06 12:04:52:593,-1.7636,-1.6622,9.8679,-0.0427,-0.043,9.8065,0.0402,-0.274,-0.0782,-2.87,-37.44,2.94,169.34,-86.19,28.21
52.89238,-1.775616,134,9.09,4,259.76,20 / 22,1138812,2019-11-06 12:04:52:693,-4.0934,-4.1676,9.6279,0.0022,-0.0236,9.8066,0.0508,-0.5779,0.193,-3.12,-36.69,2.31,161.3,-86.48,25.97
52.89238,-1.775616,134,9.09,4,259.76,20 / 22,1138911,2019-11-06 12:04:52:792,-2.005,-2.2309,10.2122,-0.0335,-0.0375,9.8065,-0.0187,-0.1478,-0.1299,-3.31,-37.31,1.75,158.08,-86.67,21.55
52.89238,-1.775616,134,9.09,4,259.76,20 / 22,1139012,2019-11-06 12:04:52:893,-3.6892,-4.7742,10.1134,0.0016,0.0272,9.8065,-0.009,-0.2511,-0.0526,-4.25,-37.31,1.38,144.09,-86.64,22.11
52.89238,-1.775616,134,9.09,4,259.76,20 / 22,1139112,2019-11-06 12:04:52:993,-1.0542,-1.3772,9.6328,-0.013,-0.014,9.8066,-0.0241,-0.0589,-0.1795,-4.44,-37.94,0.69,139.84,-86.78,16.33
52.89238,-1.775616,134,9.09,4,259.76,20 / 22,1139212,2019-11-06 12:04:53:093,-1.3865,-2.2762,9.9355,0.0161,0.0399,9.8065,0.0048,-0.2642,-0.1376,-5.19,-37.81,0.5,135.29,-86.75,16.74
52.89238,-1.775616,134,9.09,4,259.76,20 / 22,1139312,2019-11-06 12:04:53:193,-0.8207,-1.0135,9.4912,0.008,0.0066,9.8066,-0.0537,-0.1029,-0.1922,-5.19,-37.62,0,122.51,-86.94,12.51
52.89238,-1.775616,134,9.09,4,259.76,20 / 22,1139411,2019-11-06 12:04:53:292,-0.6674,-2.0993,9.9801,0.0001,0.0365,9.8065,-0.0005,-0.1003,-0.1728,-5.81,-36.69,-0.62,112.87,-87.05,15.58
52.89238,-1.775616,134,9.09,4,259.76,21 / 22,1139512,2019-11-06 12:04:53:393,-0.8723,-5.9154,10.0341,0.01,0.03,9.8065,0.0047,-0.3044,-0.0661,-6.5,-37.37,-0.94,110.76,-87.18,14
52.89238,-1.775616,134,9.09,4,259.76,21 / 22,1139613,2019-11-06 12:04:53:494,-1.0221,-2.3772,10.0016,0.005,0.0167,9.8065,-0.036,0.0061,-0.2029,-6.94,-37.06,-1.62,96.94,-87.34,9.32
52.89238,-1.775616,134,9.09,4,259.76,21 / 22,1139712,2019-11-06 12:04:53:593,0.7527,-6.5079,10.2033,-0.0136,0.0373,9.8065,0.0343,-0.6624,0.1587,-7.56,-37,-1.81,99.17,-87.39,11.55
52.89238,-1.775616,134,9.09,4,259.76,21 / 22,1139811,2019-11-06 12:04:53:692,-0.4366,-3.8268,10.1945,0.0189,-0.0562,9.8064,0.0153,-0.3672,0.0247,-7.69,-38.44,-2.81,81,-87.74,1.57
52.89238,-1.775616,134,9.09,4,259.76,21 / 22,1139912,2019-11-06 12:04:53:793,-0.439,0.137,9.3911,0.0145,0.0124,9.8065,0.095,-0.7179,0.2132,-8.56,-37.56,-2.56,88.97,-87.89,8.91
52.89238,-1.775616,134,9.09,4,259.76,21 / 22,1140012,2019-11-06 12:04:53:893,0.5934,-4.0223,9.8479,0.0282,-0.0202,9.8065,0.0597,-0.641,0.0302,-8.75,-37.62,-3.12,82.55,-88.1,3.43
52.89238,-1.775616,134,9.09,4,259.76,21 / 22,1140112,2019-11-06 12:04:53:993,-0.5346,-0.2639,9.7086,0.0297,-0.0312,9.8066,0.0361,-0.3365,-0.0544,-9.56,-37.75,-3.31,80.11,-88.26,0.54
52.89238,-1.775616,134,9.09,4,259.76,21 / 22,1140212,2019-11-06 12:04:54:093,0.9041,-4.1726,10.3138,0.0061,0.0059,9.8066,0.0776,-0.1324,-0.045,-9.81,-37.31,-4,80.48,-88.36,6.72
52.89238,-1.775616,134,9.09,4,259.76,21 / 22,1140312,2019-11-06 12:04:54:193,0.074,-0.9022,9.4868,-0.0012,-0.0079,9.8066,-0.0356,-0.1202,-0.1883,-10.62,-36.94,-3.56,80.44,-88.57,5.94
52.89238,-1.775616,134,9.09,4,259.76,21 / 22,1140412,2019-11-06 12:04:54:293,0.4877,-1.7698,10.4388,-0.0002,0.0255,9.8066,0.0671,-0.2422,-0.0206,-10.94,-37.56,-3.87,80.04,-88.76,6.05
52.89238,-1.775616,134,9.09,4,259.76,21 / 22,1140511,2019-11-06 12:04:54:392,0.7102,-4.0314,9.8773,0.0051,0.0138,9.8066,0.0161,-0.1749,-0.1077,-11.69,-37.25,-4,75.01,-88.79,0.03
52.89238,-1.775616,134,9.09,4,259.76,21 / 22,1140612,2019-11-06 12:04:54:493,0.4178,-2.4241,10.4441,0.0012,0.0133,9.8066,-0.002,-0.3761,0.0086,-12.75,-37.75,-4.56,64.06,-88.97,-7.44
52.89238,-1.775616,134,9.09,4,259.76,21 / 22,1140712,2019-11-06 12:04:54:593,1.0329,-2.1539,9.6468,0.0215,0.0199,9.8066,0.0673,-0.2526,-0.0238,-12.62,-37.75,-4.62,59.35,-89.22,-11.45
52.89238,-1.775616,134,9.09,4,259.76,21 / 22,1140812,2019-11-06 12:04:54:693,-0.4624,-0.8075,9.528,0.0102,0.019,9.8066,0.0279,-0.4376,0.0723,-14.25,-38,-3.75,55.33,-89.32,-20.18
52.89238,-1.775616,134,9.09,4,259.76,21 / 22,1140912,2019-11-06 12:04:54:793,0.1432,-2.0691,9.8248,-0.0014,0.0002,9.8066,-0.0686,-0.2772,-0.0027,-13.56,-38.06,-4.25,43.68,-89.38,-31.49
52.89238,-1.775616,134,9.09,4,259.76,21 / 22,1141012,2019-11-06 12:04:54:893,-0.5429,-1.495,10.0609,-0.0007,0.0011,9.8066,0.0255,-0.35,0.0389,-14.69,-37.81,-4.94,36.82,-89.31,-35.75
52.89238,-1.775616,134,9.09,4,259.76,21 / 22,1141112,2019-11-06 12:04:54:993,-0.6602,-1.312,9.6494,0.0077,0.0138,9.8066,0.0603,-0.2651,-0.0575,-14.69,-37.19,-4.81,35.55,-89.44,-36.77
52.89238,-1.775616,134,9.09,4,259.76,21 / 22,1141212,2019-11-06 12:04:55:093,0.5774,-2.0124,9.494,0.0182,0.0165,9.8065,0.0504,-0.2847,-0.0366,-15.06,-37.56,-4.19,3.18,-89.65,-71.93
52.89238,-1.775616,134,9.09,4,259.76,21 / 22,1141312,2019-11-06 12:04:55:193,-0.3552,-1.5605,10.0503,0.0055,-0.0003,9.8066,-0.024,-0.1851,-0.0016,-15.62,-37.44,-4.31,342.92,-89.66,-92.81
52.89238,-1.775616,134,9.09,4,259.76,21 / 22,1141412,2019-11-06 12:04:55:293,0.4149,-1.1473,9.8659,-0.0123,0.0119,9.8066,-0.0179,-0.2203,0.0056,-15.94,-37.5,-4.31,324.43,-89.47,-110.83
52.89238,-1.775616,134,9.09,4,259.76,24 / 24,1141512,2019-11-06 12:04:55:393,0.3078,-3.9771,9.829,0.0048,0.0021,9.8066,0.034,-0.0014,-0.1718,-16.62,-38.06,-4.62,324.02,-89.42,-108.85
52.89238,-1.775616,134,9.09,4,259.76,24 / 24,1141612,2019-11-06 12:04:55:493,0.6432,-4.0941,9.9558,0.0091,0.0349,9.8066,0.0685,-0.2647,0.0141,-17.56,-37.69,-4.56,304.36,-89.39,-129.1
52.89238,-1.775616,134,9.09,4,259.76,24 / 24,1141712,2019-11-06 12:04:55:593,-0.6474,-1.9818,10.1846,-0.0019,-0.0022,9.8066,-0.0458,-0.0856,-0.1114,-18.06,-37.87,-4.19,312.96,-89.13,-123.19
52.89238,-1.775616,134,9.09,4,259.76,24 / 24,1141812,2019-11-06 12:04:55:693,-0.6712,-0.6463,9.9744,-0.0047,0.0184,9.8065,0.0268,-0.3666,0.0967,-18.81,-37.37,-4.44,307.97,-88.93,-128.52
52.89238,-1.775616,134,9.09,4,259.76,24 / 24,1141912,2019-11-06 12:04:55:793,-0.2195,-2.1552,9.9958,0.0019,0.0267,9.8065,0.0205,-0.2914,-0.0192,-18.44,-37.37,-3.75,295.08,-88.86,-140.3
52.89238,-1.775616,134,9.09,4,259.76,24 / 24,1142012,2019-11-06 12:04:55:893,-0.0001,-0.4799,9.4968,0.0251,-0.0022,9.8066,0.0231,-0.1611,-0.0217,-19.69,-37.62,-3.25,295.5,-88.53,-143.47
52.89238,-1.775616,134,9.09,4,259.76,24 / 24,1142112,2019-11-06 12:04:55:993,0.8222,-2.2788,10.3854,0.0072,0.0063,9.8066,-0.0227,-0.5668,0.1078,-19.75,-37.69,-3.62,291.58,-88.43,-144.38
52.89238,-1.775616,134,9.09,4,259.76,24 / 24,1142212,2019-11-06 12:04:56:093,0.5677,-0.0516,10.2325,0.015,-0.0403,9.8065,-0.0693,-0.4476,0.0607,-20.75,-38.44,-2.75,297.73,-88.06,-141.04
52.89238,-1.775616,134,9.09,4,259.76,24 / 24,1142312,2019-11-06 12:04:56:193,1.2412,-4.0525,10.1048,0.0269,0.0057,9.8066,0.0169,-0.5512,0.2207,-21.44,-38.31,-3.25,290.42,-87.99,-148.07
52.89238,-1.775616,134,9.09,4,259.76,24 / 24,1142412,2019-11-06 12:04:56:293,0.1089,-2.1432,9.654,0.0308,-0.0128,9.8066,0.0444,-0.3286,0.0247,-21.25,-38.25,-2.12,292.25,-87.97,-148.9
52.89238,-1.775616,134,9.09,4,259.76,22 / 22,1142512,2019-11-06 12:04:56:393,-0.2205,-3.3015,10.3399,0.0194,0.0105,9.8066,-0.0192,-0.2352,0.03,-21.87,-38.5,-2.25,290.9,-87.74,-150.26
52.89238,-1.775616,134,9.09,4,259.76,22 / 22,1142612,2019-11-06 12:04:56:493,-1.4536,-0.5063,10.4575,0.029,-0.0256,9.8065,0.0537,-0.1424,-0.1677,-23,-37.06,-2.06,283.49,-87.24,-157.22
52.89238,-1.775616,134,9.09,4,259.76,22 / 22,1142712,2019-11-06 12:04:56:593,1.2555,-1.7223,9.3295,0.0379,-0.0125,9.8065,0.1288,-0.6005,0.0574,-23.31,-37.25,-1.62,278.32,-86.92,-161.8
52.89238,-1.775616,134,9.09,4,259.76,22 / 22,1142812,2019-11-06 12:04:56:693,2.7263,-4.4429,10.2223,0.0136,-0.0069,9.8066,0.018,-0.4227,0.0828,-24.19,-37.62,-1.37,277.68,-86.6,-164.58
52.89238,-1.775616,134,9.09,4,259.76,22 / 22,1142912,2019-11-06 12:04:56:793,0.3648,-1.7093,10.1283,0.02,-0.0362,9.8065,0.0329,-0.5759,0.1573,-24.62,-37.62,-0.44,282.26,-86.4,-162.36
52.89238,-1.775616,134,9.09,4,259.76,22 / 22,1143012,2019-11-06 12:04:56:893,0.7249,-3.6417,10.1625,0.0118,0.0181,9.8066,0.0089,-0.4242,0.0375,-25.37,-37.37,-0.19,277.22,-86.22,-167.19
52.89238,-1.775616,134,9.09,4,259.76,22 / 22,1143112,2019-11-06 12:04:56:993,1.7265,-2.0687,10.1276,0.0139,-0.0054,9.8066,0.036,-0.3774,0.0123,-25.56,-38.06,0.06,275.82,-86.11,-168.49
52.89238,-1.775616,134,9.09,4,259.76,22 / 22,1143212,2019-11-06 12:04:57:093,0.9423,-2.5255,10.0836,0.0107,-0.0047,9.8066,0.0238,-0.3527,-0.0118,-25.87,-37.37,0.5,275.66,-85.91,-170.72
52.89238,-1.775616,134,9.09,4,259.76,22 / 22,1143314,2019-11-06 12:04:57:195,0.9693,-2.5597,10.3527,0.021,0.0048,9.8066,0.0138,-0.3329,0.0199,-26.31,-37,0.75,274.3,-85.74,-171.83
52.89238,-1.775616,134,9.09,4,259.76,22 / 22,1143412,2019-11-06 12:04:57:293,0.8502,-3.2517,9.8692,0.0372,0.03,9.8065,-0.0098,-0.2077,-0.1356,-26.69,-37.81,1.5,272.52,-85.46,-175.32
52.89238,-1.775616,134,9.09,4,259.76,22 / 22,1143512,2019-11-06 12:04:57:393,1.018,-0.28,9.5386,0.0185,-0.0155,9.8066,-0.0025,-0.368,0.0133,-27.56,-37.62,2.13,270.94,-85.33,-176.79
52.89238,-1.775616,134,9.09,4,259.76,22 / 22,1143612,2019-11-06 12:04:57:493,0.5075,-3.5572,9.67,-0.0055,-0.0019,9.8066,-0.0083,-0.6275,0.1442,-27.25,-38,2.63,270.47,-85.28,-179.23
52.89238,-1.775616,134,9.09,4,259.76,22 / 22,1143713,2019-11-06 12:04:57:594,-0.0654,-1.3275,9.5094,0.0045,-0.0295,9.8066,0.0438,-0.547,0.1804,-27.94,-37.5,3.25,270.02,-85.25,-179.83
52.89238,-1.775616,134,9.09,4,259.76,22 / 22,1143812,2019-11-06 12:04:57:693,0.5915,-4.1897,10.049,-0.0057,0.0356,9.8066,0.0633,-0.6476,0.2431,-28.06,-37.62,3.81,266.25,-85.33,174.39
52.89238,-1.775616,134,9.09,4,259.76,22 / 22,1143912,2019-11-06 12:04:57:793,-0.037,2.8727,9.2616,0.0242,-0.0108,9.8066,-0.0528,0.0615,-0.2649,-27.87,-37.69,3,263.63,-85.26,173.87
52.89238,-1.775616,134,9.09,4,259.76,22 / 22,1144012,2019-11-06 12:04:57:893,-0.172,-4.2187,10.2438,-0.0007,0.0606,9.8064,0.0442,-0.4652,0.1514,-28.56,-37.81,3.44,260.39,-85.03,170.86
52.89238,-1.775616,134,9.09,4,259.76,22 / 22,1144112,2019-11-06 12:04:57:993,0.7865,-3.6638,9.9531,0.008,-0.0201,9.8066,-0.021,0.2196,-0.2335,-28.37,-38.75,4.44,262.88,-84.83,171.83
52.89238,-1.775616,134,9.09,4,259.76,22 / 22,1144211,2019-11-06 12:04:58:092,0.6013,-3.758,9.836,0.0108,0.0225,9.8065,0.0395,-0.0195,-0.0794,-28.94,-38.12,5.38,262.99,-84.73,169.97
52.89238,-1.775616,134,9.09,4,259.76,22 / 22,1144313,2019-11-06 12:04:58:194,0.887,-2.4698,9.8962,0.0085,-0.0399,9.8065,-0.0115,0.2195,-0.2157,-29.06,-38.19,4.69,261.37,-84.66,168.41
52.89238,-1.775616,134,9.09,4,259.76,22 / 22,1144412,2019-11-06 12:04:58:293,0.7812,2.1746,10.019,0.0101,-0.0185,9.8066,-0.0444,0.1868,-0.165,-29.06,-38,4.81,262.78,-84.56,169.97
52.89238,-1.775616,134,9.09,4,259.76,21 / 21,1144513,2019-11-06 12:04:58:394,0.8202,-1.2507,9.8028,0.0131,-0.026,9.8065,-0.0478,0.1555,-0.1217,-29.69,-37.81,4.75,262.76,-84.49,170.12
52.89238,-1.775616,134,9.09,4,259.76,21 / 21,1144612,2019-11-06 12:04:58:493,1.8644,1.7836,10.3114,0.0107,-0.0427,9.8064,-0.0292,-0.3164,0.2308,-29,-37.5,4.69,262.6,-84.49,169.7
52.89238,-1.775616,134,9.09,4,259.76,21 / 21,1144712,2019-11-06 12:04:58:593,-0.1311,-3.3498,9.6665,-0.0001,-0.0375,9.8065,0.0079,0.0747,-0.1132,-29.37,-38,5.06,260.21,-84.42,167.53
52.89238,-1.775616,134,9.09,4,259.76,21 / 21,1144812,2019-11-06 12:04:58:693,0.3746,0.0451,9.4055,-0.0033,-0.0441,9.8065,0.0669,-0.2227,0.0667,-28.87,-37.56,5.69,263.9,-84.4,169.36
52.89238,-1.775616,134,9.09,4,259.76,21 / 21,1144912,2019-11-06 12:04:58:793,0.7134,-1.3819,10.2537,0.0023,-0.0065,9.8066,0.0021,-0.0856,0.1496,-29.75,-38.06,5.38,262.24,-84.27,169.88
52.89238,-1.775616,134,9.09,4,259.76,21 / 21,1145012,2019-11-06 12:04:58:893,1.1875,1.3356,10.07,0.0111,-0.0458,9.8065,-0.0345,-0.1528,0.1355,-28.94,-37.62,5.06,265.67,-84.28,173.28
52.89238,-1.775616,134,9.09,4,259.76,21 / 21,1145112,2019-11-06 12:04:58:993,-0.0744,0.7456,9.5121,-0.0081,-0.0088,9.8066,0.0624,-0.1888,0.1102,-29.5,-37.37,4.69,267.11,-84.3,174.52
52.89238,-1.775616,134,9.09,4,259.76,21 / 21,1145212,2019-11-06 12:04:59:093,0.493,1.9283,9.4298,0.0118,-0.0165,9.8066,-0.0518,0.0188,0.0266,-29.06,-37.94,5.38,268.65,-84.19,176.41
52.89238,-1.775616,134,9.09,4,259.76,21 / 21,1145312,2019-11-06 12:04:59:193,0.4932,0.3653,9.3868,0.0089,0.0037,9.8066,-0.0137,-0.1889,0.0657,-29.69,-37.25,5,269.75,-84.28,177.29
52.89238,-1.775616,134,9.09,4,259.76,21 / 21,1145412,2019-11-06 12:04:59:293,0.6026,-1.1953,10.7477,-0.0244,0.0035,9.8065,0.1129,-0.1335,0.1186,-29.94,-38.19,5.06,269.71,-84.27,177.45
52.892803,-1.77571,133.04,10.72,4,55.28,22 / 23,1145512,2019-11-06 12:04:59:393,1.4658,0.6006,9.8213,-0.0095,0.0198,9.8066,0.014,-0.0256,0.1084,-29.44,-37,5.06,270.91,-84.33,178.3
52.892803,-1.77571,133.04,10.72,4,55.28,22 / 23,1145612,2019-11-06 12:04:59:493,0.0037,0.0967,10.5825,-0.0147,-0.023,9.8065,-0.0966,0.1002,0.0058,-29.75,-37.62,4.81,273,-84.41,-179.44
52.892803,-1.77571,133.04,10.72,4,55.28,22 / 23,1145712,2019-11-06 12:04:59:593,-0.3401,0.6446,10.558,-0.0125,-0.0218,9.8066,0.0022,0.0787,0.0132,-30.25,-37.44,4.44,274.2,-84.47,-176.59
52.892803,-1.77571,133.04,10.72,4,55.28,22 / 23,1145812,2019-11-06 12:04:59:693,1.2731,0.6863,10.5898,-0.0038,-0.0205,9.8065,-0.0048,0.1166,0.0376,-29.87,-37.62,4.5,277.63,-84.43,-174.86
52.892803,-1.77571,133.04,10.72,4,55.28,22 / 23,1145912,2019-11-06 12:04:59:793,1.5348,2.5568,9.2808,0.0145,0.0004,9.8066,-0.0651,-0.1197,0.094,-30.25,-37.37,4.63,279.6,-84.25,-172.87
52.892803,-1.77571,133.04,10.72,4,55.28,22 / 23,1146012,2019-11-06 12:04:59:893,-0.1469,1.7026,9.318,-0.0088,0.0006,9.8066,-0.1559,0.3898,0.0304,-30.56,-37.25,3.63,279.52,-84.36,-171.16
52.892803,-1.77571,133.04,10.72,4,55.28,22 / 23,1146112,2019-11-06 12:04:59:993,0.7144,2.4302,9.5588,-0.0229,-0.0135,9.8066,-0.0364,0.2118,-0.1786,-30,-37.31,4.38,281.86,-84.71,-169.32
52.892803,-1.77571,133.04,10.72,4,55.28,22 / 23,1146212,2019-11-06 12:05:00:093,-0.0025,2.2781,9.477,-0.0146,0.0228,9.8065,-0.0199,0.2812,-0.0219,-30.44,-37.75,3.31,277.56,-84.89,-171.7
52.892803,-1.77571,133.04,10.72,4,55.28,22 / 23,1146312,2019-11-06 12:05:00:193,-0.6851,3.608,8.9413,0.0212,-0.0231,9.8065,-0.1167,0.3489,-0.1159,-29.37,-37.19,3.63,278.79,-84.88,-172.6
52.892803,-1.77571,133.04,10.72,4,55.28,22 / 23,1146412,2019-11-06 12:05:00:293,0.9127,3.9157,10.1032,0.0176,-0.0187,9.8066,0.0232,0.0352,0.0509,-28.69,-36.81,2.13,275.43,-84.72,-171.77
52.892803,-1.77571,133.04,10.72,4,55.28,21 / 21,1146512,2019-11-06 12:05:00:393,0.6915,1.0383,10.1796,0.0028,0.0136,9.8066,0.0232,0.1154,0.1125,-29.69,-37.25,3.06,276.25,-84.49,-172.67
52.892803,-1.77571,133.04,10.72,4,55.28,21 / 21,1146612,2019-11-06 12:05:00:493,-1.3696,4.0734,10.3435,0.0126,-0.0228,9.8066,0.0443,-0.0183,0.0885,-28.87,-36.94,2.38,274.35,-84.36,-172.37
52.892803,-1.77571,133.04,10.72,4,55.28,21 / 21,1146712,2019-11-06 12:05:00:593,-1.4191,0.2938,9.6754,-0.005,0.0402,9.8065,0.0597,0,0.0825,-27.75,-37.44,2.31,269.37,-84.18,-177
52.892803,-1.77571,133.04,10.72,4,55.28,21 / 21,1146812,2019-11-06 12:05:00:693,-1.7789,2.4265,9.9311,-0.0023,0.0364,9.8065,-0.0112,0.441,-0.0592,-27.5,-37.69,1.88,266.95,-84,-178.83
52.892803,-1.77571,133.04,10.72,4,55.28,21 / 21,1146912,2019-11-06 12:05:00:793,-1.8807,6.5358,10.2865,0.0091,0.0044,9.8065,0.0097,0.2166,-0.1702,-27.06,-37,1.44,264.74,-84.28,-179.56
52.892803,-1.77571,133.04,10.72,4,55.28,21 / 21,1147012,2019-11-06 12:05:00:893,-3.5717,0.7744,8.6834,0.0094,0.0474,9.8065,0.133,0.6834,-0.1021,-27.44,-36.75,1.06,263.48,-83.97,179.59
52.892803,-1.77571,133.04,10.72,4,55.28,21 / 21,1147112,2019-11-06 12:05:00:993,-0.1513,7.5756,10.9728,-0.0052,-0.0714,9.8063,-0.0627,0.5331,-0.3517,-27,-38.19,1.25,268.74,-83.51,-174.19
52.892803,-1.77571,133.04,10.72,4,55.28,21 / 21,1147212,2019-11-06 12:05:01:093,-1.7411,3.6528,6.9271,-0.0086,0.0343,9.8065,0.1995,0.1309,-0.1367,-26.75,-37.81,1.25,268.74,-83.84,-174.65
52.892803,-1.77571,133.04,10.72,4,55.28,21 / 21,1147312,2019-11-06 12:05:01:193,0.3814,2.3886,11.6942,0.0282,0.0124,9.8066,-0.1806,0.3934,0.0862,-26.06,-37.69,0.75,272.22,-83.99,-171.14
52.892803,-1.77571,133.04,10.72,4,55.28,21 / 21,1147412,2019-11-06 12:05:01:293,1.7063,6.0456,11.1095,0.0316,-0.0154,9.8066,0.2079,0.3954,-0.2329,-25.44,-37.62,0.19,271.46,-84.21,-169.66
52.892803,-1.77571,133.04,10.72,4,55.28,20 / 21,1147513,2019-11-06 12:05:01:394,0.6516,-2.5174,9.6212,0.0262,0.0339,9.8065,0.0957,-0.1847,0.289,-25.81,-37.5,0,274.28,-84.11,-167.28
52.892803,-1.77571,133.04,10.72,4,55.28,20 / 21,1147611,2019-11-06 12:05:01:492,-1.2986,7.5302,9.736,0.0178,-0.0875,9.8062,-0.0485,0.6789,-0.1318,-25.69,-36.87,-0.5,274.76,-83.88,-166.46
52.892803,-1.77571,133.04,10.72,4,55.28,20 / 21,1147712,2019-11-06 12:05:01:593,-0.1127,2.3927,10.0762,-0.0146,0.0043,9.8066,-0.1036,0.4209,-0.1286,-25.5,-37.69,-1.06,270.64,-83.96,-167.81
52.892803,-1.77571,133.04,10.72,4,55.28,20 / 21,1147812,2019-11-06 12:05:01:693,-0.8061,5.8875,9.4245,0.0138,-0.0339,9.8066,-0.0302,0.354,-0.1164,-24.87,-37.19,-0.94,273.07,-83.94,-165.6
52.892803,-1.77571,133.04,10.72,4,55.28,20 / 21,1147912,2019-11-06 12:05:01:793,-0.7502,3.7267,9.4621,0.0075,0.0076,9.8065,0.0557,0.1551,-0.0446,-24.81,-37.87,-1.81,271.62,-83.88,-164.45
52.892803,-1.77571,133.04,10.72,4,55.28,20 / 21,1148012,2019-11-06 12:05:01:893,-0.3054,2.7471,9.8635,0.0041,-0.0304,9.8066,0.0379,0.2562,-0.0735,-23.81,-37.31,-1.94,274.94,-83.82,-160.73
52.892803,-1.77571,133.04,10.72,4,55.28,20 / 21,1148111,2019-11-06 12:05:01:992,2.7654,1.8198,9.6607,0.0028,-0.0223,9.8066,-0.0356,0.0293,0.2061,-24.31,-37.5,-1.69,276.62,-83.66,-158.82
52.892803,-1.77571,133.04,10.72,4,55.28,20 / 21,1148212,2019-11-06 12:05:02:093,-1.6488,3.0203,8.4706,0.0178,-0.0457,9.8065,0.0381,-0.058,0.2145,-24,-37.37,-1.87,279.2,-83.38,-155.84
52.892803,-1.77571,133.04,10.72,4,55.28,20 / 21,1148312,2019-11-06 12:05:02:193,-1.2672,1.6645,8.8669,0.0213,-0.0455,9.8065,-0.0143,0.3162,-0.0591,-23.37,-37.56,-1.44,284.47,-83.36,-152.23
52.892803,-1.77571,133.04,10.72,4,55.28,20 / 21,1148412,2019-11-06 12:05:02:293,-0.7486,1.9403,10.4223,0.0256,-0.0318,9.8065,0.0974,-0.0231,0.0419,-23.75,-36.81,-2.5,284.71,-83.34,-150.44
52.892803,-1.77571,133.04,10.72,4,55.28,20 / 20,1148513,2019-11-06 12:05:02:394,0.7803,-0.6708,10.1277,0.0402,-0.0059,9.8065,0.0683,-0.1191,0.1367,-24,-36.5,-1.69,284.75,-83.03,-150.21
52.892803,-1.77571,133.04,10.72,4,55.28,20 / 20,1148612,2019-11-06 12:05:02:493,-0.7181,0.1729,9.493,-0.0033,-0.0387,9.8065,0.0006,-0.0066,0.0254,-23.87,-36.87,-1.25,288.39,-83.08,-148.89
52.892803,-1.77571,133.04,10.72,4,55.28,20 / 20,1148712,2019-11-06 12:05:02:593,-0.1573,0.0626,10.045,-0.0098,-0.0175,9.8065,-0.075,-0.0843,0.103,-23.87,-37.19,-1.87,285.76,-83.13,-149.11
52.892803,-1.77571,133.04,10.72,4,55.28,20 / 20,1148812,2019-11-06 12:05:02:693,-0.5743,1.202,9.603,-0.0025,0.0009,9.8066,-0.0211,0.0189,0.0499,-23.62,-36.87,-2,286.23,-83.27,-148.88
52.892803,-1.77571,133.04,10.72,4,55.28,20 / 20,1148912,2019-11-06 12:05:02:793,-0.2973,0.6773,9.6859,0.0172,0.0189,9.8065,0.0273,-0.1251,0.0755,-23.75,-36.75,-1.75,284.74,-83.08,-150.01
52.892803,-1.77571,133.04,10.72,4,55.28,20 / 20,1149012,2019-11-06 12:05:02:893,1.099,-0.0181,10.0369,0.0031,0.0283,9.8066,0.0403,0.0832,0.0274,-23.69,-37.25,-2.12,283.44,-83.05,-151.21
52.892803,-1.77571,133.04,10.72,4,55.28,20 / 20,1149112,2019-11-06 12:05:02:993,-0.3995,1.6393,10.3065,0.0002,0.0197,9.8065,-0.1087,0.1048,0.0595,-23.69,-37.12,-1.44,285.01,-82.98,-151.95
52.892803,-1.77571,133.04,10.72,4,55.28,20 / 20,1149212,2019-11-06 12:05:03:093,-0.3616,2.0687,9.3472,0.011,0.0172,9.8066,-0.0315,0.163,-0.1384,-23.75,-37.44,-1.31,285.85,-83,-151.18
52.892803,-1.77571,133.04,10.72,4,55.28,20 / 20,1149311,2019-11-06 12:05:03:192,-0.0093,1.3812,9.4215,-0.0131,0.0076,9.8066,-0.0007,-0.0671,0.0589,-23.75,-36.62,-1.75,284.09,-83.11,-150.68
52.892803,-1.77571,133.04,10.72,4,55.28,20 / 20,1149412,2019-11-06 12:05:03:293,-0.326,0.3602,9.7131,-0.0003,0.018,9.8065,0.1178,-0.0434,-0.0335,-23.44,-37.06,-2.12,283.09,-83.21,-151.15
52.892803,-1.77571,133.04,10.72,4,55.28,21 / 21,1149512,2019-11-06 12:05:03:393,-0.1447,0.6014,10.3315,0.0254,0.0177,9.8065,0.0834,-0.0284,0.0034,-23.69,-36.37,-1.94,283.09,-83,-151.76
52.892803,-1.77571,133.04,10.72,4,55.28,21 / 21,1149612,2019-11-06 12:05:03:493,0.4865,0.0187,10.7686,0.0031,-0.0189,9.8066,0.0727,-0.0139,0.0745,-23.5,-37.25,-2.44,282.7,-82.96,-151.11
52.892803,-1.77571,133.04,10.72,4,55.28,21 / 21,1149711,2019-11-06 12:05:03:592,-0.79,1.0982,8.6404,0.0041,0.0074,9.8066,0.1081,-0.1073,0.0482,-23.56,-37.25,-2.12,283.06,-82.96,-151.43
52.892803,-1.77571,133.04,10.72,4,55.28,21 / 21,1149812,2019-11-06 12:05:03:693,-0.062,0.5202,9.2392,-0.029,0.0046,9.8066,-0.0498,-0.0005,-0.0425,-23.44,-37.5,-2.12,282.63,-82.96,-151.18
52.892803,-1.77571,133.04,10.72,4,55.28,21 / 21,1149912,2019-11-06 12:05:03:793,-0.1026,0.7841,9.6657,-0.0177,0.0033,9.8066,0.0361,-0.0547,0.0373,-23.69,-36.94,-2.69,280.76,-82.98,-151.38
52.892803,-1.77571,133.04,10.72,4,55.28,21 / 21,1150011,2019-11-06 12:05:03:892,-1.6522,-0.2925,9.9278,-0.0189,0.0157,9.8066,0.0835,0.1163,-0.151,-23.19,-36.87,-2.06,282.49,-83.2,-151.71
52.892803,-1.77571,133.04,10.72,4,55.28,21 / 21,1150111,2019-11-06 12:05:03:992,0.2161,0.3124,10.024,0.0155,0.0345,9.8066,0.0403,-0.0477,-0.1472,-22.87,-36.81,-1.75,281.27,-82.97,-152.5
52.892803,-1.77571,133.04,10.72,4,55.28,21 / 21,1150211,2019-11-06 12:05:04:092,-0.7013,0.141,9.8155,-0.0013,-0.0191,9.8066,-0.1258,0.2512,0.0705,-23.12,-36.62,-2.37,281.73,-82.96,-152.05
52.892803,-1.77571,133.04,10.72,4,55.28,21 / 21,1150311,2019-11-06 12:05:04:192,-0.9943,1.9975,9.2372,-0.0175,0.0157,9.8065,0.0151,-0.2028,-0.0068,-23.94,-36.81,-1.94,281.93,-82.96,-152.53
52.892803,-1.77571,133.04,10.72,4,55.28,21 / 21,1150411,2019-11-06 12:05:04:292,0.4775,1.2652,9.2991,0.0006,-0.0053,9.8066,0.0243,-0.0681,0.1452,-23.12,-36.19,-1.75,282.6,-82.83,-151.31
52.892803,-1.77571,133.04,10.72,4,55.28,21 / 22,1150511,2019-11-06 12:05:04:392,-0.1936,0.6979,9.8415,-0.002,0.0039,9.8066,0.0221,-0.0642,-0.1792,-23.37,-36.44,-0.87,284.04,-82.91,-152.5
