GPS LATITUDE (degrees), GPS LONGITUDE (degrees), GPS ALTITUDE (m), GPS SPEED (Kmh), GPS ACCURACY (m), GPS ORIENTATION (Â°),GPS SATELLITES IN RANGE, TIME SINCE START (ms), DATE (YYYY-MO-DD HH-MI-SS_SSS), ACCELEROMETER X (m/s²) , ACCELEROMETER Y (m/s²), ACCELEROMETER Z (m/s²), GRAVITY X (m/s²), GRAVITY Y (m/s²), GRAVITY Z (m/s²), GYROSCOPE Yaw (rad/s), GYROSCOPE Pitch (rad/s), GYROSCOPE Roll (rad/s), MAGNETIC FIELD X (Î¼T), MAGNETIC FIELD Y (Î¼T), MAGNETIC FIELD Z (Î¼T), ORIENTATION (Yaw) (Â°), ORIENTATION (Pitch) (Â°), ORIENTATION (Roll ) (Â°)
52.749237,-1.674216,145.05,15.96,4,344.96,22 / 23,2582120,2019-11-06 11:24:49:463,2.1313,2.4238,10.5873,-0.04,0.0362,9.8065,-0.1319,-0.5064,0.2103,-11.94,-36.87,-5.12,114.71,-83.41,30.13
52.749237,-1.674216,145.05,15.96,4,344.96,22 / 23,2582219,2019-11-06 11:24:49:562,4.2057,5.354,9.6843,-0.1044,0.0729,9.8058,0.0953,0.1142,-0.0091,-12.19,-37.44,-5.25,117.28,-82.68,31.17
52.749237,-1.674216,145.05,15.96,4,344.96,22 / 23,2582319,2019-11-06 11:24:49:662,4.5989,3.7788,8.5874,-0.0073,-0.0752,9.8063,-0.0645,0.3465,0.1576,-12.31,-36.87,-4.87,117.28,-82.68,31.17
52.749237,-1.674216,145.05,15.96,4,344.96,22 / 23,2582419,2019-11-06 11:24:49:762,6.2521,-1.6378,9.1008,0.0089,-0.0767,9.8063,-0.1832,0.0281,-0.1796,-12.19,-37,-5,114.59,-82.83,27.88
52.749237,-1.674216,145.05,15.96,4,344.96,22 / 23,2582520,2019-11-06 11:24:49:863,2.3342,-0.8084,8.2084,-0.0454,-0.0263,9.8064,-0.2086,-0.0229,0.4109,-11.69,-36.69,-5.81,105.15,-82.75,22.04
52.749237,-1.674216,145.05,15.96,4,344.96,22 / 23,2582620,2019-11-06 11:24:49:963,0.0483,2.008,8.3776,-0.1591,-0.0732,9.805,0.0047,-0.0919,-0.0207,-11.44,-36.75,-6,105.15,-82.75,22.04
52.749237,-1.674216,145.05,15.96,4,344.96,22 / 23,2582720,2019-11-06 11:24:50:063,1.0079,-3.3619,9.6558,-0.0094,-0.0204,9.8065,-0.0289,-0.4958,0.2427,-11.75,-36.94,-6.25,103.03,-81.93,17.36
52.749237,-1.674216,145.05,15.96,4,344.96,22 / 23,2582819,2019-11-06 11:24:50:162,4.387,0.6224,9.3556,-0.057,0.0481,9.8063,0.0971,-0.5047,0.1608,-11.44,-37.19,-6.19,102.6,-81.73,16.58
52.749237,-1.674216,145.05,15.96,4,344.96,22 / 23,2582919,2019-11-06 11:24:50:262,0.1107,1.7973,11.2978,0.0057,-0.0207,9.8066,0.0258,-0.447,0.289,-11.56,-36.94,-5.62,106.3,-81.17,18.8
52.749374,-1.674284,145.03,16.51,4,341.88,22 / 23,2583020,2019-11-06 11:24:50:363,0.2836,-0.523,11.2199,0.0248,0.0011,9.8066,0.1515,-0.0607,-0.0608,-11.62,-36.5,-5.94,106.3,-81.17,18.8
52.749374,-1.674284,145.03,16.51,4,341.88,22 / 23,2583120,2019-11-06 11:24:50:463,1.2006,3.5724,10.5103,0.0077,0.0704,9.8064,-0.0369,-0.0541,0.0302,-11.37,-37.06,-6.12,108.6,-81.1,21.47
52.749374,-1.674284,145.03,16.51,4,341.88,22 / 23,2583220,2019-11-06 11:24:50:563,2.9194,-0.1452,10.3102,0.0275,-0.0646,9.8063,0.1487,0.0764,0.0626,-11.87,-37,-5.94,110.74,-81.1,23.76
52.749374,-1.674284,145.03,16.51,4,341.88,22 / 23,2583319,2019-11-06 11:24:50:662,1.435,-2.7715,10.1258,0.0268,-0.1033,9.806,-0.1262,0.288,-0.2035,-12.19,-36.81,-5.62,110.74,-81.1,23.76
52.749374,-1.674284,145.03,16.51,4,341.88,22 / 23,2583420,2019-11-06 11:24:50:763,-0.811,1.1002,9.8647,-0.0086,0.0439,9.8065,0.0555,0.5223,-0.1099,-11.37,-36.87,-6.69,106.07,-81.45,20.34
52.749374,-1.674284,145.03,16.51,4,341.88,22 / 23,2583520,2019-11-06 11:24:50:863,3.1271,3.7916,8.4494,-0.02,-0.0221,9.8065,-0.1504,0.31,-0.0198,-11.19,-36.87,-6,108.41,-81.26,21.74
52.749374,-1.674284,145.03,16.51,4,341.88,22 / 23,2583620,2019-11-06 11:24:50:963,3.4503,-0.636,9.6986,-0.0713,-0.0673,9.8061,-0.1042,0.0577,-0.0863,-10.94,-37.06,-6.37,106.43,-80.97,18.52
52.749374,-1.674284,145.03,16.51,4,341.88,22 / 23,2583720,2019-11-06 11:24:51:063,1.689,-0.7608,9.3963,-0.0254,0.0477,9.8065,-0.0213,-0.1339,0.2351,-11.25,-37,-6.75,106.43,-80.97,18.52
52.749374,-1.674284,145.03,16.51,4,341.88,22 / 23,2583820,2019-11-06 11:24:51:163,2.5946,5.5741,8.013,0.0181,0.0667,9.8064,-0.1496,-0.49,0.2763,-10.31,-36.25,-6.87,103.91,-80.75,19.92
52.749374,-1.674284,145.03,16.51,4,341.88,22 / 23,2583920,2019-11-06 11:24:51:263,-0.4126,3.3233,9.3564,-0.0131,0.0552,9.8064,-0.0712,0.0259,-0.0408,-10.31,-36.44,-6.44,109.32,-80.59,21.72
52.749516,-1.674365,144.99,16.84,4,337.67,22 / 23,2584020,2019-11-06 11:24:51:363,-0.667,-1.6195,10.2026,0.007,-0.0126,9.8066,0.1126,0.0899,0.0041,-10.12,-36.31,-7,109.32,-80.59,21.72
52.749516,-1.674365,144.99,16.84,4,337.67,22 / 23,2584119,2019-11-06 11:24:51:462,1.5132,-0.3851,9.9932,0.0838,0.0028,9.8063,0.0254,0.0605,-0.0535,-10.44,-37,-5.87,109.7,-80.66,21.38
52.749516,-1.674365,144.99,16.84,4,337.67,22 / 23,2584220,2019-11-06 11:24:51:563,2.7313,0.0224,9.428,0.0959,0.0014,9.8061,-0.0007,0.0175,0.1079,-10.56,-36.37,-6.62,104.51,-81.18,22.66
52.749516,-1.674365,144.99,16.84,4,337.67,22 / 23,2584319,2019-11-06 11:24:51:662,0.2516,2.5841,9.5365,-0.0521,0.0115,9.8065,-0.0469,-0.1163,0.287,-10.87,-36.69,-6.06,110.16,-80.87,22.59
52.749516,-1.674365,144.99,16.84,4,337.67,22 / 23,2584420,2019-11-06 11:24:51:763,2.2958,0.3694,9.4419,-0.0174,0.0209,9.8065,-0.0131,-0.0661,-0.1237,-10.56,-36.25,-6.56,110.16,-80.87,22.59
52.749516,-1.674365,144.99,16.84,4,337.67,22 / 23,2584520,2019-11-06 11:24:51:863,-0.2023,-0.2276,9.5231,-0.0198,0.007,9.8065,-0.0246,0.034,0.1796,-10.06,-36.81,-6.25,110.78,-80.73,23.09
52.749516,-1.674365,144.99,16.84,4,337.67,22 / 23,2584620,2019-11-06 11:24:51:963,-0.4278,-0.3639,10.0669,-0.011,-0.0003,9.8066,0.0557,0.0472,-0.1254,-9.87,-36.69,-5.69,110.82,-80.67,22.93
52.749516,-1.674365,144.99,16.84,4,337.67,22 / 23,2584720,2019-11-06 11:24:52:063,1.7749,0.8536,9.6588,-0.0077,0.0039,9.8066,-0.0075,0.2846,-0.1613,-10.06,-36.5,-5.87,110.82,-80.67,22.93
52.749516,-1.674365,144.99,16.84,4,337.67,22 / 23,2584820,2019-11-06 11:24:52:163,3.7067,-1.0896,9.5379,-0.0128,0.0328,9.8065,-0.1834,0.138,0.0149,-9.56,-36.56,-6.44,110.27,-80.62,22.97
52.749516,-1.674365,144.99,16.84,4,337.67,22 / 23,2584920,2019-11-06 11:24:52:263,3.1855,0.4519,10.183,-0.0044,-0.0233,9.8065,0.0328,-0.0261,0.0729,-9.5,-36.81,-5.75,111.55,-80.41,23.06
52.749653,-1.674459,144.95,17.19,4,334.68,22 / 23,2585020,2019-11-06 11:24:52:363,3.7937,-0.3907,9.6142,-0.0415,-0.0527,9.8064,-0.0877,0.115,0.0455,-9.19,-36.5,-6.56,104.31,-80.29,20.83
52.749653,-1.674459,144.95,17.19,4,334.68,22 / 23,2585119,2019-11-06 11:24:52:462,2.3205,-0.3943,9.0711,-0.0198,-0.0388,9.8065,-0.1248,0.106,-0.0852,-9.56,-37.06,-6.19,104.31,-80.29,20.83
52.749653,-1.674459,144.95,17.19,4,334.68,22 / 23,2585220,2019-11-06 11:24:52:563,1.0894,-0.0859,8.4647,-0.0218,0.013,9.8065,-0.0775,0.0044,0.1099,-9.87,-36.75,-6.12,109.51,-80.04,19.11
52.749653,-1.674459,144.95,17.19,4,334.68,22 / 23,2585320,2019-11-06 11:24:52:663,2.5646,1.1867,9.1833,-0.0451,0.0381,9.8064,-0.1044,-0.156,-0.0346,-10.12,-36.69,-6.56,106.37,-79.71,19.79
52.749653,-1.674459,144.95,17.19,4,334.68,22 / 23,2585420,2019-11-06 11:24:52:763,2.6061,-0.3804,9.4844,-0.0644,0.0835,9.806,-0.0359,0.0009,0.0692,-10.25,-36.56,-6.5,106.37,-79.71,19.79
52.749653,-1.674459,144.95,17.19,4,334.68,22 / 23,2585520,2019-11-06 11:24:52:863,2.4101,-3.9064,9.6894,-0.0571,-0.1188,9.8057,-0.0976,0.526,-0.1597,-9.81,-36.37,-7,108.56,-79.21,21.73
52.749653,-1.674459,144.95,17.19,4,334.68,22 / 23,2585620,2019-11-06 11:24:52:963,0.6392,4.1406,9.265,-0.0723,-0.1467,9.8052,-0.0275,0.476,-0.3337,-9.5,-36.31,-7.37,104.8,-79.04,16.74
52.749653,-1.674459,144.95,17.19,4,334.68,22 / 23,2585720,2019-11-06 11:24:53:063,1.2771,2.1974,9.6542,-0.0107,0.0161,9.8066,-0.0382,0.19,-0.0243,-9.56,-35.81,-7,105.51,-78.95,17.13
52.749653,-1.674459,144.95,17.19,4,334.68,22 / 23,2585820,2019-11-06 11:24:53:163,-0.8254,-3.3353,10.0351,-0.0082,-0.0431,9.8065,0.057,-0.1221,0.0486,-9.81,-35.75,-6.62,105.51,-78.95,17.13
52.749653,-1.674459,144.95,17.19,4,334.68,22 / 23,2585920,2019-11-06 11:24:53:263,1.098,-1.2996,10.9459,0.0135,-0.0169,9.8066,-0.08,0.0341,-0.0189,-10.25,-36.25,-6.94,104.34,-78.97,15.8
52.74979,-1.674561,144.94,17.19,4,334.64,22 / 23,2586020,2019-11-06 11:24:53:363,2.1391,0.3084,10.2343,0.0264,-0.0286,9.8065,-0.0408,-0.2708,0.1959,-10.44,-36.25,-6.87,103.22,-79.16,15.14
52.74979,-1.674561,144.94,17.19,4,334.64,22 / 23,2586120,2019-11-06 11:24:53:463,-0.7622,-1.2219,10.0089,-0.0334,-0.0436,9.8064,0.0621,-0.0274,-0.0314,-9.94,-36.31,-7.25,103.22,-79.16,15.14
52.74979,-1.674561,144.94,17.19,4,334.64,22 / 23,2586220,2019-11-06 11:24:53:563,-1.833,2.4792,8.5168,-0.0182,-0.01,9.8066,-0.0624,-0.2346,0.0386,-10.44,-36.31,-7.25,102.32,-79.03,13.6
52.74979,-1.674561,144.94,17.19,4,334.64,22 / 23,2586320,2019-11-06 11:24:53:663,-1.1156,1.3603,9.1596,-0.083,0.0052,9.8062,-0.0409,0.0162,-0.185,-10.44,-35.69,-7.06,103.46,-78.55,13.23
52.74979,-1.674561,144.94,17.19,4,334.64,22 / 23,2586420,2019-11-06 11:24:53:763,1.37,-3.0444,9.038,0.0208,-0.0141,9.8065,-0.0183,0.2108,0.081,-10.81,-36.69,-7.31,103.46,-78.55,13.23
52.74979,-1.674561,144.94,17.19,4,334.64,22 / 23,2586520,2019-11-06 11:24:53:863,0.6033,-3.9143,9.2478,-0.0145,-0.0424,9.8065,0.0121,0.4086,-0.5178,-11.37,-35.81,-7.12,102.81,-78.68,12.97
52.74979,-1.674561,144.94,17.19,4,334.64,22 / 23,2586620,2019-11-06 11:24:53:963,-0.1678,-0.5588,9.899,0.0035,0.0256,9.8065,-0.1194,0.1341,0.0645,-10.87,-36.56,-7,102.16,-78.59,10.86
52.74979,-1.674561,144.94,17.19,4,334.64,22 / 23,2586720,2019-11-06 11:24:54:063,-0.9612,0.5071,9.7854,0.0393,0.1172,9.8058,0.0403,-0.406,0.2383,-11.44,-36.12,-7.44,104.23,-78.65,14.51
52.74979,-1.674561,144.94,17.19,4,334.64,22 / 23,2586820,2019-11-06 11:24:54:163,3.5412,-5.2325,8.5822,0.0225,-0.0122,9.8065,-0.0654,-0.4779,0.3721,-11.19,-36.31,-7.69,104.23,-78.65,14.51
52.74979,-1.674561,144.94,17.19,4,334.64,22 / 23,2586920,2019-11-06 11:24:54:263,5.0977,-5.2452,7.8265,-0.0161,-0.0539,9.8064,0.1335,-0.1988,-0.0478,-10.62,-36,-7.12,102.07,-78.93,12.9
52.749928,-1.674661,144.86,16.72,6,337.18,22 / 23,2587020,2019-11-06 11:24:54:363,2.4877,2.4263,10.1821,0.0024,0.0204,9.8065,-0.1611,0.2848,-0.067,-10.56,-35.87,-7.12,99.89,-78.9,10.3
52.749928,-1.674661,144.86,16.72,6,337.18,22 / 23,2587120,2019-11-06 11:24:54:463,1.9022,-1.842,10.726,-0.0118,0.0521,9.8065,-0.006,0.4863,-0.3005,-10.75,-35.94,-6.69,99.89,-78.9,10.3
52.749928,-1.674661,144.86,16.72,6,337.18,22 / 23,2587220,2019-11-06 11:24:54:563,3.4541,-4.6264,10.6193,0.0215,-0.0436,9.8065,-0.1826,0.0634,-0.045,-11.37,-35.94,-7.62,96.84,-78.72,11.4
52.749928,-1.674661,144.86,16.72,6,337.18,22 / 23,2587320,2019-11-06 11:24:54:663,1.0834,-2.8271,10.3894,-0.037,0.0212,9.8065,0.0558,-0.1613,0.0568,-11.19,-35.69,-7.69,94.6,-78.91,9.59
52.749928,-1.674661,144.86,16.72,6,337.18,22 / 23,2587420,2019-11-06 11:24:54:763,2.755,-1.0531,10.053,-0.0278,0.0564,9.8064,-0.0201,-0.1815,-0.1079,-11.81,-35.75,-7.87,94.6,-78.91,9.59
52.749928,-1.674661,144.86,16.72,6,337.18,22 / 23,2587520,2019-11-06 11:24:54:863,1.8271,-0.5569,10.1135,-0.0213,0.0824,9.8062,0.1266,0.0261,-0.2951,-11.12,-35.94,-8.5,95.76,-78.72,11.2
52.749928,-1.674661,144.86,16.72,6,337.18,22 / 23,2587620,2019-11-06 11:24:54:963,1.7134,-0.2522,10.1869,0.0209,0.0163,9.8066,-0.0725,-0.0276,0.0001,-10.75,-36.19,-7.5,103.71,-78.54,13.55
52.749928,-1.674661,144.86,16.72,6,337.18,22 / 23,2587721,2019-11-06 11:24:55:064,2.1113,-3.7362,10.7743,0.0676,0.0557,9.8062,0.093,-0.2488,0.0092,-11.5,-35.25,-8.06,99.49,-78.84,15.67
52.749928,-1.674661,144.86,16.72,6,337.18,22 / 23,2587820,2019-11-06 11:24:55:163,1.8274,-3.0695,9.4459,0.0146,0.0255,9.8066,0.0037,-0.275,0.1279,-11.31,-35.19,-7.81,99.49,-78.84,15.67
52.749928,-1.674661,144.86,16.72,6,337.18,22 / 23,2587920,2019-11-06 11:24:55:263,2.3273,-5.9192,8.8332,-0.0035,-0.0265,9.8066,-0.1153,0.4304,-0.289,-12.44,-35.87,-8,100.52,-78.9,16.5
52.750065,-1.674746,144.77,17.27,6,342.72,22 / 23,2588021,2019-11-06 11:24:55:364,0.2722,2.185,8.4312,0.0067,-0.0355,9.8065,-0.1756,0.0524,-0.0793,-11.56,-36,-8.19,100.49,-78.8,15.33
52.750065,-1.674746,144.77,17.27,6,342.72,22 / 23,2588120,2019-11-06 11:24:55:463,2.5041,0.3839,10.1883,0.0148,-0.1235,9.8058,0.1047,-0.2126,0.0055,-11.62,-35.69,-8.37,100.49,-78.8,15.33
52.750065,-1.674746,144.77,17.27,6,342.72,22 / 23,2588220,2019-11-06 11:24:55:563,2.4722,2.1997,10.0133,0.0243,0.0047,9.8065,0.0233,-0.5108,0.2638,-12.19,-35.75,-7.75,96.68,-79,11.69
52.750065,-1.674746,144.77,17.27,6,342.72,22 / 23,2588320,2019-11-06 11:24:55:663,2.5334,-3.7311,9.5876,0.0133,0.0186,9.8066,0.0066,0.0096,-0.1488,-11.81,-36,-8.06,97.04,-79.19,12.64
52.750065,-1.674746,144.77,17.27,6,342.72,22 / 23,2588420,2019-11-06 11:24:55:763,4.0093,-4.6575,9.8502,0.0193,-0.0266,9.8065,-0.0652,0.3389,-0.1495,-12.81,-35.94,-8.12,98.1,-79.23,13.5
52.750065,-1.674746,144.77,17.27,6,342.72,22 / 23,2588520,2019-11-06 11:24:55:863,3.2032,-0.5501,10.0188,0.054,-0.0583,9.8062,-0.0038,0.3313,-0.2323,-12.87,-36.12,-7.62,98.1,-79.23,13.5
52.750065,-1.674746,144.77,17.27,6,342.72,22 / 23,2588620,2019-11-06 11:24:55:963,3.0761,2.5536,9.2704,0.0146,-0.0033,9.8066,0.0558,0.0572,-0.0895,-12.69,-35.69,-8.37,93.7,-79.8,10.31
52.750065,-1.674746,144.77,17.27,6,342.72,22 / 23,2588720,2019-11-06 11:24:56:063,3.4484,-0.4965,9.7911,0.0135,0.0219,9.8066,0.0481,-0.5224,0.3106,-12.94,-36.44,-7.69,93.74,-79.95,10.75
52.750065,-1.674746,144.77,17.27,6,342.72,22 / 23,2588820,2019-11-06 11:24:56:163,4.3051,-6.2385,10.1445,0.0254,0.0594,9.8064,0.0518,-0.1649,0.0323,-13,-36.25,-7.81,93.74,-79.95,10.75
52.750065,-1.674746,144.77,17.27,6,342.72,22 / 23,2588920,2019-11-06 11:24:56:263,2.7344,-1.9368,9.7571,0.0511,-0.0167,9.8065,0.0036,0.2606,-0.2772,-13.19,-36.62,-7.87,95.4,-80.07,12.81
52.7502,-1.674799,144.65,17.31,6,347.62,22 / 23,2589020,2019-11-06 11:24:56:363,-0.1117,2.5169,9.2972,-0.0154,0.0033,9.8066,-0.1239,0.6233,-0.4125,-13.06,-36.06,-7.94,93.09,-80.56,11.69
52.7502,-1.674799,144.65,17.31,6,347.62,22 / 23,2589120,2019-11-06 11:24:56:463,0.8319,0.4779,10.137,0.0148,0.0704,9.8063,0.1298,-0.0277,-0.1145,-13.44,-36.37,-7.87,95.39,-80.62,14.24
52.7502,-1.674799,144.65,17.31,6,347.62,22 / 23,2589220,2019-11-06 11:24:56:563,4.1401,-4.136,10.102,0.1228,0.033,9.8058,0.2322,-0.3252,0.209,-13.25,-36.19,-7.37,95.39,-80.62,14.24
52.7502,-1.674799,144.65,17.31,6,347.62,22 / 23,2589320,2019-11-06 11:24:56:663,3.2027,-1.8901,9.3053,0.0439,0.0388,9.8064,0.009,-0.5156,0.2804,-13.37,-36.56,-7.56,95.32,-81.31,15.96
52.7502,-1.674799,144.65,17.31,6,347.62,22 / 23,2589420,2019-11-06 11:24:56:763,2.5579,6.0791,8.3659,0.0287,-0.0231,9.8066,0.0348,-0.3053,0.3228,-13.69,-36.44,-7,100.1,-81.82,17.78
52.7502,-1.674799,144.65,17.31,6,347.62,22 / 23,2589520,2019-11-06 11:24:56:863,1.1415,2.0148,9.6309,0.0417,-0.2176,9.8041,-0.1127,0.987,-0.4702,-13.69,-37,-7.56,100.1,-81.82,17.78
52.7502,-1.674799,144.65,17.31,6,347.62,22 / 23,2589620,2019-11-06 11:24:56:963,1.5773,-4.941,10.2569,-0.0071,-0.0192,9.8066,-0.0777,0.8171,-0.4745,-13.5,-35.87,-7.31,86.93,-82.19,8.84
52.7502,-1.674799,144.65,17.31,6,347.62,22 / 23,2589720,2019-11-06 11:24:57:063,1.7443,-6.6457,11.1091,-0.0112,0.0977,9.8061,0.049,0.1101,-0.1724,-13.69,-36.25,-7.69,88.53,-82.18,10.4
52.7502,-1.674799,144.65,17.31,6,347.62,22 / 23,2589820,2019-11-06 11:24:57:163,2.1835,6.7836,9.4858,0.0502,-0.0235,9.8065,0.0342,-0.7343,0.4301,-13.81,-36.69,-6.87,98.44,-82.25,16.54
52.7502,-1.674799,144.65,17.31,6,347.62,22 / 23,2589920,2019-11-06 11:24:57:263,0.7922,7.8039,9.8093,0.0802,-0.0885,9.8059,0.014,-0.236,0.0853,-13.69,-36.19,-6.81,98.44,-82.25,16.54
52.75035,-1.674846,144.43,18.11,4,348.64,22 / 23,2590020,2019-11-06 11:24:57:363,1.3481,-0.7146,10.6664,0.0025,-0.0344,9.8066,-0.0623,0.7004,-0.3519,-14.19,-36.5,-7.12,90.03,-82.77,9.62
52.75035,-1.674846,144.43,18.11,4,348.64,22 / 23,2590120,2019-11-06 11:24:57:463,1.995,-6.5425,12.1301,0.0062,0.0066,9.8066,-0.1525,0.6061,-0.3716,-14.75,-36.5,-6.06,89.47,-82.78,8.02
52.75035,-1.674846,144.43,18.11,4,348.64,22 / 23,2590220,2019-11-06 11:24:57:563,1.0796,-4.5884,11.6369,0.0278,0.0268,9.8065,0.0588,0.1064,0.0593,-15.19,-36.75,-5.87,93.89,-82.94,9.29
52.75035,-1.674846,144.43,18.11,4,348.64,22 / 23,2590320,2019-11-06 11:24:57:663,1.7608,0.899,9.7211,0.0858,-0.0073,9.8062,0.1217,-0.4746,0.2276,-15.19,-37.25,-5.19,96.25,-83.44,9.21
52.75035,-1.674846,144.43,18.11,4,348.64,22 / 23,2590419,2019-11-06 11:24:57:762,1.5742,1.2364,9.1063,0.0278,-0.0595,9.8064,0.0192,-0.016,-0.0586,-15.19,-36.87,-5.5,96.25,-83.44,9.21
52.75035,-1.674846,144.43,18.11,4,348.64,22 / 23,2590520,2019-11-06 11:24:57:863,1.4433,-0.103,8.3623,-0.0206,-0.005,9.8066,-0.1228,0.4427,-0.2612,-15,-36.75,-5.87,89.26,-83.63,6.26
52.75035,-1.674846,144.43,18.11,4,348.64,22 / 23,2590620,2019-11-06 11:24:57:963,3.5932,-5.7512,9.0821,0.0247,-0.0164,9.8066,0.0066,0.4809,-0.3956,-15.37,-36.75,-6.81,87.6,-83.37,7.56
52.75035,-1.674846,144.43,18.11,4,348.64,22 / 23,2590720,2019-11-06 11:24:58:063,0.1581,-2.5802,10.0445,0.0328,0.0014,9.8065,-0.0343,-0.7301,0.4783,-15.44,-36.5,-6.37,87.6,-83.37,7.56
52.75035,-1.674846,144.43,18.11,4,348.64,22 / 23,2590820,2019-11-06 11:24:58:163,0.9999,1.6987,9.9167,0.0171,0.0287,9.8065,0.083,-0.5567,0.3986,-15.06,-36.62,-5.94,92.08,-83.54,8.88
52.75035,-1.674846,144.43,18.11,4,348.64,22 / 23,2590920,2019-11-06 11:24:58:263,-0.6465,5.0232,10.0824,0.0299,-0.0042,9.8066,0.2363,0.216,-0.2514,-15.31,-36.87,-5.94,94.66,-83.67,11.83
52.75051,-1.674888,144.24,18.52,4,350.39,22 / 23,2591020,2019-11-06 11:24:58:363,0.5079,2.5238,10.3826,0.0687,-0.0428,9.8063,-0.2053,0.7588,-0.3375,-15.69,-37.56,-5.75,94.66,-83.67,11.83
52.75051,-1.674888,144.24,18.52,4,350.39,22 / 23,2591120,2019-11-06 11:24:58:463,2.4885,-1.2741,9.3221,0.0283,-0.1144,9.8059,0.0465,-0.2383,0.0935,-15.37,-36.75,-5.56,92.1,-84.09,9.72
52.75051,-1.674888,144.24,18.52,4,350.39,22 / 23,2591220,2019-11-06 11:24:58:563,-0.0405,-4.2245,9.967,-0.0043,0.0174,9.8066,-0.0106,-0.3384,0.2894,-15.12,-37.25,-5.87,84.02,-84.05,2.06
52.75051,-1.674888,144.24,18.52,4,350.39,22 / 23,2591320,2019-11-06 11:24:58:663,0.1803,-2.4401,9.7217,0.0194,0.0486,9.8064,0.0801,0.1162,-0.1223,-16,-37.19,-6,86.91,-84.19,4.74
52.75051,-1.674888,144.24,18.52,4,350.39,22 / 23,2591420,2019-11-06 11:24:58:763,1.033,-2.373,10.3886,0.0515,0.0336,9.8064,-0.0034,0.0831,-0.1639,-16,-37.56,-6.06,86.91,-84.19,4.74
52.75051,-1.674888,144.24,18.52,4,350.39,22 / 23,2591519,2019-11-06 11:24:58:862,0.8806,0.0175,9.5763,-0.0288,0.0401,9.8065,0.1403,-0.2651,0.0095,-15.44,-37.25,-5.25,92.4,-84.49,7.8
52.75051,-1.674888,144.24,18.52,4,350.39,22 / 23,2591619,2019-11-06 11:24:58:962,1.1657,0.1134,9.9184,-0.0371,0.0694,9.8063,-0.1085,-0.0394,0.0238,-15.31,-36.69,-5.75,93.27,-84.24,11.75
52.75051,-1.674888,144.24,18.52,4,350.39,22 / 23,2591720,2019-11-06 11:24:59:063,0.0809,0.0489,10.7183,0.0639,0.1033,9.8058,0.0421,0.0629,-0.1222,-14.87,-37.06,-5.75,93.27,-84.24,11.75
52.75051,-1.674888,144.24,18.52,4,350.39,22 / 23,2591820,2019-11-06 11:24:59:163,1.7704,-0.6226,10.8241,0.0959,0.0341,9.8061,0.2058,-0.1011,-0.024,-15.12,-37.5,-5,98.97,-84.54,18.33
52.75051,-1.674888,144.24,18.52,4,350.39,22 / 23,2591920,2019-11-06 11:24:59:263,0.9937,2.175,11.1924,0.1018,0.0689,9.8058,0.0317,-0.238,0.1001,-14.87,-37.44,-5.44,106.72,-85.04,24.01
52.75068,-1.674927,144.16,18.77,4,351.83,22 / 23,2592020,2019-11-06 11:24:59:363,1.7879,-2.0292,10.0366,-0.015,-0.0091,9.8066,0.0767,0.1568,-0.185,-14.69,-37.19,-5.75,106.72,-85.04,24.01
52.75068,-1.674927,144.16,18.77,4,351.83,22 / 23,2592120,2019-11-06 11:24:59:463,1.1609,-2.8495,11.5283,0.0395,0.0625,9.8063,-0.116,0.5029,-0.2342,-14.69,-36.87,-4.94,106.05,-84.97,23.14
52.75068,-1.674927,144.16,18.77,4,351.83,22 / 23,2592220,2019-11-06 11:24:59:563,1.223,1.4534,11.4257,0.0164,0.0822,9.8063,0.0848,0.0416,-0.2576,-14.94,-37.81,-5.19,110.64,-85.08,27.98
52.75068,-1.674927,144.16,18.77,4,351.83,22 / 23,2592320,2019-11-06 11:24:59:663,-1.7395,12.7759,8.6356,0.0728,0.1631,9.805,0.2112,-1.2998,0.8152,-14.69,-37.19,-4.87,121.54,-85.03,40.09
52.75068,-1.674927,144.16,18.77,4,351.83,22 / 23,2592420,2019-11-06 11:24:59:763,0.6608,-0.9027,10.2677,0.0228,-0.2436,9.8036,-0.0074,-0.0358,0.1147,-15,-37.69,-4.81,121.54,-85.03,40.09
52.75068,-1.674927,144.16,18.77,4,351.83,22 / 23,2592520,2019-11-06 11:24:59:863,0.8836,-7.6261,10.4642,-0.029,-0.0565,9.8063,-0.0903,1.189,-0.7725,-15.5,-37,-4.5,105.74,-85.73,24.54
52.75068,-1.674927,144.16,18.77,4,351.83,22 / 23,2592620,2019-11-06 11:24:59:963,1.9359,-6.4871,9.7852,0.0332,0.0809,9.8062,-0.0611,1.0192,-0.6099,-15.19,-37.06,-4.62,102.86,-85.74,21.55
52.75068,-1.674927,144.16,18.77,4,351.83,22 / 23,2592720,2019-11-06 11:25:00:063,-1.076,8.174,8.9797,0.0358,0.1626,9.8052,0.1193,-0.9423,0.5142,-15.81,-37.19,-4.56,102.86,-85.74,21.55
52.75068,-1.674927,144.16,18.77,4,351.83,22 / 23,2592820,2019-11-06 11:25:00:163,-0.8502,-3.3099,10.3755,0.0072,-0.0375,9.8065,0.0466,-1.0244,0.5821,-15.56,-37.87,-4.25,119.15,-85.62,34.4
52.75068,-1.674927,144.16,18.77,4,351.83,22 / 23,2592920,2019-11-06 11:25:00:263,1.4629,-9.8102,10.2408,-0.0198,-0.1063,9.806,0.0347,-0.1223,0.1685,-16,-37.44,-4.25,110.15,-85.93,25.62
52.750847,-1.674963,144.08,18.53,4,353.22,22 / 23,2593020,2019-11-06 11:25:00:363,-2.0484,2.6896,9.6406,0.0092,0.0153,9.8066,-0.0562,0.7187,-0.5075,-16.44,-37.94,-4.69,93.94,-85.96,12.13
52.750847,-1.674963,144.08,18.53,4,353.22,22 / 23,2593120,2019-11-06 11:25:00:463,-0.3294,5.8924,9.8787,0.019,0.0322,9.8065,0.0531,0.4406,-0.4868,-16.75,-37.75,-4.37,93.94,-85.96,12.13
52.750847,-1.674963,144.08,18.53,4,353.22,22 / 23,2593219,2019-11-06 11:25:00:562,-0.2106,8.9861,8.9349,0.0133,0.0381,9.8065,0.1861,-0.7624,0.3744,-17,-37.62,-4.56,99.73,-86.27,14.95
52.750847,-1.674963,144.08,18.53,4,353.22,22 / 23,2593319,2019-11-06 11:25:00:662,1.771,-10.6459,9.1766,0.0348,-0.1064,9.806,-0.0948,-1.2186,0.8827,-17,-37.62,-4.06,93.27,-86.69,9.3
52.750847,-1.674963,144.08,18.53,4,353.22,22 / 23,2593420,2019-11-06 11:25:00:763,-2.1367,-10.603,10.2987,0.0357,-0.1209,9.8058,0.1104,-0.6131,0.3369,-17.37,-38.25,-4.25,93.27,-86.69,9.3
52.750847,-1.674963,144.08,18.53,4,353.22,22 / 23,2593520,2019-11-06 11:25:00:863,0.5996,-2.0057,8.9724,0.0169,0.1016,9.806,-0.0101,0.963,-0.8721,-17.31,-38.37,-3.94,76.73,-86.86,-3.47
52.750847,-1.674963,144.08,18.53,4,353.22,22 / 23,2593620,2019-11-06 11:25:00:963,0.2541,5.9214,8.4206,0.043,0.0929,9.806,-0.2058,0.6499,-0.3876,-16.56,-38.06,-3.44,109.45,-87.14,23.53
52.750847,-1.674963,144.08,18.53,4,353.22,22 / 23,2593719,2019-11-06 11:25:01:062,2.1835,-2.3276,9.6508,0.0714,0.1254,9.8055,-0.1383,0.0054,0.1425,-16.19,-38.44,-3.69,122.03,-87.16,40.55
52.750847,-1.674963,144.08,18.53,4,353.22,22 / 23,2593819,2019-11-06 11:25:01:162,0.9929,-2.8697,9.2615,-0.0332,0.0067,9.8066,0.0039,-0.152,-0.0852,-16.31,-38,-3.87,122.03,-87.16,40.55
52.750847,-1.674963,144.08,18.53,4,353.22,22 / 23,2593920,2019-11-06 11:25:01:263,0.8889,2.5799,7.032,-0.0539,0.0425,9.8063,-0.0667,-0.3445,0.1465,-15.94,-36.87,-4.37,121.57,-86.98,39.23
52.751015,-1.674989,143.96,17.93,6,356.4,22 / 23,2594020,2019-11-06 11:25:01:363,0.0382,-0.9515,9.3539,-0.075,-0.0111,9.8063,0.0432,-0.3337,0.2172,-16.31,-37,-4.31,117.07,-86.63,34.38
52.751015,-1.674989,143.96,17.93,6,356.4,22 / 23,2594120,2019-11-06 11:25:01:463,-0.6379,-2.3812,11.0575,0.0244,-0.0212,9.8065,0.0682,-0.0652,-0.0753,-16.62,-37.19,-4.75,117.07,-86.63,34.38
52.751015,-1.674989,143.96,17.93,6,356.4,22 / 23,2594220,2019-11-06 11:25:01:563,-0.8836,-4.0358,10.9621,0.0465,0.0591,9.8063,0.011,0.2971,-0.3123,-16.31,-38,-4.37,115.95,-86.81,33.57
52.751015,-1.674989,143.96,17.93,6,356.4,22 / 23,2594320,2019-11-06 11:25:01:663,-0.1459,-5.5662,10.8208,-0.0089,-0.0092,9.8066,-0.1014,-0.3625,0.266,-16.31,-38.12,-4.25,123.42,-86.87,41.47
52.751015,-1.674989,143.96,17.93,6,356.4,22 / 23,2594420,2019-11-06 11:25:01:763,-1.2204,0.5428,9.5266,-0.0825,0.0033,9.8062,0.0761,-0.6863,0.3716,-16.87,-37.62,-4.81,117.75,-86.45,37.43
52.751015,-1.674989,143.96,17.93,6,356.4,22 / 23,2594520,2019-11-06 11:25:01:863,-0.2221,4.2087,10.5605,0.0745,-0.0866,9.8059,0.0868,-0.4869,0.3505,-17.19,-37.19,-4,117.75,-86.45,37.43
52.751015,-1.674989,143.96,17.93,6,356.4,22 / 23,2594620,2019-11-06 11:25:01:963,1.0816,2.1572,11.2933,0.0613,-0.062,9.8062,0.1472,-0.0066,-0.0029,-17.5,-37.62,-3.87,115.02,-87.06,32.64
52.751015,-1.674989,143.96,17.93,6,356.4,22 / 23,2594719,2019-11-06 11:25:02:062,0.8222,-6.5395,11.357,0.0232,0.0058,9.8066,-0.1632,0.4692,-0.3629,-17.56,-37.69,-3.44,113.47,-87.91,28.94
52.751015,-1.674989,143.96,17.93,6,356.4,22 / 23,2594820,2019-11-06 11:25:02:163,3.3828,-4.9786,9.2877,-0.0073,0.1823,9.8049,0.0817,-0.1937,0.0291,-17.25,-38,-4.06,113.47,-87.91,28.94
52.751015,-1.674989,143.96,17.93,6,356.4,22 / 23,2594920,2019-11-06 11:25:02:263,-1.1815,-2.5985,9.8422,-0.0824,0.1027,9.8057,-0.0512,-0.6277,0.1899,-16.25,-37.62,-4.12,130.76,-87.27,49.53
52.751175,-1.674999,143.75,17.34,6,358.84,21 / 22,2595020,2019-11-06 11:25:02:363,-3.3504,4.9254,10.4875,-0.0086,0.0221,9.8065,-0.039,-0.3459,0.2213,-16.12,-37.37,-4.62,130.68,-86.04,51.45
52.751175,-1.674999,143.75,17.34,6,358.84,21 / 22,2595120,2019-11-06 11:25:02:463,1.2085,5.2566,10.9706,0.0177,0.0625,9.8064,0.0139,0.7471,-0.5274,-16.37,-37.5,-3.62,138.3,-85.87,56.23
52.751175,-1.674999,143.75,17.34,6,358.84,21 / 22,2595220,2019-11-06 11:25:02:563,4.4089,-1.4988,9.753,0.0615,-0.0327,9.8064,-0.1146,0.6318,-0.34,-15.94,-37.75,-4.25,138.3,-85.87,56.23
52.751175,-1.674999,143.75,17.34,6,358.84,21 / 22,2595320,2019-11-06 11:25:02:663,3.1539,-4.2417,9.5977,-0.0925,-0.0168,9.8061,-0.2167,0.2119,-0.0872,-16.5,-38.19,-3.81,139.88,-86.25,58.39
52.751175,-1.674999,143.75,17.34,6,358.84,21 / 22,2595420,2019-11-06 11:25:02:763,2.0619,-0.6111,9.6843,-0.144,0.0268,9.8055,-0.038,-0.2668,0.0005,-16.37,-37.37,-3.62,134.41,-85.55,51.38
52.751175,-1.674999,143.75,17.34,6,358.84,21 / 22,2595520,2019-11-06 11:25:02:863,3.0662,0.3372,9.8112,0.0246,0.0322,9.8065,0.0599,-0.267,0.0541,-17,-37.19,-3.62,134.41,-85.55,51.38
52.751175,-1.674999,143.75,17.34,6,358.84,21 / 22,2595620,2019-11-06 11:25:02:963,3.5678,-3.5769,10.2827,0.0125,-0.0198,9.8065,0.0101,0.0374,-0.0219,-16.87,-38.12,-4.19,137.13,-85.52,54.39
52.751175,-1.674999,143.75,17.34,6,358.84,21 / 22,2595721,2019-11-06 11:25:03:064,0.9716,-2.0108,10.4744,-0.0076,-0.0155,9.8066,-0.0964,0.2682,-0.1882,-17.19,-37.69,-3.69,137.18,-85.65,54.06
52.751175,-1.674999,143.75,17.34,6,358.84,21 / 22,2595820,2019-11-06 11:25:03:163,1.2208,-0.6514,10.7024,0.0378,0.0022,9.8065,0.12,0.1954,-0.1506,-16.69,-37.75,-2.56,142.01,-85.79,56.38
52.751175,-1.674999,143.75,17.34,6,358.84,21 / 22,2595920,2019-11-06 11:25:03:263,0.8003,1.7237,10.5429,0.1001,0.0907,9.8057,0.0423,-0.4098,0.2428,-16.37,-38.19,-2.5,142.01,-85.79,56.38
52.75134,-1.674992,143.48,17.62,6,3.89,19 / 22,2596020,2019-11-06 11:25:03:363,1.6222,1.986,10.6247,-0.0022,0.038,9.8065,0.08,-0.1182,-0.1338,-16.19,-38.44,-3.12,151.05,-85.66,66.83
52.75134,-1.674992,143.48,17.62,6,3.89,19 / 22,2596120,2019-11-06 11:25:03:463,0.268,-1.316,9.6702,-0.0009,0.0141,9.8066,-0.0942,0.2639,-0.0605,-16.87,-38,-3.44,151.81,-85.58,67.29
52.75134,-1.674992,143.48,17.62,6,3.89,19 / 22,2596220,2019-11-06 11:25:03:563,-0.1447,-6.9813,9.3174,0.0062,-0.0057,9.8066,-0.1355,0.5595,-0.3535,-16.37,-38.19,-3.06,151.81,-85.58,67.29
52.75134,-1.674992,143.48,17.62,6,3.89,19 / 22,2596320,2019-11-06 11:25:03:663,-0.6223,-5.5064,10.3423,0.0192,0.0128,9.8066,0.0028,-0.1101,0.2014,-16,-38.37,-4.12,148.97,-85.63,67.5
52.75134,-1.674992,143.48,17.62,6,3.89,19 / 22,2596420,2019-11-06 11:25:03:763,-1.4351,0.4361,9.0915,0.0478,0.0052,9.8064,0.1132,-0.2879,-0.0158,-16.75,-38.12,-2.81,156.72,-85.54,72.91
52.75134,-1.674992,143.48,17.62,6,3.89,19 / 22,2596520,2019-11-06 11:25:03:863,-0.0735,-4.4215,8.2833,0.041,0.046,9.8064,0.0491,-0.3354,0.1846,-16.94,-37.81,-2.5,163.16,-85.37,76.95
52.75134,-1.674992,143.48,17.62,6,3.89,19 / 22,2596620,2019-11-06 11:25:03:963,-1.5252,-0.2933,9.7059,-0.0648,-0.0835,9.806,-0.1245,-0.4366,0.333,-16.75,-38.37,-2.69,163.16,-85.37,76.95
52.75134,-1.674992,143.48,17.62,6,3.89,19 / 22,2596721,2019-11-06 11:25:04:064,-1.5373,0.6981,10.7982,-0.1185,-0.1389,9.8049,-0.0956,-0.2094,0.0379,-17.56,-38.19,-3.12,149.32,-85.85,64.44
52.75134,-1.674992,143.48,17.62,6,3.89,19 / 22,2596821,2019-11-06 11:25:04:164,0.6031,-0.9695,11.0617,0.0346,-0.0879,9.8062,0.1931,-0.1323,0.1028,-18,-37.69,-3.44,149.32,-85.85,64.44
52.75134,-1.674992,143.48,17.62,6,3.89,19 / 22,2596920,2019-11-06 11:25:04:263,2.5233,-2.3976,10.511,0.0678,-0.1155,9.8057,-0.0121,-0.2452,0.2422,-17.87,-38.62,-2.69,148.62,-86.63,64.38
52.751495,-1.674965,143.23,17.8,6,7.13,20 / 22,2597020,2019-11-06 11:25:04:363,0.8969,-1.1142,10.1113,-0.0121,0.0619,9.8064,0.0956,-0.1725,0.0484,-17.75,-38.25,-2.37,148.62,-86.63,64.38
52.751495,-1.674965,143.23,17.8,6,7.13,20 / 22,2597119,2019-11-06 11:25:04:462,0.9088,-3.7662,11.3415,0.0382,0.0015,9.8065,-0.1788,0.3207,-0.1697,-17.69,-38.31,-2.31,153.53,-86.29,66.35
52.751495,-1.674965,143.23,17.8,6,7.13,20 / 22,2597219,2019-11-06 11:25:04:562,-0.9949,1.0554,9.555,-0.0062,0.0303,9.8065,0.0724,-0.0437,-0.0872,-17.87,-38.44,-2.94,153.8,-86.32,69.92
52.751495,-1.674965,143.23,17.8,6,7.13,20 / 22,2597320,2019-11-06 11:25:04:663,-1.7217,5.1185,9.2836,0.0168,0.0418,9.8065,0.0152,-0.6055,0.4271,-18.06,-38.25,-2.69,156.53,-86.14,72.84
52.751495,-1.674965,143.23,17.8,6,7.13,20 / 22,2597420,2019-11-06 11:25:04:763,-0.3372,3.0201,9.0611,0.0212,-0.0375,9.8065,-0.0356,-0.0172,0.0796,-18.56,-38.19,-3.37,156.53,-86.14,72.84
52.751495,-1.674965,143.23,17.8,6,7.13,20 / 22,2597520,2019-11-06 11:25:04:863,1.7729,-5.5139,11.2214,0.0225,-0.0468,9.8064,-0.0102,0.4929,-0.3755,-17.69,-38.62,-2.19,158.54,-86.8,72.39
52.751495,-1.674965,143.23,17.8,6,7.13,20 / 22,2597620,2019-11-06 11:25:04:963,-2.9431,1.2846,11.9422,0.0025,0.0263,9.8065,-0.0244,0.5198,-0.1417,-18.44,-38.37,-1.87,158.91,-87.1,73.08
52.751495,-1.674965,143.23,17.8,6,7.13,20 / 22,2597720,2019-11-06 11:25:05:063,0.0383,1.509,10.2294,0.007,0.0477,9.8065,-0.0455,0.2114,-0.1421,-17.94,-38.31,-1.94,158.91,-87.1,73.08
52.751495,-1.674965,143.23,17.8,6,7.13,20 / 22,2597820,2019-11-06 11:25:05:163,1.6552,-3.4777,10.5653,0.0152,-0.0243,9.8066,0.1074,-0.2438,-0.0124,-18.87,-38.5,-1.94,161.6,-87.04,76
52.751495,-1.674965,143.23,17.8,6,7.13,20 / 22,2597920,2019-11-06 11:25:05:263,0.335,1.2857,9.6686,-0.0093,0.055,9.8065,-0.1284,-0.1743,0.0544,-18.56,-38,-2.19,165.51,-87.23,80.16
52.751656,-1.674932,143.1,18,6,6.46,20 / 21,2598020,2019-11-06 11:25:05:363,-0.0688,1.0956,9.7067,-0.0254,0.1132,9.8059,-0.0686,-0.1006,-0.0233,-17.87,-38.06,-2.75,165.51,-87.23,80.16
52.751656,-1.674932,143.1,18,6,6.46,20 / 21,2598120,2019-11-06 11:25:05:463,-1.1305,-0.5907,8.9047,-0.0085,0.0444,9.8065,0.1828,-0.1344,-0.0114,-17.87,-38.19,-2.19,162.74,-86.55,80.52
52.751656,-1.674932,143.1,18,6,6.46,20 / 21,2598219,2019-11-06 11:25:05:562,0.0962,-2.7666,9.8151,0.0119,-0.0072,9.8066,0.0582,0.0868,-0.0378,-17,-37.81,-2.44,166.82,-86.24,81.65
52.751656,-1.674932,143.1,18,6,6.46,20 / 21,2598319,2019-11-06 11:25:05:662,0.0872,-0.9143,9.1056,0.0015,0.0168,9.8066,0.0492,0.5112,-0.3352,-17.06,-38.5,-3.69,161.49,-86.14,82.11
52.751656,-1.674932,143.1,18,6,6.46,20 / 21,2598420,2019-11-06 11:25:05:763,3.1912,5.8244,8.7929,0.008,0.0479,9.8065,-0.1865,0.6022,-0.1704,-17.31,-38.81,-3.19,161.49,-86.14,82.11
52.751656,-1.674932,143.1,18,6,6.46,20 / 21,2598520,2019-11-06 11:25:05:863,0.0451,1.1615,8.584,-0.0248,-0.0522,9.8065,-0.0399,0.0076,-0.0156,-17.37,-38.12,-2.75,169.02,-85.89,83.97
52.751656,-1.674932,143.1,18,6,6.46,20 / 21,2598620,2019-11-06 11:25:05:963,0.6539,-0.8981,8.4856,-0.0181,-0.0632,9.8064,0.0296,-0.0262,0.1031,-17.44,-38.06,-2.75,163.62,-86.23,81.32
52.751656,-1.674932,143.1,18,6,6.46,20 / 21,2598720,2019-11-06 11:25:06:063,-0.5154,-1.8134,11.2253,0.0552,0.0068,9.8064,-0.0346,0.0666,-0.0054,-17.19,-38.25,-2.44,163.62,-86.23,81.32
52.751656,-1.674932,143.1,18,6,6.46,20 / 21,2598820,2019-11-06 11:25:06:163,-1.5308,-0.2332,11.5037,0.0791,-0.0219,9.8062,0.1363,-0.2891,0.2123,-17.19,-38.06,-2.69,167.94,-86.27,86.25
52.751656,-1.674932,143.1,18,6,6.46,20 / 21,2598920,2019-11-06 11:25:06:263,-0.2189,-3.623,9.2546,0.0286,-0.035,9.8065,0.0059,-0.1738,0.2371,-17.19,-38.25,-2.37,176.88,-86.47,93.17
52.75181,-1.674907,142.92,17.87,6,3.97,21 / 23,2599020,2019-11-06 11:25:06:363,1.3501,-2.7038,8.4153,0.0036,0.0017,9.8066,-0.1768,0.8651,-0.4906,-17,-38.19,-2.44,177.19,-86.46,93.52
52.75181,-1.674907,142.92,17.87,6,3.97,21 / 23,2599120,2019-11-06 11:25:06:463,-1.6203,6.7418,8.3019,-0.1303,0.0391,9.8057,-0.1893,0.6961,-0.2059,-17,-37.94,-3,177.19,-86.46,93.52
52.75181,-1.674907,142.92,17.87,6,3.97,21 / 23,2599220,2019-11-06 11:25:06:563,0.4807,-3.6237,9.2129,-0.0052,-0.0818,9.8062,-0.0329,0.2841,-0.0623,-17.25,-37.94,-3.37,164.61,-86.12,82.38
52.75181,-1.674907,142.92,17.87,6,3.97,21 / 23,2599320,2019-11-06 11:25:06:663,0.5117,-3.5974,10.3849,0.0664,-0.0652,9.8061,0.0615,-0.1187,0.2391,-17.19,-37.62,-3,160.67,-87.13,78.61
52.75181,-1.674907,142.92,17.87,6,3.97,21 / 23,2599420,2019-11-06 11:25:06:763,0.449,3.0467,10.6395,0.0865,-0.0677,9.806,0.0176,-0.3184,0.1853,-17.62,-38,-2.69,160.67,-87.13,78.61
52.75181,-1.674907,142.92,17.87,6,3.97,21 / 23,2599520,2019-11-06 11:25:06:863,0.3419,-2.5795,7.7828,-0.0059,0.0007,9.8066,-0.1471,-0.3312,0.3437,-17.81,-38.69,-2.75,171.45,-87.65,87.07
52.75181,-1.674907,142.92,17.87,6,3.97,21 / 23,2599620,2019-11-06 11:25:06:963,0.5409,-3.7527,8.1232,-0.0718,-0.0119,9.8063,-0.1763,-0.0727,0.0646,-18.06,-37.94,-3.19,162.51,-87.58,80.47
52.75181,-1.674907,142.92,17.87,6,3.97,21 / 23,2599720,2019-11-06 11:25:07:063,-1.9139,0.3002,8.5083,-0.107,-0.0203,9.806,0.0622,0.2542,-0.2208,-17.44,-37.75,-2.87,149.15,-87.42,66.27
52.75181,-1.674907,142.92,17.87,6,3.97,21 / 23,2599820,2019-11-06 11:25:07:163,-1.5354,3.1267,9.7104,-0.0496,-0.0514,9.8064,-0.0462,0.2483,-0.1467,-17.25,-38.5,-3.31,149.15,-87.42,66.27
52.75181,-1.674907,142.92,17.87,6,3.97,21 / 23,2599920,2019-11-06 11:25:07:263,-1.3671,2.6286,10.011,-0.0498,-0.0119,9.8064,-0.0625,-0.1376,0.1841,-17.12,-37.94,-3.75,137.42,-87.5,57
52.75197,-1.674897,142.7,17.81,6,0.34,20 / 23,2600020,2019-11-06 11:25:07:363,-0.2081,-2.3012,9.2843,-0.0336,-0.0198,9.8065,-0.0449,-0.3483,0.3004,-17.19,-38.06,-3.62,132.83,-87.44,52.01
52.75197,-1.674897,142.7,17.81,6,0.34,20 / 23,2600120,2019-11-06 11:25:07:463,-0.1449,-4.0965,10.2433,-0.0127,-0.0184,9.8065,0.0685,-0.0701,0.0741,-17.44,-37.87,-3.06,132.83,-87.44,52.01
52.75197,-1.674897,142.7,17.81,6,0.34,20 / 23,2600220,2019-11-06 11:25:07:563,-1.1549,-3.3287,11.4129,0.0566,0.0163,9.8064,0.0249,0.3021,-0.2238,-17.37,-38.5,-3.37,133.15,-87.46,49.1
52.75197,-1.674897,142.7,17.81,6,0.34,20 / 23,2600320,2019-11-06 11:25:07:663,0.5676,2.8796,9.8828,0.0507,-0.0274,9.8065,0.1028,-0.4972,0.4516,-17.06,-38.12,-3.06,139.6,-87.61,56.22
52.75197,-1.674897,142.7,17.81,6,0.34,20 / 23,2600420,2019-11-06 11:25:07:763,-1.9182,2.6679,9.2939,-0.0054,-0.12,9.8058,-0.0427,-0.5633,0.3447,-17.12,-38.37,-3.5,125.35,-88.07,41.9
52.75197,-1.674897,142.7,17.81,6,0.34,20 / 23,2600519,2019-11-06 11:25:07:862,-1.1125,2.8727,7.3034,-0.088,-0.004,9.8062,-0.1819,0.1408,0.0538,-17.37,-37.75,-3.12,125.35,-88.07,41.9
52.75197,-1.674897,142.7,17.81,6,0.34,20 / 23,2600619,2019-11-06 11:25:07:962,-1.7002,-1.0738,7.9509,-0.0612,0.0432,9.8063,0.0872,0.2058,-0.2378,-17.19,-38.12,-3.56,118.72,-87.64,34.19
52.75197,-1.674897,142.7,17.81,6,0.34,20 / 23,2600720,2019-11-06 11:25:08:063,-0.4846,-5.3125,10.6816,-0.008,0.09,9.8062,-0.0674,-0.396,0.2709,-16.69,-37.81,-3.81,121.37,-86.75,38.61
52.75197,-1.674897,142.7,17.81,6,0.34,20 / 23,2600820,2019-11-06 11:25:08:163,-0.3458,-3.146,11.357,0.0096,0.1074,9.806,0.1022,-0.3493,0.1891,-16.19,-38.37,-4.19,121.37,-86.75,38.61
52.75197,-1.674897,142.7,17.81,6,0.34,20 / 23,2600920,2019-11-06 11:25:08:263,3.0601,4.3926,9.658,0.0986,0.0935,9.8056,0.0763,0.2328,-0.1027,-16.12,-38,-2.31,133.14,-86.43,47.72
52.75212,-1.6749,142.56,17.54,6,357.15,20 / 22,2601020,2019-11-06 11:25:08:363,2.1454,-1.5186,8.9406,-0.0225,-0.0263,9.8066,-0.0933,0.4693,-0.1303,-16.5,-37.87,-2.69,146.55,-86.49,62.7
52.75212,-1.6749,142.56,17.54,6,357.15,20 / 22,2601120,2019-11-06 11:25:08:463,-0.8298,-2.7574,9.6793,-0.0421,-0.0721,9.8063,-0.032,-0.2231,0.0324,-16.56,-37.69,-3.5,139.82,-86.67,55.14
52.75212,-1.6749,142.56,17.54,6,357.15,20 / 22,2601220,2019-11-06 11:25:08:563,2.0455,-3.8933,9.3374,-0.0023,0.0039,9.8066,0.1042,-0.5446,0.4186,-15.69,-37.69,-3.12,139.82,-86.67,55.14
52.75212,-1.6749,142.56,17.54,6,357.15,20 / 22,2601320,2019-11-06 11:25:08:663,1.2443,5.5832,9.3375,-0.0185,0.0604,9.8064,-0.0525,-0.6605,0.4476,-16.31,-38.06,-3.5,139.63,-86.65,55.22
52.75212,-1.6749,142.56,17.54,6,357.15,20 / 22,2601420,2019-11-06 11:25:08:763,0.1011,8.2862,8.359,-0.0366,0.053,9.8063,-0.1018,0.6875,-0.408,-16.31,-38.31,-3.81,137.51,-86.27,55.8
52.75212,-1.6749,142.56,17.54,6,357.15,20 / 22,2601520,2019-11-06 11:25:08:863,0.8751,-1.3752,11.2982,0.037,-0.1078,9.8059,-0.2232,0.7208,-0.3388,-16.06,-37.87,-3.31,137.51,-86.27,55.8
52.75212,-1.6749,142.56,17.54,6,357.15,20 / 22,2601619,2019-11-06 11:25:08:962,2.0657,0.9979,9.4237,0.0071,0.0088,9.8065,-0.1175,0.4436,-0.084,-16.25,-37.94,-3.75,132.19,-86.87,50.92
52.75212,-1.6749,142.56,17.54,6,357.15,20 / 22,2601719,2019-11-06 11:25:09:062,-0.0424,4.7535,9.1895,-0.0057,0.023,9.8065,0.0515,-0.0452,-0.0165,-16.06,-37.69,-3.87,133.31,-86.87,52.13
52.75212,-1.6749,142.56,17.54,6,357.15,20 / 22,2601820,2019-11-06 11:25:09:163,-0.1741,1.2189,10.126,-0.0232,0.0883,9.8062,-0.006,-0.4978,0.2652,-16.12,-37.69,-3.56,138.09,-86.4,56.63
52.75212,-1.6749,142.56,17.54,6,357.15,20 / 22,2601920,2019-11-06 11:25:09:263,1.0496,-3.9807,10.0307,0.0414,0.0051,9.8065,0.1312,0.0393,0.0057,-16.06,-37.94,-3.62,138.09,-86.4,56.63
52.752285,-1.674915,142.47,17.75,6,354.74,20 / 22,2602020,2019-11-06 11:25:09:363,1.8081,0.271,10.1293,0.0266,-0.006,9.8066,0.0164,0.3567,-0.3154,-15.25,-37.94,-2.5,144.03,-86.54,59.95
52.752285,-1.674915,142.47,17.75,6,354.74,20 / 22,2602120,2019-11-06 11:25:09:463,1.7976,3.8866,9.0887,0.0177,0.0509,9.8064,-0.011,0.4445,-0.1556,-15.31,-38.12,-3.44,149.59,-86.4,66.42
52.752285,-1.674915,142.47,17.75,6,354.74,20 / 22,2602220,2019-11-06 11:25:09:563,0.3686,2.0577,7.5436,0.0456,0.0677,9.8062,0.1996,0.0301,0.0124,-15.37,-38.06,-3.56,149.59,-86.4,66.42
52.752285,-1.674915,142.47,17.75,6,354.74,20 / 22,2602320,2019-11-06 11:25:09:663,0.6361,-0.6662,7.9482,0.0249,-0.0364,9.8065,-0.1402,-0.0048,0.0082,-15,-38.31,-3.69,155.47,-86.17,72.88
52.752285,-1.674915,142.47,17.75,6,354.74,20 / 22,2602420,2019-11-06 11:25:09:763,0.2916,-0.7906,8.4615,-0.039,-0.0224,9.8065,-0.0884,-0.1495,0.1377,-15.69,-38.12,-3.5,153.46,-86.38,70.35
52.752285,-1.674915,142.47,17.75,6,354.74,20 / 22,2602520,2019-11-06 11:25:09:863,0.3616,-0.5266,8.4436,-0.0181,-0.0188,9.8065,0.0233,0.0241,-0.0251,-14.94,-37.19,-4.44,142.38,-86.31,61.99
52.752285,-1.674915,142.47,17.75,6,354.74,20 / 22,2602619,2019-11-06 11:25:09:962,1.4933,-0.7173,9.1738,0.0027,-0.0334,9.8066,0.0284,-0.1672,0.0861,-15.19,-37.81,-4.69,142.38,-86.31,61.99
52.752285,-1.674915,142.47,17.75,6,354.74,20 / 22,2602719,2019-11-06 11:25:10:062,1.3972,1.3822,9.5,0.0164,0.0362,9.8065,0.185,-0.2374,0.0866,-15.56,-37.37,-4,141.88,-86.45,61.5
52.752285,-1.674915,142.47,17.75,6,354.74,20 / 22,2602820,2019-11-06 11:25:10:163,2.1091,-0.1756,8.7858,0.0157,-0.0191,9.8065,0.0033,-0.2217,0.1322,-15.56,-37.25,-3.81,147.91,-86.14,67.4
52.752285,-1.674915,142.47,17.75,6,354.74,20 / 22,2602920,2019-11-06 11:25:10:263,1.5225,-5.3988,9.117,0.0114,-0.0304,9.8066,-0.1029,0.3979,-0.094,-15.5,-37.31,-3.87,147.91,-86.14,67.4
52.752438,-1.674941,142.39,17.7,6,353.21,21 / 23,2603020,2019-11-06 11:25:10:363,0.2497,-0.7392,8.9052,-0.0013,-0.0439,9.8065,0.1153,0.3649,-0.2665,-15,-37.56,-4.25,146.76,-86.32,66.81
52.752438,-1.674941,142.39,17.7,6,353.21,21 / 23,2603120,2019-11-06 11:25:10:463,-1.7743,4.6395,8.4695,0.0492,0.0532,9.8063,-0.0612,0.6782,-0.3901,-15.25,-37.87,-4,144.36,-86.53,64.38
52.752438,-1.674941,142.39,17.7,6,353.21,21 / 23,2603220,2019-11-06 11:25:10:563,1.6003,1.7952,8.7835,0.0262,0.0671,9.8064,-0.0829,0.1551,-0.0492,-14.69,-37.56,-4.75,146.3,-86.28,69.83
52.752438,-1.674941,142.39,17.7,6,353.21,21 / 23,2603320,2019-11-06 11:25:10:663,3.0828,-1.3767,8.7401,-0.1067,0.1122,9.8053,0.0128,-0.6331,0.2519,-14.62,-37.62,-5.12,146.3,-86.28,69.83
52.752438,-1.674941,142.39,17.7,6,353.21,21 / 23,2603420,2019-11-06 11:25:10:763,4.7396,-2.0952,9.8834,-0.0381,0.0566,9.8063,0.0134,-0.3911,0.2312,-13.94,-37.25,-5.5,144.8,-85.39,67.9
52.752438,-1.674941,142.39,17.7,6,353.21,21 / 23,2603520,2019-11-06 11:25:10:863,-2.6572,6.1668,10.2017,0.0123,-0.0318,9.8065,-0.0401,0.2719,-0.0492,-13.62,-37.87,-4.87,143.65,-84.98,65.79
52.752438,-1.674941,142.39,17.7,6,353.21,21 / 23,2603620,2019-11-06 11:25:10:963,-3.7545,6.873,9.4076,0.0163,-0.066,9.8064,-0.1222,1.0359,-0.5651,-13.81,-37.31,-4.81,143.65,-84.98,65.79
52.752438,-1.674941,142.39,17.7,6,353.21,21 / 23,2603720,2019-11-06 11:25:11:063,0.9277,-3.1418,10.6849,-0.0389,0.0492,9.8064,-0.0771,-0.0825,0.0452,-14,-37.37,-6,141.41,-85.35,63.91
52.752438,-1.674941,142.39,17.7,6,353.21,21 / 23,2603820,2019-11-06 11:25:11:163,4.6622,-5.782,11.6097,0.0084,0.06,9.8064,0.1868,-0.7201,0.3119,-13.56,-37.5,-5.25,144.27,-84.51,66.04
52.752438,-1.674941,142.39,17.7,6,353.21,21 / 23,2603920,2019-11-06 11:25:11:263,3.4278,1.0527,10.1468,0.0276,-0.0321,9.8065,0.2366,-0.9663,0.4014,-13.37,-37.19,-4.81,147.44,-84.25,70.36
52.752598,-1.674974,142.32,18.24,6,352.61,21 / 23,2604020,2019-11-06 11:25:11:363,-0.7564,9.5797,9.1773,0.0361,-0.0492,9.8064,-0.0268,-0.9129,0.6876,-13.06,-37.37,-4.56,147.44,-84.25,70.36
52.752598,-1.674974,142.32,18.24,6,352.61,21 / 23,2604121,2019-11-06 11:25:11:464,3.7123,-1.0282,9.8224,-0.0635,0.0281,9.8064,0.0639,-0.3506,0.1588,-12.87,-37.25,-4.87,146.58,-84.48,69.63
52.752598,-1.674974,142.32,18.24,6,352.61,21 / 23,2604220,2019-11-06 11:25:11:563,1.5572,-4.2558,10.0166,0.0052,-0.0224,9.8066,-0.0545,0.5637,-0.2429,-13.25,-37.44,-5.94,139.91,-83.92,64.68
52.752598,-1.674974,142.32,18.24,6,352.61,21 / 23,2604319,2019-11-06 11:25:11:662,2.8031,-3.0737,10.9743,0.0408,-0.0625,9.8063,-0.1724,0.7175,-0.3139,-13.69,-37.25,-5.25,139.91,-83.92,64.68
52.752598,-1.674974,142.32,18.24,6,352.61,21 / 23,2604420,2019-11-06 11:25:11:763,1.2283,3.2179,11.6573,0.0435,-0.0386,9.8065,0.0505,-0.4966,0.234,-13.81,-37.31,-5.12,142.37,-84.81,64.84
52.752598,-1.674974,142.32,18.24,6,352.61,21 / 23,2604519,2019-11-06 11:25:11:862,0.7564,7.1916,12.0579,0.0107,0.0041,9.8066,-0.0529,-0.7367,0.5852,-13.87,-37.5,-4.94,144.26,-85.18,66.99
52.752598,-1.674974,142.32,18.24,6,352.61,21 / 23,2604620,2019-11-06 11:25:11:963,2.935,3.8421,11.5952,-0.0193,0.0469,9.8065,0.1542,0.2794,-0.2751,-13.44,-37.56,-4.37,148.11,-84.89,67.76
52.752598,-1.674974,142.32,18.24,6,352.61,21 / 23,2604720,2019-11-06 11:25:12:063,3.7834,-9.8283,10.4981,-0.0511,0.0939,9.806,-0.1099,1.1431,-0.7278,-14,-37.25,-4.69,148.11,-84.89,67.76
52.752598,-1.674974,142.32,18.24,6,352.61,21 / 23,2604820,2019-11-06 11:25:12:163,4.5098,-5.1357,9.2013,0.0024,-0.0548,9.8064,0.1326,-0.5022,0.2176,-13.87,-37.44,-4.87,146.93,-84.17,68.79
52.752598,-1.674974,142.32,18.24,6,352.61,21 / 23,2604920,2019-11-06 11:25:12:263,2.5223,0.1475,10.0453,-0.0016,-0.1026,9.8061,-0.0455,-0.6412,0.512,-14.75,-37.56,-4.62,144.17,-84.66,65.19
52.75275,-1.675011,142.26,18.44,6,351.26,21 / 23,2605020,2019-11-06 11:25:12:363,2.5181,5.2252,10.6193,-0.0179,-0.1005,9.806,0.0721,-0.336,0.1066,-15.19,-37.25,-5.56,144.17,-84.66,65.19
52.75275,-1.675011,142.26,18.44,6,351.26,21 / 23,2605120,2019-11-06 11:25:12:463,2.4257,2.3808,9.4379,-0.074,0.059,9.8062,0.1166,0.3311,-0.2915,-14,-37.44,-5,138.61,-85.06,60.21
52.75275,-1.675011,142.26,18.44,6,351.26,21 / 23,2605220,2019-11-06 11:25:12:563,3.2555,-8.5458,9.3513,-0.1306,0.1791,9.8041,-0.1101,0.766,-0.6021,-14.37,-37.06,-5.56,138.11,-83.77,61.31
52.75275,-1.675011,142.26,18.44,6,351.26,21 / 23,2605320,2019-11-06 11:25:12:663,1.3442,0.6555,9.4471,-0.0433,0.1048,9.806,-0.0105,0.0755,0.0073,-13.75,-36.87,-5.62,140.44,-83.14,63.15
52.75275,-1.675011,142.26,18.44,6,351.26,21 / 23,2605420,2019-11-06 11:25:12:763,-0.5272,4.3344,10.1408,0.0174,-0.0463,9.8064,0.0067,-0.4636,0.2058,-12.87,-37.06,-5.5,140.44,-83.14,63.15
52.75275,-1.675011,142.26,18.44,6,351.26,21 / 23,2605520,2019-11-06 11:25:12:863,-1.1184,1.7477,11.9028,0.0307,0.0114,9.8065,0.1803,-0.6059,0.4276,-13.19,-37.44,-5.37,141.96,-83.41,62.33
52.75275,-1.675011,142.26,18.44,6,351.26,21 / 23,2605620,2019-11-06 11:25:12:963,1.3706,-5.8432,10.2479,0.0809,0.0294,9.8062,0.1823,0.434,-0.3509,-13.56,-37.31,-5.37,145.82,-83.55,66.59
52.75275,-1.675011,142.26,18.44,6,351.26,21 / 23,2605720,2019-11-06 11:25:13:063,0.9771,-4.8412,9.1183,-0.0725,0.0199,9.8063,-0.1792,0.4664,-0.2872,-13.44,-37.37,-5.62,145.82,-83.55,66.59
52.75275,-1.675011,142.26,18.44,6,351.26,21 / 23,2605820,2019-11-06 11:25:13:163,-0.2764,2.3355,8.7942,-0.008,-0.0196,9.8066,-0.1658,0.4516,-0.1241,-13.37,-37.06,-5.44,141.18,-83.21,64.18
52.75275,-1.675011,142.26,18.44,6,351.26,21 / 23,2605920,2019-11-06 11:25:13:263,0.7269,-0.8036,10.0917,0.0062,0.0108,9.8066,-0.0065,0.0495,-0.0357,-13.5,-37.06,-6,140.22,-83.25,63.96
52.752934,-1.675043,142.21,19.31,4,351.54,21 / 22,2606020,2019-11-06 11:25:13:363,-1.0895,-3.7929,10.2308,0.0261,0.0333,9.8065,0.1101,-0.0849,0.0507,-13.56,-37.37,-5.94,140.22,-83.25,63.96
52.752934,-1.675043,142.21,19.31,4,351.54,21 / 22,2606120,2019-11-06 11:25:13:463,-0.2428,-1.6386,9.9015,0.1028,0.0645,9.8058,0.1185,0.256,-0.3955,-13.37,-36.94,-5.87,145.16,-83.19,66
52.752934,-1.675043,142.21,19.31,4,351.54,21 / 22,2606220,2019-11-06 11:25:13:563,-0.1706,2.6022,10.6417,-0.0104,0.0238,9.8066,0.0166,0.4611,-0.2119,-13.56,-36.94,-5.25,151.98,-83.09,73.71
52.752934,-1.675043,142.21,19.31,4,351.54,21 / 22,2606320,2019-11-06 11:25:13:663,-0.6605,-0.2105,12.0857,-0.0163,-0.0003,9.8065,-0.0108,0.1047,-0.0889,-13.25,-37.12,-4.62,150.82,-83.05,73.01
52.752934,-1.675043,142.21,19.31,4,351.54,21 / 22,2606420,2019-11-06 11:25:13:763,0.8381,-1.259,9.6837,0.0513,0.0087,9.8064,0.075,-0.0639,0.0568,-12.75,-37,-5.37,150.82,-83.05,73.01
52.752934,-1.675043,142.21,19.31,4,351.54,21 / 22,2606520,2019-11-06 11:25:13:863,0.5244,-2.4417,10.7928,-0.0079,0.0041,9.8066,-0.0139,0.3236,-0.1874,-12.44,-37.06,-5.19,152.61,-83.15,75.42
52.752934,-1.675043,142.21,19.31,4,351.54,21 / 22,2606620,2019-11-06 11:25:13:963,0.7559,-3.0657,9.306,0.0033,0.0129,9.8066,0.1057,0.3388,-0.1606,-13.19,-37,-5.44,153,-83.09,75.85
52.752934,-1.675043,142.21,19.31,4,351.54,21 / 22,2606720,2019-11-06 11:25:14:063,1.0713,-2.451,10.4483,0.0555,0.0252,9.8064,0.0805,-0.2339,-0.0309,-13.12,-37,-4.87,153,-83.09,75.85
52.752934,-1.675043,142.21,19.31,4,351.54,21 / 22,2606820,2019-11-06 11:25:14:163,-0.7214,8.3257,11.8605,0.0214,-0.0778,9.8063,-0.0195,-1.0592,0.741,-13.5,-37.5,-5.56,155.29,-83.09,78.81
52.752934,-1.675043,142.21,19.31,4,351.54,21 / 22,2606920,2019-11-06 11:25:14:263,-0.1387,8.2946,10.973,0.008,-0.0781,9.8063,0.1993,-0.1711,-0.0198,-13.37,-37.62,-5.19,154.52,-83.56,78.12
52.75311,-1.675082,142.19,19.84,4,351.65,22 / 23,2607021,2019-11-06 11:25:14:364,3.3447,-3.819,11.4029,0.0265,-0.162,9.8052,-0.0663,0.5287,-0.3816,-13.44,-37.31,-5.12,151.27,-84.47,75.35
52.75311,-1.675082,142.19,19.84,4,351.65,22 / 23,2607120,2019-11-06 11:25:14:463,3.3299,-4.1372,11.6937,-0.0088,0.0234,9.8066,-0.3204,0.7225,-0.2392,-13.75,-36.81,-5.19,151.27,-84.47,75.35
52.75311,-1.675082,142.19,19.84,4,351.65,22 / 23,2607220,2019-11-06 11:25:14:563,2.5642,1.1538,10.3575,-0.016,0.0166,9.8065,0.0732,0.3456,-0.1988,-14.06,-37.37,-4.81,152.94,-84.51,76.31
52.75311,-1.675082,142.19,19.84,4,351.65,22 / 23,2607319,2019-11-06 11:25:14:662,0.2793,0.7485,9.171,-0.0322,-0.0219,9.8065,0.0309,-0.3019,0.2547,-13.56,-37.31,-4.87,151.84,-84.5,75.14
52.75311,-1.675082,142.19,19.84,4,351.65,22 / 23,2607420,2019-11-06 11:25:14:763,1.2476,1.3933,10.1443,-0.0354,-0.015,9.8065,0.0923,0.0095,-0.0112,-14.12,-37.5,-4.87,151.84,-84.5,75.14
52.75311,-1.675082,142.19,19.84,4,351.65,22 / 23,2607520,2019-11-06 11:25:14:863,2.092,2.2386,10.048,0.0571,0.0446,9.8063,0.0451,0.167,-0.2766,-14.31,-37.69,-5.37,149.94,-84.48,72.81
52.75311,-1.675082,142.19,19.84,4,351.65,22 / 23,2607620,2019-11-06 11:25:14:963,2.1838,0.3438,9.3093,-0.0145,-0.0159,9.8066,-0.0026,-0.0275,0.1811,-14.12,-36.87,-5.31,152.72,-84.44,76.13
52.75311,-1.675082,142.19,19.84,4,351.65,22 / 23,2607720,2019-11-06 11:25:15:063,1.1827,-3.2336,7.7422,-0.046,-0.0359,9.8065,-0.2166,0.2064,0.2284,-14.25,-37.37,-4.56,149.78,-84.49,72.63
52.75311,-1.675082,142.19,19.84,4,351.65,22 / 23,2607821,2019-11-06 11:25:15:164,0.9219,-5.7018,7.6671,-0.0424,-0.038,9.8064,0.1557,0.2797,-0.5229,-14.5,-37.56,-5.31,149.78,-84.49,72.63
52.75311,-1.675082,142.19,19.84,4,351.65,22 / 23,2607920,2019-11-06 11:25:15:263,-1.0104,-1.4543,8.2012,-0.0285,0.0065,9.8066,0.0664,0.1101,0.1825,-14.06,-37.12,-4.5,150.06,-84.55,69.2
52.753284,-1.675123,142.19,20.42,4,351.2,22 / 23,2608020,2019-11-06 11:25:15:363,-1.8258,1.788,8.2461,-0.0172,0.0236,9.8065,-0.1876,0.0406,-0.1107,-13.81,-37.56,-4.94,147.06,-84.38,69.01
52.753284,-1.675123,142.19,20.42,4,351.2,22 / 23,2608120,2019-11-06 11:25:15:463,-0.2861,0.1596,7.9722,0.0188,0.0086,9.8066,0.0518,-0.605,0.1767,-14,-37.37,-4.62,147.06,-84.38,69.01
52.753284,-1.675123,142.19,20.42,4,351.2,22 / 23,2608220,2019-11-06 11:25:15:563,-1.3823,-4.3869,7.8766,-0.0183,-0.0445,9.8065,-0.2763,-0.0682,0.3395,-14.12,-37.56,-5.62,147.89,-84.4,70.24
52.753284,-1.675123,142.19,20.42,4,351.2,22 / 23,2608320,2019-11-06 11:25:15:663,0.305,-0.7598,9.1636,-0.0131,-0.0259,9.8066,0.0109,0.2602,-0.4465,-13.62,-37.25,-5,146.54,-84.48,68.72
52.753284,-1.675123,142.19,20.42,4,351.2,22 / 23,2608420,2019-11-06 11:25:15:763,-0.1506,1.7338,9.3874,-0.0272,0.0925,9.8062,-0.0688,0.2352,0.1805,-14.12,-37.31,-5.31,148.41,-83.94,70.29
52.753284,-1.675123,142.19,20.42,4,351.2,22 / 23,2608520,2019-11-06 11:25:15:863,0.8394,-1.8584,8.4626,-0.049,-0.0044,9.8064,0.14,0.5086,-0.3001,-13.75,-37.12,-5.25,148.41,-83.94,70.29
52.753284,-1.675123,142.19,20.42,4,351.2,22 / 23,2608620,2019-11-06 11:25:15:963,2.547,-2.6616,9.3961,0.0356,-0.0442,9.8065,-0.1126,0.0711,0.0153,-14.81,-37.5,-5.12,147.19,-83.81,67.9
52.753284,-1.675123,142.19,20.42,4,351.2,22 / 23,2608720,2019-11-06 11:25:16:063,3.7512,-2.6453,11.7372,0.0862,-0.0331,9.8061,0.2011,-0.5903,0.2834,-14.19,-37.87,-4.44,152.07,-84.24,71.08
52.753284,-1.675123,142.19,20.42,4,351.2,22 / 23,2608820,2019-11-06 11:25:16:163,2.3006,6.5438,12.5124,-0.0068,0.1158,9.8059,-0.2143,-0.8687,0.5124,-14.31,-37.56,-4.94,152.07,-84.24,71.08
52.753284,-1.675123,142.19,20.42,4,351.2,22 / 23,2608920,2019-11-06 11:25:16:263,3.6384,-3.7443,11.6255,-0.0282,0.001,9.8065,0.2462,0.269,-0.4225,-13.75,-37.44,-5.19,151.43,-83.61,73.61
52.753468,-1.675169,142.2,20.98,4,350.58,21 / 23,2609020,2019-11-06 11:25:16:363,4.1037,-4.7928,10.4895,-0.0121,-0.007,9.8065,-0.2074,0.846,-0.3466,-14.25,-37,-5.62,145.76,-83.71,70.48
52.753468,-1.675169,142.2,20.98,4,350.58,21 / 23,2609120,2019-11-06 11:25:16:463,2.9495,-0.644,10.6706,0.0242,0.0062,9.8066,-0.0933,0.6043,-0.3475,-14.37,-37.44,-4.69,149.79,-83.75,71.75
52.753468,-1.675169,142.2,20.98,4,350.58,21 / 23,2609221,2019-11-06 11:25:16:564,0.9401,4.8341,11.3634,0.0181,0.0246,9.8065,0.1737,-0.0699,0.0233,-13.75,-37.19,-5.19,149.79,-83.75,71.75
52.753468,-1.675169,142.2,20.98,4,350.58,21 / 23,2609320,2019-11-06 11:25:16:663,0.6604,1.9776,11.1112,0.0068,-0.0414,9.8065,-0.0047,-0.4517,0.1971,-14.31,-36.87,-5.19,151.26,-83.7,73.49
52.753468,-1.675169,142.2,20.98,4,350.58,21 / 23,2609420,2019-11-06 11:25:16:763,0.3331,-6.836,10.9261,0.0241,-0.0331,9.8066,-0.0599,-0.1118,0.2104,-14.94,-37.25,-5.06,150.5,-84.23,72.41
52.753468,-1.675169,142.2,20.98,4,350.58,21 / 23,2609520,2019-11-06 11:25:16:863,3.888,-1.3281,8.4051,0.0315,-0.0119,9.8065,0.0308,0.3006,-0.2713,-14.69,-36.87,-4.94,150.5,-84.23,72.41
52.753468,-1.675169,142.2,20.98,4,350.58,21 / 23,2609620,2019-11-06 11:25:16:963,-0.2824,1.7098,8.2606,-0.0275,0.0384,9.8065,0.1015,0.5487,-0.3526,-14.25,-37.44,-4.62,152.73,-84.21,75.89
52.753468,-1.675169,142.2,20.98,4,350.58,21 / 23,2609720,2019-11-06 11:25:17:063,-2.4805,2.182,9.1783,-0.0162,-0.0002,9.8066,0.0391,-0.284,0.0823,-14.12,-37.94,-4.5,154.59,-83.76,73.66
52.753468,-1.675169,142.2,20.98,4,350.58,21 / 23,2609820,2019-11-06 11:25:17:163,2.3074,-5.558,11.0612,0.0128,0.0027,9.8066,0.1969,-0.7252,0.3913,-13.5,-37.31,-5.19,151.17,-83.78,74.35
52.753468,-1.675169,142.2,20.98,4,350.58,21 / 23,2609920,2019-11-06 11:25:17:263,2.7075,-6.7862,10.4773,0.0555,-0.0149,9.8064,0.1006,-0.4882,0.2773,-14,-37.12,-4.56,151.17,-83.78,74.35
52.753654,-1.675215,142.23,21.29,4,351.84,22 / 23,2610020,2019-11-06 11:25:17:363,-0.2392,-0.8088,9.9862,-0.0356,0.1155,9.8058,-0.1477,0.3386,-0.267,-14.06,-37.75,-4.81,152.64,-83.71,75.04
52.753654,-1.675215,142.23,21.29,4,351.84,22 / 23,2610120,2019-11-06 11:25:17:463,2.7811,-4.1658,7.8416,-0.0827,0.0026,9.8062,-0.0981,0.474,-0.3585,-13.56,-37.06,-5.56,146.71,-83.46,71.33
52.753654,-1.675215,142.23,21.29,4,351.84,22 / 23,2610219,2019-11-06 11:25:17:562,-0.1386,4.3957,8.8997,-0.0864,-0.034,9.8061,-0.0507,-0.1337,0.1321,-14.25,-37.31,-5.25,146.71,-83.46,71.33
52.753654,-1.675215,142.23,21.29,4,351.84,22 / 23,2610320,2019-11-06 11:25:17:663,0.449,2.4896,10.1999,-0.0441,0,9.8065,-0.227,-0.6345,0.4473,-13.81,-37.31,-5.94,146.4,-83.33,66.75
52.753654,-1.675215,142.23,21.29,4,351.84,22 / 23,2610420,2019-11-06 11:25:17:763,0.9512,0.1426,10.4959,-0.0064,0.0038,9.8066,0.1931,-0.452,0.1888,-13.69,-36.69,-5.69,140.38,-83.18,63.14
52.753654,-1.675215,142.23,21.29,4,351.84,22 / 23,2610520,2019-11-06 11:25:17:863,2.9176,-2.4726,11.2007,-0.0255,0.0225,9.8066,-0.2373,0.6171,-0.1855,-13.25,-37.25,-5.75,139.72,-82.98,62.89
52.753654,-1.675215,142.23,21.29,4,351.84,22 / 23,2610620,2019-11-06 11:25:17:963,-0.1977,2.7173,11.3536,-0.0172,-0.0495,9.8065,-0.0263,0.5021,-0.3579,-13.62,-37.37,-5.31,139.72,-82.98,62.89
52.753654,-1.675215,142.23,21.29,4,351.84,22 / 23,2610720,2019-11-06 11:25:18:063,1.1757,1.6509,12.9833,0.0145,0.026,9.8065,0.0637,0.0232,-0.0795,-13.87,-37.37,-6.19,137.32,-83.14,59.33
52.753654,-1.675215,142.23,21.29,4,351.84,22 / 23,2610820,2019-11-06 11:25:18:163,2.2677,-1.6675,9.9568,0.0009,0.0844,9.8063,-0.1136,-0.1247,0.1375,-13.44,-37.25,-6,139.3,-82.77,62.02
52.753654,-1.675215,142.23,21.29,4,351.84,22 / 23,2610920,2019-11-06 11:25:18:263,1.6076,-4.2123,9.2376,-0.0918,0.0864,9.8058,-0.033,-0.2439,0.3017,-13.62,-37.19,-5.87,139.3,-82.77,62.02
52.753845,-1.675262,142.24,21.37,4,350.93,22 / 23,2611020,2019-11-06 11:25:18:363,0.0442,-0.7082,11.176,0.0121,-0.0767,9.8063,-0.0633,0.258,-0.1504,-13.19,-36.69,-6.31,139.82,-82.04,61.46
52.753845,-1.675262,142.24,21.37,4,350.93,22 / 23,2611120,2019-11-06 11:25:18:463,1.8678,3.0439,11.2339,0.0677,-0.1251,9.8056,0.0627,0.4761,-0.2175,-12.94,-37,-5.56,137.66,-82.85,60.1
52.753845,-1.675262,142.24,21.37,4,350.93,22 / 23,2611220,2019-11-06 11:25:18:563,0.6321,-0.7635,9.9813,0.0262,-0.0514,9.8064,-0.0836,0.1539,-0.0671,-13.81,-37.19,-4.94,140.4,-83.18,59.35
52.753845,-1.675262,142.24,21.37,4,350.93,22 / 23,2611320,2019-11-06 11:25:18:663,0.8795,-3.4362,9.4904,-0.0583,0.0412,9.8064,-0.0421,-0.4991,0.1518,-13.5,-37.44,-5.12,140.4,-83.18,59.35
52.753845,-1.675262,142.24,21.37,4,350.93,22 / 23,2611420,2019-11-06 11:25:18:763,0.971,-4.6021,8.8743,-0.018,0.0208,9.8066,0.118,-0.1198,0.2404,-13.56,-36.81,-5.94,137.11,-82.77,58.49
52.753845,-1.675262,142.24,21.37,4,350.93,22 / 23,2611520,2019-11-06 11:25:18:863,0.6401,0.41,9.1772,-0.0262,0.0088,9.8066,-0.0692,0.2631,-0.3812,-13.56,-36.81,-5.37,139.9,-82.63,57.89
52.753845,-1.675262,142.24,21.37,4,350.93,22 / 23,2611620,2019-11-06 11:25:18:963,0.0781,0.1636,10.1654,-0.0017,-0.0793,9.8063,0.021,0.2382,-0.0581,-13.75,-37.19,-5.44,139.9,-82.63,57.89
52.753845,-1.675262,142.24,21.37,4,350.93,22 / 23,2611720,2019-11-06 11:25:19:063,0.1284,0.981,11.3242,-0.002,-0.0155,9.8066,-0.0248,-0.2765,0.2493,-14,-37.31,-5.31,137.44,-82.97,55.39
52.753845,-1.675262,142.24,21.37,4,350.93,22 / 23,2611820,2019-11-06 11:25:19:163,-0.0087,-0.4859,10.7143,0.0277,0.0686,9.8063,0.0493,0.0712,-0.0096,-14,-37.56,-4.56,139.34,-82.92,57.32
52.753845,-1.675262,142.24,21.37,4,350.93,22 / 23,2611920,2019-11-06 11:25:19:263,1.5352,-3.4009,9.6171,0.084,0.1556,9.805,-0.0645,0.3119,-0.2652,-13.62,-37.94,-4.87,145.72,-82.49,64.72
52.754032,-1.675308,142.23,21,4,352.11,22 / 23,2612021,2019-11-06 11:25:19:364,-0.1733,0.6786,8.3076,-0.0233,-0.0508,9.8064,0.0586,0.3571,0.0139,-13.94,-37.94,-5.31,145.72,-82.49,64.72
52.754032,-1.675308,142.23,21,4,352.11,22 / 23,2612119,2019-11-06 11:25:19:462,-0.9748,3.6896,8.8143,-0.037,-0.038,9.8064,-0.128,-0.2019,0.3926,-13.75,-37.44,-4.87,141.29,-82.66,59.67
52.754032,-1.675308,142.23,21,4,352.11,22 / 23,2612220,2019-11-06 11:25:19:563,-0.0365,2.2175,9.4013,-0.0102,-0.0047,9.8066,0.0484,-0.2947,0.124,-14.25,-37.56,-5.5,138.4,-82.83,56
52.754032,-1.675308,142.23,21,4,352.11,22 / 23,2612320,2019-11-06 11:25:19:663,0.2473,-2.6731,10.8003,-0.0167,-0.0172,9.8065,0.1519,-0.1239,0.045,-13.87,-37.81,-5.19,138.4,-82.83,56
52.754032,-1.675308,142.23,21,4,352.11,22 / 23,2612420,2019-11-06 11:25:19:763,-0.2179,0.9846,11.8062,0.0594,-0.0544,9.8062,-0.0446,-0.1735,0.1249,-14.5,-37.25,-5,137.91,-82.91,55.53
52.754032,-1.675308,142.23,21,4,352.11,22 / 23,2612521,2019-11-06 11:25:19:864,-0.4137,0.6228,11.6342,0.0547,-0.0578,9.8062,-0.0503,0.4314,-0.2839,-14.25,-37.62,-4.81,137.53,-83.92,56.78
52.754032,-1.675308,142.23,21,4,352.11,22 / 23,2612619,2019-11-06 11:25:19:962,-1.7693,1.3604,10.6162,0.0727,-0.0557,9.8062,-0.0475,0.6063,-0.3427,-14.56,-37.31,-4.5,141.04,-84.45,57.75
52.754032,-1.675308,142.23,21,4,352.11,22 / 23,2612720,2019-11-06 11:25:20:063,0.8582,-4.9491,9.9522,-0.0592,0.0602,9.8063,-0.1953,-0.1819,0.0848,-14.69,-37.12,-5.31,141.04,-84.45,57.75
52.754032,-1.675308,142.23,21,4,352.11,22 / 23,2612820,2019-11-06 11:25:20:163,0.1648,-5.3278,9.0248,0.0005,0.0119,9.8066,0.0886,-0.4628,0.4679,-14.69,-37.19,-4.87,136.86,-83.72,55.36
52.754032,-1.675308,142.23,21,4,352.11,22 / 23,2612920,2019-11-06 11:25:20:263,-0.2636,-1.4628,10.3519,0.0103,0.0034,9.8065,0.0094,0.1858,0.0347,-14.75,-37.25,-5.25,137.27,-83.75,55.89
52.75422,-1.675352,142.23,20.32,4,351.4,22 / 23,2613021,2019-11-06 11:25:20:364,0.5082,0.0622,11.3101,0.0951,-0.0383,9.8061,0.1191,0.1882,-0.1951,-14.56,-37.44,-5.19,137.27,-83.75,55.89
52.75422,-1.675352,142.23,20.32,4,351.4,22 / 23,2613121,2019-11-06 11:25:20:464,1.1006,-1.0314,10.9666,0.0471,0.0525,9.8063,-0.0114,0.0447,0.0425,-14.69,-37.75,-4.87,142.03,-84.28,58.46
52.75422,-1.675352,142.23,20.32,4,351.4,22 / 23,2613220,2019-11-06 11:25:20:563,0.2199,-2.2814,10.2045,-0.0213,0.022,9.8066,-0.0685,0.1543,-0.0522,-14.44,-37.87,-4.75,142.47,-84.05,62.97
52.75422,-1.675352,142.23,20.32,4,351.4,22 / 23,2613320,2019-11-06 11:25:20:663,-0.8601,5.1961,11.2953,-0.0608,0.0758,9.8061,-0.0407,-0.4101,0.3075,-14.62,-37.37,-5.25,143.39,-83.48,62.86
52.75422,-1.675352,142.23,20.32,4,351.4,22 / 23,2613420,2019-11-06 11:25:20:763,-2.0411,3.5327,11.0766,0.026,-0.0607,9.8064,0.1117,-0.5648,0.3676,-14.25,-38.44,-5.06,143.39,-83.48,62.86
52.75422,-1.675352,142.23,20.32,4,351.4,22 / 23,2613520,2019-11-06 11:25:20:863,-2.2245,-5.6097,9.4004,0.0134,-0.0124,9.8066,0.0526,-0.4305,0.199,-13.87,-37.94,-4.87,140.32,-84.24,60.67
52.75422,-1.675352,142.23,20.32,4,351.4,22 / 23,2613620,2019-11-06 11:25:20:963,-2.0907,-0.7868,11.0919,0.0069,0.0604,9.8064,-0.1897,-0.2497,0.2356,-14.44,-37.56,-5,142.59,-84.21,63.36
52.75422,-1.675352,142.23,20.32,4,351.4,22 / 23,2613719,2019-11-06 11:25:21:062,-1.2037,3.1385,10.5391,0.0167,0.0464,9.8065,0.037,0.2465,-0.0179,-13.87,-37.56,-4.94,142.59,-84.21,63.36
52.75422,-1.675352,142.23,20.32,4,351.4,22 / 23,2613819,2019-11-06 11:25:21:162,-2.7468,-1.5036,10.1781,-0.0009,-0.0672,9.8064,-0.1063,-0.0069,-0.0366,-15.25,-37.37,-4.81,142.2,-84.48,62.82
52.75422,-1.675352,142.23,20.32,4,351.4,22 / 23,2613919,2019-11-06 11:25:21:262,-1.8313,-0.5879,10.0205,-0.0107,0.0209,9.8066,0.1493,0.246,0.0195,-15.12,-37.44,-5.06,139.66,-85.04,60.66
