GPS LATITUDE (degrees), GPS LONGITUDE (degrees), GPS ALTITUDE (m), GPS SPEED (Kmh), GPS ACCURACY (m), GPS ORIENTATION (Â°),GPS SATELLITES IN RANGE, TIME SINCE START (ms), DATE (YYYY-MO-DD HH-MI-SS_SSS), ACCELEROMETER X (m/s²) , ACCELEROMETER Y (m/s²), ACCELEROMETER Z (m/s²), GRAVITY X (m/s²), GRAVITY Y (m/s²), GRAVITY Z (m/s²), GYROSCOPE Yaw (rad/s), GYROSCOPE Pitch (rad/s), GYROSCOPE Roll (rad/s), MAGNETIC FIELD X (Î¼T), MAGNETIC FIELD Y (Î¼T), MAGNETIC FIELD Z (Î¼T), ORIENTATION (Yaw) (Â°), ORIENTATION (Pitch) (Â°), ORIENTATION (Roll ) (Â°)
52.559357,-1.485308,143.82,18.78,4,115.94,23 / 23,8176913,2019-11-06 18:22:37:375,-2.3475,0.8945,8.6135,-0.0348,-0.0159,9.8065,-0.1528,-0.0424,0.1915,-26.19,-35.69,21.44,97.21,-87.83,-34.02
52.559357,-1.485308,143.82,18.78,4,115.94,23 / 23,8177014,2019-11-06 18:22:37:476,-2.6003,1.0783,9.5286,-0.0211,0.0053,9.8066,-0.1439,-0.0961,0.1132,-26.44,-35.5,21.44,96.67,-87.96,-34.38
52.559357,-1.485308,143.82,18.78,4,115.94,23 / 23,8177114,2019-11-06 18:22:37:576,0.0614,1.4039,9.7805,-0.0189,-0.0012,9.8065,0.0001,0.1095,-0.0685,-26.5,-35.31,20.19,96.37,-88.03,-33.28
52.559357,-1.485308,143.82,18.78,4,115.94,23 / 23,8177214,2019-11-06 18:22:37:676,-2.2533,0.4878,10.0444,0.014,0.0385,9.8065,0.0869,0.0071,-0.0611,-25.81,-35.06,20.69,102.2,-87.97,-28.8
52.559357,-1.485308,143.82,18.78,4,115.94,23 / 23,8177313,2019-11-06 18:22:37:775,-0.5465,3.0305,8.6873,0.0339,0.0053,9.8065,-0.0589,0.2598,-0.1392,-25.94,-36.25,20.63,106.7,-88.19,-24.09
52.559357,-1.485308,143.82,18.78,4,115.94,23 / 23,8177413,2019-11-06 18:22:37:875,-0.8029,0.0735,10.0493,0.004,0.0412,9.8065,0.0022,-0.1874,0.0809,-26,-36.37,20.5,112.84,-88.22,-17.84
52.559357,-1.485308,143.82,18.78,4,115.94,23 / 23,8177514,2019-11-06 18:22:37:976,-1.7165,-0.4331,9.8621,-0.0133,-0.0044,9.8066,-0.023,0.07,-0.0793,-25.94,-35.81,20.38,115.62,-88.4,-13.52
52.559357,-1.485308,143.82,18.78,4,115.94,23 / 23,8177614,2019-11-06 18:22:38:076,-0.8205,-0.2923,9.6057,0.0333,0.0085,9.8065,0.0445,-0.1767,0.0892,-25.75,-36.5,20.75,124.4,-88.41,-5.93
52.559357,-1.485308,143.82,18.78,4,115.94,23 / 23,8177714,2019-11-06 18:22:38:176,-0.3756,0.1827,9.6584,-0.0025,-0.0095,9.8066,0.0169,-0.0794,-0.0169,-25.44,-36.31,20.81,127.53,-88.21,-4.05
52.559357,-1.485308,143.82,18.78,4,115.94,23 / 23,8177814,2019-11-06 18:22:38:276,0.7722,1.3354,9.6754,-0.0176,0.0051,9.8066,0.0585,-0.0964,0.043,-25.87,-36.25,20.69,126.32,-88.09,-4.25
52.559357,-1.485308,143.82,18.78,4,115.94,22 / 23,8177914,2019-11-06 18:22:38:376,-0.1871,1.8161,9.5227,-0.0177,-0.0112,9.8066,-0.0799,-0.0427,0.065,-26,-36.75,20.56,128.55,-87.98,-2.11
52.559357,-1.485308,143.82,18.78,4,115.94,22 / 23,8178013,2019-11-06 18:22:38:475,2.5771,1.7367,8.6582,-0.0073,0.0036,9.8066,-0.1108,-0.1408,0.1173,-25.75,-37.12,20.38,131.77,-87.78,2.35
52.559357,-1.485308,143.82,18.78,4,115.94,22 / 23,8178113,2019-11-06 18:22:38:575,-0.3624,-0.9373,10.4948,-0.0064,-0.0214,9.8065,0.1234,-0.2278,0.054,-25.69,-36.19,20.25,136.21,-87.48,6.75
52.559357,-1.485308,143.82,18.78,4,115.94,22 / 23,8178213,2019-11-06 18:22:38:675,2.8067,2.414,10.101,-0.0054,-0.0191,9.8065,0.0756,0.1358,-0.1085,-26.06,-36.31,20.44,135.56,-87.43,6.04
52.559357,-1.485308,143.82,18.78,4,115.94,22 / 23,8178314,2019-11-06 18:22:38:776,-1.743,-0.1326,9.5923,0.0061,0.0098,9.8066,-0.0369,-0.1457,0.166,-25.5,-35.69,20.63,142.25,-87.52,10.57
52.559357,-1.485308,143.82,18.78,4,115.94,22 / 23,8178414,2019-11-06 18:22:38:876,0.5498,0.9624,9.7418,-0.0223,-0.0232,9.8066,0.0106,0.3292,-0.086,-26.19,-36.25,20.13,143.78,-87.57,14.66
52.559357,-1.485308,143.82,18.78,4,115.94,22 / 23,8178514,2019-11-06 18:22:38:976,-1.345,-0.2199,10.3864,0.0111,0.038,9.8065,0.0124,0.0845,0.0212,-25.12,-35.06,20.44,151.24,-87.43,21.25
52.559357,-1.485308,143.82,18.78,4,115.94,22 / 23,8178614,2019-11-06 18:22:39:076,-0.8078,1.7372,9.9509,-0.0049,0.0055,9.8065,-0.0031,0.4321,-0.1351,-26.06,-34.81,19,148.56,-87.35,20.93
52.559357,-1.485308,143.82,18.78,4,115.94,22 / 23,8178714,2019-11-06 18:22:39:176,0.8385,3.1907,9.9344,0.023,0.0255,9.8065,-0.0362,0.189,-0.0513,-25.87,-34.69,18.25,145.53,-87.21,19.12
52.559357,-1.485308,143.82,18.78,4,115.94,22 / 23,8178814,2019-11-06 18:22:39:276,-0.1357,3.091,10.1581,-0.0322,-0.0055,9.8066,-0.0873,0.2801,-0.0205,-26.12,-34.75,17.38,142.8,-87.06,17.65
52.558887,-1.483633,142.5,7.76,4,107.19,23 / 23,8178913,2019-11-06 18:22:39:375,-1.0332,0.4904,10.0189,-0.0096,0.0163,9.8066,-0.0793,0.0366,0.0761,-26.62,-35.87,16.94,144.26,-87.01,20.13
52.558887,-1.483633,142.5,7.76,4,107.19,23 / 23,8179014,2019-11-06 18:22:39:476,0.0732,2.3011,9.8485,0.0164,0.0141,9.8066,0.1162,0.2035,0.003,-25.87,-36,16.25,144.31,-87.01,20.68
52.558887,-1.483633,142.5,7.76,4,107.19,23 / 23,8179114,2019-11-06 18:22:39:576,0.1875,-0.8457,9.1806,0.0188,0.0255,9.8065,0.0358,0.0155,-0.003,-26.37,-36.12,16.56,152.58,-87.13,27.9
52.558887,-1.483633,142.5,7.76,4,107.19,23 / 23,8179214,2019-11-06 18:22:39:676,2.358,2.2672,10.5358,0.0137,-0.0129,9.8066,-0.0387,0.3645,-0.1112,-26.5,-36.69,16.25,156.35,-87.1,33.36
52.558887,-1.483633,142.5,7.76,4,107.19,23 / 23,8179313,2019-11-06 18:22:39:775,0.6746,1.1971,9.4324,0.0353,0.0434,9.8064,-0.0903,0.0727,0.1587,-26.37,-36.69,16.06,160.25,-86.94,37.41
52.558887,-1.483633,142.5,7.76,4,107.19,23 / 23,8179413,2019-11-06 18:22:39:875,2.2998,3.7843,8.8295,-0.0067,-0.0129,9.8066,-0.1094,0.5232,-0.0964,-26.81,-37.19,15,154.36,-86.84,33.7
52.558887,-1.483633,142.5,7.76,4,107.19,23 / 23,8179513,2019-11-06 18:22:39:975,0.8029,-0.0011,9.2655,0.0043,0.0227,9.8066,-0.0569,0.0971,0.0845,-26.87,-36.25,15.5,156.86,-86.67,34.75
52.558887,-1.483633,142.5,7.76,4,107.19,23 / 23,8179613,2019-11-06 18:22:40:075,0.1265,0.0445,9.8972,-0.0188,-0.0098,9.8066,-0.065,0.5537,-0.1167,-26.81,-36.87,15.31,153.04,-86.59,32.17
52.558887,-1.483633,142.5,7.76,4,107.19,23 / 23,8179713,2019-11-06 18:22:40:175,2.3069,4.0515,9.0086,0.0003,0.0227,9.8066,-0.0045,0.1456,0.0428,-27.25,-36.25,14.75,152.44,-86.44,31.51
52.558887,-1.483633,142.5,7.76,4,107.19,23 / 23,8179813,2019-11-06 18:22:40:275,1.9344,3.3915,10.0999,-0.0219,-0.0222,9.8065,0.0243,0.6169,-0.1764,-27.75,-36.62,13.94,149.95,-86.42,31.32
52.558887,-1.483633,142.5,7.76,4,107.19,23 / 23,8179913,2019-11-06 18:22:40:375,1.44,1.3817,9.9557,0.0028,-0.0169,9.8066,0.018,0.3306,-0.1064,-26.94,-35.87,14,150.55,-86.55,31.18
52.558887,-1.483633,142.5,7.76,4,107.19,23 / 23,8180013,2019-11-06 18:22:40:475,-0.5781,-3.9212,10.1101,-0.0165,-0.0657,9.8064,-0.0489,0.5561,-0.2537,-27.87,-35.62,13.13,146.82,-86.86,29.95
52.558887,-1.483633,142.5,7.76,4,107.19,23 / 23,8180114,2019-11-06 18:22:40:576,1.887,0.3542,8.8406,0.0184,-0.0238,9.8065,-0.1579,0.5425,-0.0779,-28.19,-35.81,12.81,150.04,-86.71,33.26
52.558887,-1.483633,142.5,7.76,4,107.19,23 / 23,8180214,2019-11-06 18:22:40:676,-0.6946,-4.3472,9.4903,-0.0409,-0.0372,9.8064,-0.1594,0.3513,-0.0399,-27.56,-36,13,148.49,-86.36,31.42
52.558887,-1.483633,142.5,7.76,4,107.19,23 / 23,8180313,2019-11-06 18:22:40:775,2.3536,1.354,10.2165,-0.0747,-0.053,9.8061,-0.1065,0.3981,-0.2587,-28.19,-35.19,12.63,138.59,-85.98,20.74
52.558887,-1.483633,142.5,7.76,4,107.19,23 / 23,8180413,2019-11-06 18:22:40:875,0.0375,-1.3612,10.8868,0.0005,0.0239,9.8066,-0.1089,0.1622,-0.0362,-28.25,-36.19,11.94,136.42,-85.75,19.84
52.558887,-1.483633,142.5,7.76,4,107.19,23 / 23,8180514,2019-11-06 18:22:40:976,1.6409,0.804,9.9025,0.0337,0.003,9.8065,0.1717,-0.0626,-0.0208,-28.31,-35.69,13.13,141.46,-85.74,23.54
52.558887,-1.483633,142.5,7.76,4,107.19,23 / 23,8180614,2019-11-06 18:22:41:076,-1.158,-4.0694,9.7933,0.0734,0.0161,9.8063,0.1159,-0.4284,0.1433,-27.87,-36.62,13.31,145.69,-86.33,28.36
52.558887,-1.483633,142.5,7.76,4,107.19,23 / 23,8180714,2019-11-06 18:22:41:176,0.3576,-2.0763,9.9886,0.012,-0.0319,9.8066,0.0042,-0.1207,0.0225,-26.87,-36.19,14.06,148.38,-86.81,29.03
52.558887,-1.483633,142.5,7.76,4,107.19,23 / 23,8180813,2019-11-06 18:22:41:275,-2.0235,-4.3691,10.0539,-0.0019,0.0074,9.8066,0.0207,-0.4672,0.216,-27.56,-36.44,15.75,143.45,-87.2,21.87
52.558887,-1.483633,142.5,7.76,4,107.19,22 / 23,8180913,2019-11-06 18:22:41:375,-0.8425,-0.125,7.7406,-0.0313,0.0089,9.8066,-0.138,-0.1347,-0.0242,-27.81,-35.69,15.75,134.12,-87.06,12.05
52.558887,-1.483633,142.5,7.76,4,107.19,22 / 23,8181014,2019-11-06 18:22:41:476,-0.0588,-2.6022,10.2292,-0.045,0.0053,9.8065,-0.0759,-0.1469,-0.001,-27.69,-36,16.38,128.18,-86.74,5.61
52.558887,-1.483633,142.5,7.76,4,107.19,22 / 23,8181113,2019-11-06 18:22:41:575,-3.1685,-7.7918,12.0425,0.0083,-0.0075,9.8066,-0.0644,-0.0324,-0.1296,-28.06,-36.12,16.69,128.05,-86.44,3.76
52.558887,-1.483633,142.5,7.76,4,107.19,22 / 23,8181214,2019-11-06 18:22:41:676,4.4259,1.1492,10.2177,-0.003,-0.0705,9.8063,-0.0305,0.4144,-0.5396,-26.87,-35.75,17.81,138.26,-86.49,12.03
52.558887,-1.483633,142.5,7.76,4,107.19,22 / 23,8181314,2019-11-06 18:22:41:776,-2.9305,-4.0567,8.0403,0.0196,-0.0316,9.8066,0.1504,-0.3456,-0.0082,-26.87,-35.62,18.81,151,-86.62,24.12
52.558887,-1.483633,142.5,7.76,4,107.19,22 / 23,8181413,2019-11-06 18:22:41:875,-0.2975,-5.8016,11.3967,-0.0394,-0.0287,9.8065,0.1593,-0.3499,-0.1348,-25.87,-34.87,19.06,153.55,-87.11,26.02
52.558887,-1.483633,142.5,7.76,4,107.19,22 / 23,8181513,2019-11-06 18:22:41:975,0.0255,-4.0186,10.8131,-0.0218,0.0744,9.8063,0.1101,-0.7303,0.1085,-25.69,-35.06,20.31,157.49,-86.56,28.56
52.558887,-1.483633,142.5,7.76,4,107.19,22 / 23,8181613,2019-11-06 18:22:42:075,-2.8511,-4.5047,8.7449,0.0433,0.0505,9.8064,-0.1463,-0.69,0.2037,-25,-34.62,20.06,158.51,-86.45,28.47
52.558887,-1.483633,142.5,7.76,4,107.19,22 / 23,8181714,2019-11-06 18:22:42:176,1.8181,-0.4229,10.2047,0.0517,0.029,9.8065,-0.0995,-0.5409,0.2313,-25.12,-35.19,19.25,152.94,-86.28,23.87
52.558887,-1.483633,142.5,7.76,4,107.19,22 / 23,8181814,2019-11-06 18:22:42:276,-0.6488,-4.3669,10.2196,-0.0098,0.0178,9.8066,0.1111,-0.6142,0.0756,-24.06,-35.81,21.44,156.48,-86.32,23.68
52.558887,-1.483633,142.5,7.76,4,107.19,21 / 23,8181914,2019-11-06 18:22:42:376,0.9409,-0.4211,9.7956,-0.0194,0.0124,9.8066,0.0922,-0.3793,-0.093,-24.62,-35.5,21.06,153.77,-86.39,22.08
52.558887,-1.483633,142.5,7.76,4,107.19,21 / 23,8182014,2019-11-06 18:22:42:476,-0.8816,-4.0801,10.8828,0.0356,0.0175,9.8065,0.0155,-0.4816,0.1897,-24.25,-36,22.13,156.11,-86.52,22.07
52.558887,-1.483633,142.5,7.76,4,107.19,21 / 23,8182114,2019-11-06 18:22:42:576,-0.638,-4.4424,10.3991,0.0285,-0.0697,9.8063,-0.0254,-0.0541,-0.1297,-24.06,-35.94,22.31,155.48,-87.16,21.69
52.558887,-1.483633,142.5,7.76,4,107.19,21 / 23,8182214,2019-11-06 18:22:42:676,-0.391,-4.1788,10.2945,0.0196,0.0017,9.8065,0.0749,-0.2411,0.0784,-24.06,-35.81,24.56,161.28,-87.35,24.25
52.558887,-1.483633,142.5,7.76,4,107.19,21 / 23,8182314,2019-11-06 18:22:42:776,-3.4474,-4.1873,8.9847,-0.0464,-0.0289,9.8064,-0.075,0.0781,-0.0797,-23.75,-36.5,24.69,159.07,-87.38,21.94
52.558887,-1.483633,142.5,7.76,4,107.19,21 / 23,8182413,2019-11-06 18:22:42:875,1.306,2.39,9.1773,-0.0732,-0.0332,9.8063,-0.1823,0.332,-0.2541,-23.94,-35.94,24.5,148.59,-87.13,10.9
52.558887,-1.483633,142.5,7.76,4,107.19,21 / 23,8182513,2019-11-06 18:22:42:975,-1.8385,-5.5293,11.0982,-0.0523,-0.0153,9.8064,-0.0183,0.1005,-0.0464,-23.25,-35.81,24.44,146.29,-86.69,8.13
52.558887,-1.483633,142.5,7.76,4,107.19,21 / 23,8182613,2019-11-06 18:22:43:075,2.0024,3.0343,9.4881,-0.0551,-0.1203,9.8057,-0.0757,0.4728,-0.3796,-23.62,-36,24.94,138.77,-86.65,0.35
52.558887,-1.483633,142.5,7.76,4,107.19,21 / 23,8182713,2019-11-06 18:22:43:175,-0.1469,-1.7047,10.609,0.0495,-0.0379,9.8064,0.177,-0.4173,0.2143,-22.81,-35.62,26.31,148.58,-87.44,8.72
52.558887,-1.483633,142.5,7.76,4,107.19,21 / 23,8182814,2019-11-06 18:22:43:276,-1.8692,-7.7412,10.5086,-0.0238,-0.0951,9.8062,-0.078,0.4285,-0.3897,-22.62,-34.56,26.63,147.22,-87.92,6.56
52.558887,-1.483633,142.5,7.76,4,107.19,21 / 22,8182915,2019-11-06 18:22:43:377,-0.0813,-3.5165,9.0067,0.0216,0.0269,9.8065,0.0183,-0.7096,0.3066,-21.62,-34.5,27.88,160.58,-87.74,18.03
52.558887,-1.483633,142.5,7.76,4,107.19,21 / 22,8183014,2019-11-06 18:22:43:476,-0.1805,-4.8868,9.4545,-0.0715,-0.0311,9.8063,-0.1445,0.198,-0.0481,-21.69,-34.37,26.69,151.98,-87.54,10.05
52.558887,-1.483633,142.5,7.76,4,107.19,21 / 22,8183113,2019-11-06 18:22:43:575,-2.3168,-5.3485,9.1653,-0.0024,0.0511,9.8064,-0.0074,-0.6536,0.3653,-20.75,-33.81,26.69,148.51,-86.85,4.79
52.558887,-1.483633,142.5,7.76,4,107.19,21 / 22,8183213,2019-11-06 18:22:43:675,0.9024,0.6522,9.981,-0.0495,-0.0291,9.8064,0.0548,0.0929,0.0482,-20,-32.06,25.63,139.18,-86.73,-5.29
52.558887,-1.483633,142.5,7.76,4,107.19,21 / 22,8183314,2019-11-06 18:22:43:776,5.5844,0.623,9.2347,0.0499,0.0233,9.8065,0.1445,-0.5851,0.3099,-18.81,-31.94,23.81,132.7,-86.93,-11.26
52.558887,-1.483633,142.5,7.76,4,107.19,21 / 22,8183414,2019-11-06 18:22:43:876,3.0228,1.4015,10.0825,-0.0005,-0.0315,9.8065,0.0859,-0.097,0.1078,-17.69,-32.87,22.63,130.28,-87.3,-13.97
52.558887,-1.483633,142.5,7.76,4,107.19,21 / 22,8183514,2019-11-06 18:22:43:976,2.2104,-0.7872,9.9961,0.0426,0.0538,9.8063,0.0845,-0.4883,0.2859,-18.81,-34.12,22,121.25,-87.41,-20.5
52.558887,-1.483633,142.5,7.76,4,107.19,21 / 22,8183614,2019-11-06 18:22:44:076,-0.3811,-5.4868,10.0412,0.0086,-0.0029,9.8066,0.0195,-0.1431,0.1162,-19.62,-34.94,23.5,125.39,-87.46,-17.09
52.558887,-1.483633,142.5,7.76,4,107.19,21 / 22,8183714,2019-11-06 18:22:44:176,1.1054,-1.9616,9.3487,0.0604,0.0359,9.8063,0.0218,-0.3528,0.1878,-21.37,-36.06,24.19,130.79,-87.69,-9.97
52.558887,-1.483633,142.5,7.76,4,107.19,21 / 22,8183813,2019-11-06 18:22:44:275,0.1714,-3.1441,9.8697,0.0187,0.0229,9.8066,0.0464,-0.256,0.1374,-21.69,-36.31,24.81,129.17,-87.75,-11.35
52.558887,-1.483633,142.5,7.76,4,107.19,21 / 22,8183913,2019-11-06 18:22:44:375,4.2852,0.9007,9.3697,0.029,0.0443,9.8064,-0.0086,-0.2292,0.1055,-23.19,-37.12,24.25,125.5,-87.7,-12.78
52.558887,-1.483633,142.5,7.76,4,107.19,21 / 22,8184014,2019-11-06 18:22:44:476,0.3088,-1.2595,9.3061,0.044,0.0453,9.8064,0.0668,-0.385,0.2097,-23.06,-37.12,24.44,135.08,-87.71,-2.92
52.558887,-1.483633,142.5,7.76,4,107.19,21 / 22,8184114,2019-11-06 18:22:44:576,3.953,1.8038,9.4636,0.0256,0.0494,9.8064,0.0064,-0.1321,0.092,-23.37,-36.37,25.31,136.44,-87.74,-2.57
52.558887,-1.483633,142.5,7.76,4,107.19,21 / 22,8184214,2019-11-06 18:22:44:676,0.7236,-1.6421,9.9468,0.0337,0.0343,9.8065,0.0318,-0.1809,0.1369,-23.94,-37.12,24.69,143.2,-87.62,5.53
52.558887,-1.483633,142.5,7.76,4,107.19,21 / 22,8184314,2019-11-06 18:22:44:776,3.2735,0.6822,9.7778,0.015,0.0192,9.8065,-0.0113,0.0703,-0.0275,-23.44,-37.19,25.13,147.89,-87.61,9.14
52.558887,-1.483633,142.5,7.76,4,107.19,21 / 22,8184414,2019-11-06 18:22:44:876,1.1185,-2.2277,10.1942,0.0309,0.0208,9.8065,0.0672,-0.1429,0.1469,-23.69,-37.19,25,149.56,-87.66,12.14
52.558887,-1.483633,142.5,7.76,4,107.19,21 / 22,8184513,2019-11-06 18:22:44:975,3.8203,-0.833,9.9222,0.0301,-0.0054,9.8066,0.0066,0.0652,0.0515,-23.31,-37.19,24.88,148.62,-87.81,10.01
52.558887,-1.483633,142.5,7.76,4,107.19,21 / 22,8184613,2019-11-06 18:22:45:075,2.1752,-2.8328,10.0559,0.0257,0.0039,9.8065,0.028,-0.0726,0.0812,-23.37,-36.5,25.38,152.2,-88.12,13.9
52.558887,-1.483633,142.5,7.76,4,107.19,21 / 22,8184713,2019-11-06 18:22:45:175,2.8161,-0.1009,9.368,-0.0127,-0.0026,9.8066,-0.0341,0.1973,-0.131,-23.87,-36.94,24.75,151.2,-88.14,14.08
52.558887,-1.483633,142.5,7.76,4,107.19,21 / 22,8184813,2019-11-06 18:22:45:275,1.4994,0.3799,10.3869,0.0083,0.0308,9.8066,0.0147,0.008,0.0904,-23.75,-36.69,24.94,153,-88.01,15.88
52.558887,-1.483633,142.5,7.76,4,107.19,21 / 22,8184915,2019-11-06 18:22:45:377,1.0408,-1.301,9.1741,-0.0058,-0.014,9.8066,-0.0529,0.1651,-0.0768,-24.56,-36.44,24.13,146.53,-88.08,11.62
52.558887,-1.483633,142.5,7.76,4,107.19,21 / 22,8185014,2019-11-06 18:22:45:476,1.103,-2.4511,10.1036,0.0161,0.0115,9.8066,-0.0451,-0.0417,0.1249,-23.81,-36.94,23.75,149.02,-87.98,12.9
52.558887,-1.483633,142.5,7.76,4,107.19,21 / 22,8185113,2019-11-06 18:22:45:575,1.613,-0.3099,9.4947,0.0005,-0.0056,9.8066,-0.0314,0.1687,0.0003,-23.87,-36.94,23.44,144.29,-87.97,9.21
52.558887,-1.483633,142.5,7.76,4,107.19,21 / 22,8185214,2019-11-06 18:22:45:676,2.2809,0.0924,10.1615,0.0041,-0.0019,9.8066,0.0903,0.0065,-0.0491,-24.44,-36.69,24.63,146.57,-88.11,9.3
52.558887,-1.483633,142.5,7.76,4,107.19,21 / 22,8185314,2019-11-06 18:22:45:776,1.8893,0.1292,9.9788,-0.0072,-0.0243,9.8066,0.0007,0.2001,-0.0831,-22.75,-36.5,26.44,151.13,-88.26,11.76
52.558887,-1.483633,142.5,7.76,4,107.19,21 / 22,8185414,2019-11-06 18:22:45:876,2.5454,-1.8119,9.0734,0.0158,-0.0003,9.8066,-0.0557,0.0551,-0.0063,-23.56,-34.94,30.13,153.34,-88.42,11.36
52.558887,-1.483633,142.5,7.76,4,107.19,21 / 22,8185514,2019-11-06 18:22:45:976,-0.1453,-2.0807,10.0389,-0.0146,-0.0153,9.8066,-0.0659,0.1972,-0.0855,-36.69,-40.06,53,153.76,-88.37,8.24
52.558887,-1.483633,142.5,7.76,4,107.19,21 / 22,8185614,2019-11-06 18:22:46:076,1.4547,0.2158,9.6568,-0.0135,0.0023,9.8065,0.0338,0.172,-0.0744,-36.25,-39.62,25.94,137,-88.27,10.12
52.558887,-1.483633,142.5,7.76,4,107.19,21 / 22,8185714,2019-11-06 18:22:46:176,0.9964,-1.0357,9.2273,-0.0192,-0.0065,9.8066,0.0349,-0.0047,-0.0268,-28.12,-38.12,21.94,142.45,-88.25,13.17
52.558887,-1.483633,142.5,7.76,4,107.19,21 / 22,8185814,2019-11-06 18:22:46:276,2.6607,-1.8447,9.397,-0.0108,-0.0005,9.8066,0.0129,0.042,-0.0144,-25.94,-37.31,21.63,141.39,-88.26,9.99
52.558887,-1.483633,142.5,7.76,4,107.19,21 / 22,8185913,2019-11-06 18:22:46:375,3.3824,-0.9191,9.9509,0.0063,0.0183,9.8066,-0.0555,-0.0404,-0.0055,-26.12,-37.56,21.94,142.31,-88.11,10.8
52.558887,-1.483633,142.5,7.76,4,107.19,21 / 22,8186013,2019-11-06 18:22:46:475,0.9847,-1.0151,9.6656,0.0235,0.0127,9.8066,0.0034,-0.0917,0.0991,-26.25,-37.25,21.69,147.49,-87.98,16.09
52.558887,-1.483633,142.5,7.76,4,107.19,21 / 22,8186117,2019-11-06 18:22:46:579,2.5228,1.909,10.0044,0.0177,-0.0151,9.8065,0.0329,0.1748,-0.1162,-31.87,-38.44,21.88,144.08,-88.33,18.62
52.558887,-1.483633,142.5,7.76,4,107.19,21 / 22,8186214,2019-11-06 18:22:46:676,0.4984,-1.6287,9.9763,0.0218,0.02,9.8065,0.0257,-0.0986,0.144,-42.62,-40.56,46.38,161.59,-88.39,24.34
52.558887,-1.483633,142.5,7.76,4,107.19,21 / 22,8186314,2019-11-06 18:22:46:776,1.4146,-1.6293,10.0982,-0.0088,-0.0126,9.8066,-0.0633,0.165,-0.0188,-24.25,-33.87,40.38,168.62,-88.49,19.37
52.558887,-1.483633,142.5,7.76,4,107.19,21 / 22,8186413,2019-11-06 18:22:46:875,1.4931,-1.3616,10.0572,-0.0011,-0.0027,9.8066,0.0163,0.0249,0.069,-23.69,-35.19,26.06,149.16,-88.55,11.14
52.558887,-1.483633,142.5,7.76,4,107.19,21 / 22,8186513,2019-11-06 18:22:46:975,1.1428,-0.6308,9.751,0.0078,-0.0097,9.8065,-0.0624,0.0039,0.0378,-23.81,-36,23.69,140.51,-88.67,4.62
52.558887,-1.483633,142.5,7.76,4,107.19,21 / 22,8186613,2019-11-06 18:22:47:075,0.2255,-0.9324,8.9882,-0.0063,0.0043,9.8066,-0.0457,0.0625,0.0551,-24.25,-36.69,22.69,135.91,-88.63,1.08
52.558887,-1.483633,142.5,7.76,4,107.19,21 / 22,8186714,2019-11-06 18:22:47:176,-0.6723,-0.4599,9.6451,0.0185,0.0097,9.8065,-0.0809,-0.0944,0.0761,-24.75,-36.31,22,134.91,-88.62,2.51
52.558887,-1.483633,142.5,7.76,4,107.19,21 / 22,8186814,2019-11-06 18:22:47:276,1.2369,-0.7158,10.3037,-0.0067,-0.003,9.8066,0.0739,0.0279,-0.0244,-24,-36.37,21.5,134.02,-88.6,0.41
52.558887,-1.483633,142.5,7.76,4,107.19,21 / 22,8186914,2019-11-06 18:22:47:376,1.7001,-0.147,9.1905,-0.0032,0.0049,9.8066,0.0796,-0.0454,0.0044,-24.69,-36.31,22.38,135.79,-88.8,3.54
52.558887,-1.483633,142.5,7.76,4,107.19,21 / 22,8187013,2019-11-06 18:22:47:475,1.0049,-0.759,9.3479,0.0028,0.0004,9.8066,0.0186,-0.0359,0.0195,-24.94,-36.87,22.06,134.95,-88.9,2.74
52.558887,-1.483633,142.5,7.76,4,107.19,21 / 22,8187113,2019-11-06 18:22:47:575,2.2272,-0.3979,9.9655,-0.0093,0.0023,9.8066,0.0914,0.0073,-0.0395,-24.31,-37,21.5,135.35,-88.95,2.01
52.558887,-1.483633,142.5,7.76,4,107.19,21 / 22,8187214,2019-11-06 18:22:47:676,0.968,-1.4268,10.026,0.0247,-0.0048,9.8065,0.0115,-0.1495,0.1021,-24.25,-36.19,22.19,133.45,-89.11,0.23
52.558887,-1.483633,142.5,7.76,4,107.19,21 / 22,8187314,2019-11-06 18:22:47:776,1.7532,-0.1437,9.3803,0.015,-0.0023,9.8066,-0.0604,0.0071,0.0551,-25,-36.56,22.25,125.16,-89.32,-6.8
52.558887,-1.483633,142.5,7.76,4,107.19,21 / 22,8187414,2019-11-06 18:22:47:876,0.6604,-1.6332,9.6528,0.001,0.0178,9.8066,-0.0135,-0.1072,0.0665,-24.81,-35.94,22.31,118.92,-89.23,-13.15
52.558887,-1.483633,142.5,7.76,4,107.19,21 / 22,8187514,2019-11-06 18:22:47:976,0.0553,-0.4271,9.7857,-0.0081,0.0138,9.8066,-0.0458,0.0342,-0.0291,-24.94,-36.75,21.88,116.71,-89.12,-15.51
52.558887,-1.483633,142.5,7.76,4,107.19,21 / 22,8187614,2019-11-06 18:22:48:076,1.0574,-1.7048,9.99,0.0027,0.0157,9.8066,0.0288,-0.0767,0.0157,-24.44,-36.56,21.94,127.03,-88.95,-6.42
52.558887,-1.483633,142.5,7.76,4,107.19,21 / 22,8187714,2019-11-06 18:22:48:176,1.1282,-0.205,9.8519,0.012,0.0017,9.8066,0.0268,-0.014,0.0286,-24.87,-36.56,22.19,126.39,-89.09,-5.77
52.558887,-1.483633,142.5,7.76,4,107.19,21 / 22,8187813,2019-11-06 18:22:48:275,0.9793,-0.8687,10.1138,0.0126,-0.0111,9.8066,0.0118,0.0312,-0.0328,-24.81,-37.19,22.31,125.17,-89.32,-6.8
52.558567,-1.48248,142.68,13.24,4,116.83,22 / 23,8187913,2019-11-06 18:22:48:375,1.9997,-1.264,9.6716,0.004,-0.0038,9.8066,-0.055,-0.1097,0.0479,-24.37,-36.94,22.81,131.42,-89.34,-2.91
52.558567,-1.48248,142.68,13.24,4,116.83,22 / 23,8188013,2019-11-06 18:22:48:475,0.6114,0.1027,10.4434,-0.02,-0.0029,9.8066,-0.0012,0.0883,-0.1016,-24.94,-36.62,22.38,123.2,-89.26,-8.84
52.558567,-1.48248,142.68,13.24,4,116.83,22 / 23,8188114,2019-11-06 18:22:48:576,0.0717,-0.4758,10.176,-0.0072,-0.001,9.8066,0.0256,-0.0014,0.0035,-25.12,-36,21.75,126.82,-89.18,-5.24
52.558567,-1.48248,142.68,13.24,4,116.83,22 / 23,8188214,2019-11-06 18:22:48:676,1.2182,-0.8115,9.3378,0.0049,-0.0077,9.8066,-0.0367,0.0217,-0.019,-25.12,-37.25,22.13,126.88,-89.25,-5.13
52.558567,-1.48248,142.68,13.24,4,116.83,22 / 23,8188314,2019-11-06 18:22:48:776,-1.6447,-0.6044,9.1651,-0.0244,0.0067,9.8065,-0.006,0.1182,-0.185,-24.12,-36.81,22.25,131.82,-89.21,-1.36
52.558567,-1.48248,142.68,13.24,4,116.83,22 / 23,8188414,2019-11-06 18:22:48:876,0.1374,-0.3679,10.0613,0.0299,0.0439,9.8065,-0.0607,-0.1359,0.1401,-24.94,-36.44,21.81,145.29,-88.9,13.27
52.558567,-1.48248,142.68,13.24,4,116.83,22 / 23,8188514,2019-11-06 18:22:48:976,-0.3171,0.0787,10.1226,0.0504,0.0156,9.8065,-0.0249,-0.048,0.0875,-24.81,-36.56,21.75,141.82,-88.77,9.64
52.558567,-1.48248,142.68,13.24,4,116.83,22 / 23,8188614,2019-11-06 18:22:49:076,1.3881,-0.1928,11.0471,-0.0004,-0.0039,9.8066,0.1459,-0.0409,-0.0478,-24.75,-36.5,21.13,159.02,-88.98,28.59
52.558567,-1.48248,142.68,13.24,4,116.83,22 / 23,8188713,2019-11-06 18:22:49:175,0.54,0.1421,9.4852,-0.0155,-0.003,9.8066,0.1588,0.004,-0.0235,-24.31,-37.37,23.31,167.44,-89.29,33.49
52.558567,-1.48248,142.68,13.24,4,116.83,22 / 23,8188814,2019-11-06 18:22:49:276,-0.561,-0.4136,9.4807,0.0136,-0.0124,9.8066,-0.1111,-0.0458,0.0922,-24.25,-37.12,22.19,172.87,-89.48,40.29
52.558567,-1.48248,142.68,13.24,4,116.83,23 / 23,8188915,2019-11-06 18:22:49:377,0.8024,-0.5991,9.3701,-0.0047,0.0038,9.8066,-0.1075,0.0204,0.0845,-24.81,-36.81,22.13,142.88,-89.44,11.16
52.558567,-1.48248,142.68,13.24,4,116.83,23 / 23,8189014,2019-11-06 18:22:49:476,0.13,0.472,9.829,-0.02,0.0001,9.8066,0.0531,0.0584,-0.1036,-24.75,-36.25,21.75,137.99,-89.35,6.18
52.558567,-1.48248,142.68,13.24,4,116.83,23 / 23,8189114,2019-11-06 18:22:49:576,0.5009,-0.0278,10.1992,-0.0139,0.0072,9.8066,0.0717,0.0093,-0.0297,-24.37,-37.06,21.56,143.2,-89.32,10.23
52.558567,-1.48248,142.68,13.24,4,116.83,23 / 23,8189214,2019-11-06 18:22:49:676,0.9004,-0.1945,9.6708,-0.0081,0.0064,9.8066,-0.0272,0.0239,-0.0196,-24.62,-36.94,22.19,143.36,-89.32,11.56
52.558567,-1.48248,142.68,13.24,4,116.83,23 / 23,8189313,2019-11-06 18:22:49:775,-0.2147,-0.5996,9.524,-0.0142,-0.0137,9.8066,0.0849,0.0154,-0.0694,-24.62,-37.31,21.75,146.46,-89.29,14.67
52.558567,-1.48248,142.68,13.24,4,116.83,23 / 23,8189414,2019-11-06 18:22:49:876,-0.9351,-0.2477,9.4222,0.0091,-0.0046,9.8066,0.0308,-0.0396,-0.009,-24.37,-36.56,21.81,146.66,-89.46,13.81
52.558567,-1.48248,142.68,13.24,4,116.83,23 / 23,8189514,2019-11-06 18:22:49:976,0.0541,0.1368,10.4292,-0.0042,-0.0111,9.8066,-0.0024,0.0909,-0.0423,-24.75,-36.06,22.31,146.99,-89.51,15.36
52.558567,-1.48248,142.68,13.24,4,116.83,23 / 23,8189614,2019-11-06 18:22:50:076,-0.9453,0.4089,9.8322,0.0083,-0.0022,9.8066,-0.0476,-0.0205,0.0499,-24.62,-36.56,21.81,140.69,-89.6,9.06
52.558567,-1.48248,142.68,13.24,4,116.83,23 / 23,8189714,2019-11-06 18:22:50:176,1.299,-0.9015,9.3418,0.0028,-0.0032,9.8066,-0.0049,0.0144,-0.0132,-24.5,-36.19,22,133.41,-89.58,0.56
52.558567,-1.48248,142.68,13.24,4,116.83,23 / 23,8189814,2019-11-06 18:22:50:276,0.7203,-0.0684,9.9793,-0.0007,0.0007,9.8066,-0.0194,0.0517,-0.0308,-24.5,-36.94,21.88,137.5,-89.61,4.69
52.558567,-1.48248,142.68,13.24,4,116.83,22 / 23,8189914,2019-11-06 18:22:50:376,-0.5429,-0.5248,9.8773,0.0083,-0.0163,9.8066,0.0127,0.1094,-0.0498,-24.56,-36.37,22,146.11,-89.65,14.55
52.558567,-1.48248,142.68,13.24,4,116.83,22 / 23,8190014,2019-11-06 18:22:50:476,-0.7025,-0.2757,9.6721,-0.0048,-0.0037,9.8066,-0.0193,-0.0416,0.0194,-24.87,-36.12,22.06,157.08,-89.8,25.65
52.558567,-1.48248,142.68,13.24,4,116.83,22 / 23,8190114,2019-11-06 18:22:50:576,1.6267,0.037,10.0756,-0.0121,0.0095,9.8066,0.026,-0.0674,0.0096,-24.12,-36.37,22.63,141.48,-89.81,7.57
52.558567,-1.48248,142.68,13.24,4,116.83,22 / 23,8190214,2019-11-06 18:22:50:676,-1.4182,-1.0052,9.3932,0.0251,0.0097,9.8066,-0.0823,-0.1439,0.1449,-25,-36.75,21.94,135.25,-89.76,3.71
52.558567,-1.48248,142.68,13.24,4,116.83,22 / 23,8190313,2019-11-06 18:22:50:775,1.0413,-1.0937,9.7394,0.0145,0.0177,9.8066,0.0147,-0.0476,0.0734,-24.37,-36.31,22.38,127.96,-89.71,-4.8
52.558567,-1.48248,142.68,13.24,4,116.83,22 / 23,8190413,2019-11-06 18:22:50:875,-0.117,-0.7753,10.2269,0.0002,-0.0054,9.8066,0.0914,-0.0932,-0.0171,-24.56,-35.81,22.25,111.43,-89.85,-20.08
52.558567,-1.48248,142.68,13.24,4,116.83,22 / 23,8190513,2019-11-06 18:22:50:975,0.9709,0.7487,9.3579,-0.0026,0.015,9.8066,0.117,-0.1169,0.0319,-24.19,-36.12,22.19,243.06,-90,110.56
52.558567,-1.48248,142.68,13.24,4,116.83,22 / 23,8190614,2019-11-06 18:22:51:076,0.5596,-0.1717,9.6424,0.0398,-0.0007,9.8065,-0.1008,-0.1253,0.1014,-24.56,-36,22.81,271.47,-89.86,139
52.558567,-1.48248,142.68,13.24,4,116.83,22 / 23,8190714,2019-11-06 18:22:51:176,2.0961,0.3336,9.8166,0.0406,0.0096,9.8065,-0.1344,-0.1319,0.1412,-24.37,-36.31,22,338.4,-89.96,-154.09
52.558567,-1.48248,142.68,13.24,4,116.83,22 / 23,8190814,2019-11-06 18:22:51:276,-0.0661,-1.9247,9.4361,0.0067,0.0111,9.8066,0.07,-0.1528,0.0507,-24.12,-35.87,22,290.46,-89.83,158.13
52.558567,-1.48248,142.68,13.24,4,116.83,22 / 23,8190914,2019-11-06 18:22:51:376,0.3251,-0.1152,9.0251,0.0104,0.0152,9.8066,-0.0162,-0.0782,0.0443,-24.56,-36.25,21.75,281.44,-89.66,150.45
52.558567,-1.48248,142.68,13.24,4,116.83,22 / 23,8191013,2019-11-06 18:22:51:475,0.7524,-0.9776,9.8548,-0.0058,0.0173,9.8066,0.0182,-0.0625,0.0171,-24.12,-37.06,22.38,278.94,-89.66,146.81
52.558567,-1.48248,142.68,13.24,4,116.83,22 / 23,8191114,2019-11-06 18:22:51:576,1.675,-0.1294,10.085,0.0083,0.003,9.8066,0.0367,-0.0903,0.0082,-24.12,-36.62,22.25,269.21,-89.67,137.07
52.558567,-1.48248,142.68,13.24,4,116.83,22 / 23,8191214,2019-11-06 18:22:51:676,0.8642,-0.241,10.8108,0.0254,-0.0045,9.8066,0.0011,-0.0851,0.0809,-24.62,-36.25,22.38,277.62,-89.52,146.78
52.558567,-1.48248,142.68,13.24,4,116.83,22 / 23,8191313,2019-11-06 18:22:51:775,1.4052,-0.6267,9.1945,0.0133,-0.0048,9.8066,-0.0439,0.0625,0.0376,-24.56,-36.12,22.31,293.94,-89.45,163.13
52.558567,-1.48248,142.68,13.24,4,116.83,22 / 23,8191413,2019-11-06 18:22:51:875,1.3482,-0.428,10.0655,-0.0231,0.0054,9.8065,0.0704,-0.1025,-0.014,-24,-36.81,22.56,299.43,-89.44,166.2
52.558567,-1.48248,142.68,13.24,4,116.83,22 / 23,8191513,2019-11-06 18:22:51:975,0.9401,-0.2638,9.3825,-0.0121,0.0116,9.8066,0.0683,-0.0404,0.0261,-25,-36.69,22.5,295.44,-89.55,163.27
52.558567,-1.48248,142.68,13.24,4,116.83,22 / 23,8191613,2019-11-06 18:22:52:075,1.1629,-0.8026,9.7921,0.0238,-0.0046,9.8066,-0.0877,-0.048,0.0425,-25.19,-36.12,22.31,300.37,-89.45,169.53
52.558567,-1.48248,142.68,13.24,4,116.83,22 / 23,8191713,2019-11-06 18:22:52:175,1.4683,-0.8735,9.4087,0.0121,0.0065,9.8066,-0.0539,0.0082,0.0897,-24.56,-36.25,22.44,305.2,-89.52,174.28
52.558567,-1.48248,142.68,13.24,4,116.83,22 / 23,8191813,2019-11-06 18:22:52:275,0.2166,-0.3926,9.862,-0.0159,0.0003,9.8066,0.0152,-0.0826,-0.064,-24.75,-36.25,22.5,301.72,-89.48,169.57
52.558567,-1.48248,142.68,13.24,4,116.83,21 / 21,8191913,2019-11-06 18:22:52:375,-0.3861,-0.4995,10.2176,-0.0062,-0.0009,9.8066,-0.0022,0.0967,-0.0238,-24.69,-36.62,22.56,291.45,-89.64,159.21
52.558567,-1.48248,142.68,13.24,4,116.83,21 / 21,8192014,2019-11-06 18:22:52:476,0.663,-1.3182,10.1819,0.0196,-0.0018,9.8066,-0.03,-0.0047,0.0001,-24.94,-36.12,22.5,291.11,-89.6,158.89
52.558567,-1.48248,142.68,13.24,4,116.83,21 / 21,8192113,2019-11-06 18:22:52:575,1.1551,0.2428,9.4659,0.0103,-0.0171,9.8066,-0.0512,0.1343,-0.0875,-25.19,-36.06,22.06,286.2,-89.49,155.38
52.558567,-1.48248,142.68,13.24,4,116.83,21 / 21,8192214,2019-11-06 18:22:52:676,1.6051,-0.2159,10.0262,0.0031,0.0126,9.8066,0.022,0.006,0.0254,-24.44,-36.44,22.44,289.14,-89.36,157.3
52.558567,-1.48248,142.68,13.24,4,116.83,21 / 21,8192314,2019-11-06 18:22:52:776,1.9893,0.2137,9.8224,-0.0135,-0.0201,9.8066,0.024,0.118,-0.1607,-25,-36.5,22.44,300.55,-89.32,169.84
52.558567,-1.48248,142.68,13.24,4,116.83,21 / 21,8192413,2019-11-06 18:22:52:875,-0.3722,-0.9156,9.5985,0.0183,0.0089,9.8066,-0.0253,-0.0138,0.1227,-23.81,-35.87,22.13,291.5,-89.21,159.81
52.558567,-1.48248,142.68,13.24,4,116.83,21 / 21,8192514,2019-11-06 18:22:52:976,0.991,-1.5103,10.4989,0.0124,-0.013,9.8066,-0.0997,0.1241,0.0057,-24.75,-35.81,22.5,300.77,-89.22,168.87
52.558567,-1.48248,142.68,13.24,4,116.83,21 / 21,8192613,2019-11-06 18:22:53:075,0.8231,-1.9814,10.2445,-0.0036,-0.0045,9.8066,0.0437,0.0128,-0.0112,-24.25,-36.19,22.56,303.31,-89.17,170.28
52.558567,-1.48248,142.68,13.24,4,116.83,21 / 21,8192714,2019-11-06 18:22:53:176,1.3899,0.0843,9.8353,-0.0108,-0.0047,9.8066,0.0266,0.0793,-0.0768,-24.5,-35.81,22.44,301.95,-89.04,170.34
52.558567,-1.48248,142.68,13.24,4,116.83,21 / 21,8192814,2019-11-06 18:22:53:276,1.3457,-1.5804,9.6455,0.0113,0.0121,9.8066,0.004,-0.0261,0.0297,-24.5,-36.31,22.88,302.34,-88.99,169.48
52.558567,-1.48248,142.68,13.24,4,116.83,21 / 22,8192919,2019-11-06 18:22:53:381,-0.1355,-1.2831,10.2417,-0.003,-0.0185,9.8066,-0.0137,0.0723,-0.105,-24.62,-35.94,22.38,303.89,-88.96,173.48
52.558567,-1.48248,142.68,13.24,4,116.83,21 / 22,8193014,2019-11-06 18:22:53:476,1.2446,0.0473,10.1661,0.0132,-0.0019,9.8066,-0.0437,0.1274,0.029,-24.62,-36.31,22.13,303.18,-88.93,172.81
52.558567,-1.48248,142.68,13.24,4,116.83,21 / 22,8193114,2019-11-06 18:22:53:576,-0.1566,-1.3451,9.3537,-0.0055,-0.0219,9.8066,-0.0339,0.1072,-0.129,-24.94,-36.06,22.25,302.44,-88.93,172.08
52.558567,-1.48248,142.68,13.24,4,116.83,21 / 22,8193214,2019-11-06 18:22:53:676,1.3366,-0.878,10.3868,-0.0103,-0.0021,9.8066,0.0812,0.0019,0.0525,-24.69,-35.56,22.19,303.41,-88.81,173.14
52.558567,-1.48248,142.68,13.24,4,116.83,21 / 22,8193313,2019-11-06 18:22:53:775,0.908,-1.9871,10.6258,-0.0148,-0.0044,9.8066,0.0756,0.0267,-0.0289,-25.25,-35.94,22.5,309.96,-88.68,178.43
52.558567,-1.48248,142.68,13.24,4,116.83,21 / 22,8193413,2019-11-06 18:22:53:875,-0.5865,-0.2342,9.3368,0.0153,-0.0201,9.8065,-0.0715,0.0434,0.0433,-25.94,-35.69,22.69,308.5,-88.56,178.18
52.558567,-1.48248,142.68,13.24,4,116.83,21 / 22,8193513,2019-11-06 18:22:53:975,0.5164,-0.5063,9.7981,0.0219,0.0046,9.8066,-0.0915,-0.0093,0.1635,-26.25,-35.75,22.81,311.38,-88.48,-178.92
52.558567,-1.48248,142.68,13.24,4,116.83,21 / 22,8193613,2019-11-06 18:22:54:075,-1.0173,-0.8354,10.2072,-0.0483,-0.0182,9.8065,-0.0284,-0.0286,-0.1125,-25.62,-35.81,22.69,323.36,-88.7,-167.32
52.558567,-1.48248,142.68,13.24,4,116.83,21 / 22,8193713,2019-11-06 18:22:54:175,-1.8173,-0.7128,9.5599,-0.0245,-0.0105,9.8066,0.0844,0.0089,0.0642,-25.25,-35.62,23.38,329.98,-88.77,-161.98
52.558567,-1.48248,142.68,13.24,4,116.83,21 / 22,8193814,2019-11-06 18:22:54:276,-0.1413,0.1884,10.1178,-0.0238,-0.0269,9.8065,0.0421,0.1201,-0.1129,-25.5,-35.25,22.38,343.7,-88.52,-147.2
52.558567,-1.48248,142.68,13.24,4,116.83,21 / 22,8193915,2019-11-06 18:22:54:377,-1.5155,-3.1015,10.6635,-0.0125,-0.0229,9.8066,-0.0412,-0.0065,-0.017,-25.19,-34.81,22.06,343.59,-88.55,-147.32
52.558567,-1.48248,142.68,13.24,4,116.83,21 / 22,8194015,2019-11-06 18:22:54:477,0.7055,0.3342,9.6134,-0.0168,-0.0281,9.8066,0.0811,0.2114,-0.1916,-26.19,-36.44,21.5,347.95,-88.48,-141.95
52.558567,-1.48248,142.68,13.24,4,116.83,21 / 22,8194114,2019-11-06 18:22:54:576,-2.3992,-2.8846,9.9182,-0.0053,-0.0007,9.8066,0.0265,-0.1514,0.0054,-25.62,-36.94,23.25,339.85,-88.41,-151.06
52.558567,-1.48248,142.68,13.24,4,116.83,21 / 22,8194213,2019-11-06 18:22:54:675,-1.1262,-1.0272,9.5603,-0.0125,-0.0177,9.8066,-0.1075,0.1171,-0.0967,-25,-36.31,24.56,342.58,-88.47,-151.95
52.558567,-1.48248,142.68,13.24,4,116.83,21 / 22,8194314,2019-11-06 18:22:54:776,-1.6686,-1.9154,9.5143,0.0158,0.0121,9.8066,-0.0376,-0.2429,0.1093,-24.37,-36.25,24.25,343.74,-88.66,-150.86
52.558567,-1.48248,142.68,13.24,4,116.83,21 / 22,8194413,2019-11-06 18:22:54:875,-0.0086,-1.5324,9.831,-0.0059,-0.0103,9.8066,0.0313,-0.0786,-0.0247,-24.69,-36.62,23.69,341.99,-88.64,-151.39
52.558567,-1.48248,142.68,13.24,4,116.83,21 / 22,8194513,2019-11-06 18:22:54:975,1.1108,1.4574,9.8301,0.0312,0.0467,9.8064,0.0345,-0.2701,0.1477,-24.69,-36.25,23.88,338.08,-88.7,-155.24
52.558567,-1.48248,142.68,13.24,4,116.83,21 / 22,8194613,2019-11-06 18:22:55:075,0.0232,-0.3816,10.1881,0.0172,0.0044,9.8066,-0.0641,-0.1495,-0.0421,-23.87,-35.87,23.75,320.83,-88.81,-173.37
52.558567,-1.48248,142.68,13.24,4,116.83,21 / 22,8194713,2019-11-06 18:22:55:175,2.0509,1.5731,9.7292,0.0274,0.0258,9.8065,0.0508,-0.0464,0.1284,-24.06,-37.31,24.19,296.52,-88.74,162.76
52.558567,-1.48248,142.68,13.24,4,116.83,21 / 22,8194813,2019-11-06 18:22:55:275,0.1423,-0.4829,8.8044,-0.0023,0.0043,9.8066,-0.0675,-0.202,0.0642,-24.19,-36.94,23.75,303.57,-88.72,169.74
52.558567,-1.48248,142.68,13.24,4,116.83,22 / 23,8194913,2019-11-06 18:22:55:375,0.1563,0.1287,8.9947,-0.0247,0.0069,9.8066,-0.0483,0.0509,0.1118,-23.44,-37.62,23.44,306.94,-88.92,172.96
52.558567,-1.48248,142.68,13.24,4,116.83,22 / 23,8195013,2019-11-06 18:22:55:475,1.6061,1.4036,9.7859,-0.03,-0.0055,9.8065,0.0095,0.1596,-0.1709,-23.75,-37.81,23.25,326.5,-89.23,-166.79
52.558567,-1.48248,142.68,13.24,4,116.83,22 / 23,8195113,2019-11-06 18:22:55:575,2.2876,2.0143,10.2706,0.0218,-0.0012,9.8066,0.1479,-0.1439,0.0326,-23.69,-37.5,24.63,313.31,-89.17,177.79
52.558567,-1.48248,142.68,13.24,4,116.83,22 / 23,8195214,2019-11-06 18:22:55:676,1.9498,-0.2889,10.6369,0.0525,-0.0036,9.8065,0.0447,-0.1567,0.1245,-23.87,-38.44,23.94,307.18,-88.6,173.44
52.558567,-1.48248,142.68,13.24,4,116.83,22 / 23,8195314,2019-11-06 18:22:55:776,2.0014,1.9748,10.3414,0.0094,0.0097,9.8066,-0.0127,0.0608,0.0035,-23.81,-37.06,24.25,308.37,-88.35,174.79
52.558567,-1.48248,142.68,13.24,4,116.83,22 / 23,8195413,2019-11-06 18:22:55:875,1.1448,1.0487,9.6153,0.0134,0.0239,9.8066,-0.0747,-0.0434,0.1057,-24,-36.87,24,306.04,-88.41,172.45
52.558567,-1.48248,142.68,13.24,4,116.83,22 / 23,8195513,2019-11-06 18:22:55:975,3.0497,1.4868,9.7861,0.0167,-0.0024,9.8066,-0.051,0.1745,-0.0487,-24.19,-36.37,23.75,307.41,-88.59,173.6
52.558567,-1.48248,142.68,13.24,4,116.83,22 / 23,8195614,2019-11-06 18:22:56:076,2.0993,0.2202,10.2417,0.0111,0.0125,9.8066,0.0365,0.0777,0.0014,-24.5,-36.81,23.94,303.5,-88.49,169.88
52.558567,-1.48248,142.68,13.24,4,116.83,22 / 23,8195714,2019-11-06 18:22:56:176,0.3314,1.4312,10.0386,-0.0028,-0.0012,9.8066,0.0443,0.1414,-0.0748,-24.5,-37.06,24.06,303.78,-88.34,170.3
52.558567,-1.48248,142.68,13.24,4,116.83,22 / 23,8195814,2019-11-06 18:22:56:276,2.7912,-0.7951,10.6327,-0.0306,-0.0104,9.8065,0.2754,0.0565,-0.0204,-24.87,-36.87,23.38,306.53,-88.16,175.54
52.558567,-1.48248,142.68,13.24,4,116.83,22 / 23,8195915,2019-11-06 18:22:56:377,2.844,1.4842,9.7686,0.0065,-0.0107,9.8066,-0.0059,0.1159,0.0125,-25,-36.75,23.75,308.92,-87.89,176.86
52.558567,-1.48248,142.68,13.24,4,116.83,22 / 23,8196014,2019-11-06 18:22:56:476,2.747,2.2796,8.6291,-0.0659,-0.0175,9.8064,-0.0431,0.37,-0.1175,-24.81,-37.12,23.31,317.77,-88.09,-173.43
52.558567,-1.48248,142.68,13.24,4,116.83,22 / 23,8196114,2019-11-06 18:22:56:576,-0.0145,-0.3209,9.1105,-0.0038,0.0144,9.8066,0.0446,-0.2366,0.0848,-24.56,-35.69,22.75,313.99,-88.27,-177.29
52.558567,-1.48248,142.68,13.24,4,116.83,22 / 23,8196214,2019-11-06 18:22:56:676,-0.4495,-1.4732,10.4997,-0.0063,-0.0001,9.8066,0.0239,0.0392,0.0129,-24.5,-36.5,23.31,315.02,-88.25,-177.4
52.558567,-1.48248,142.68,13.24,4,116.83,22 / 23,8196313,2019-11-06 18:22:56:775,0.0203,-1.1902,10.2981,0.0271,0.0237,9.8066,0.0462,-0.3797,0.2143,-24.81,-36.56,23,315.26,-88.24,-175.99
52.558567,-1.48248,142.68,13.24,4,116.83,22 / 23,8196413,2019-11-06 18:22:56:875,-0.3153,-1.1126,10.2038,-0.0032,0.0091,9.8065,0.028,-0.2524,0.1554,-24.87,-36.19,22.38,314.02,-88.16,-175.88
