GPS LATITUDE (degrees), GPS LONGITUDE (degrees), GPS ALTITUDE (m), GPS SPEED (Kmh), GPS ACCURACY (m), GPS ORIENTATION (Â°),GPS SATELLITES IN RANGE, TIME SINCE START (ms), DATE (YYYY-MO-DD HH-MI-SS_SSS), ACCELEROMETER X (m/s²) , ACCELEROMETER Y (m/s²), ACCELEROMETER Z (m/s²), GRAVITY X (m/s²), GRAVITY Y (m/s²), GRAVITY Z (m/s²), GYROSCOPE Yaw (rad/s), GYROSCOPE Pitch (rad/s), GYROSCOPE Roll (rad/s), MAGNETIC FIELD X (Î¼T), MAGNETIC FIELD Y (Î¼T), MAGNETIC FIELD Z (Î¼T), ORIENTATION (Yaw) (Â°), ORIENTATION (Pitch) (Â°), ORIENTATION (Roll ) (Â°)
52.84996,-1.679731,129.49,21.04,6,341.64,22 / 23,461412,2019-11-06 11:53:35:293,2.0002,0.5675,10.0862,-0.0311,-0.0585,9.8064,-0.0026,-0.2126,0.1886,-10.87,-37.19,-3.12,146.35,-81.76,56.89
52.84996,-1.679731,129.49,21.04,6,341.64,20 / 22,461512,2019-11-06 11:53:35:393,-1.52,-1.9555,10.9592,-0.0013,-0.0224,9.8066,0.0556,-0.0924,-0.064,-9.87,-37.62,-2.94,147.1,-81.61,57.27
52.84996,-1.679731,129.49,21.04,6,341.64,20 / 22,461612,2019-11-06 11:53:35:493,3.5229,-1.7547,11.1181,-0.0081,-0.0274,9.8066,0.1588,-0.1228,0,-10.37,-36.87,-3.12,146.7,-81.69,57.29
52.84996,-1.679731,129.49,21.04,6,341.64,20 / 22,461711,2019-11-06 11:53:35:592,0.6581,-4.0955,8.6456,-0.0096,-0.0588,9.8064,0.0871,0.2068,-0.1437,-11.56,-36.81,-3.25,147.5,-82.1,58.98
52.84996,-1.679731,129.49,21.04,6,341.64,20 / 22,461812,2019-11-06 11:53:35:693,1.7107,-3.1866,8.528,-0.0176,-0.0349,9.8066,0.0924,-0.1944,-0.0856,-10.75,-38.5,-2.5,150.4,-82.33,57.95
52.84996,-1.679731,129.49,21.04,6,341.64,20 / 22,461911,2019-11-06 11:53:35:792,-1.4611,-3.6123,8.9907,-0.0044,0.0286,9.8066,-0.1979,-0.0932,0.0732,-10.44,-37.31,-3.44,145.89,-81.91,56.56
52.84996,-1.679731,129.49,21.04,6,341.64,20 / 22,462012,2019-11-06 11:53:35:893,1.7444,-0.9088,10.7023,-0.0059,0.0192,9.8066,0.0169,0.0771,-0.114,-11,-37.87,-3.12,145.69,-81.57,55.21
52.84996,-1.679731,129.49,21.04,6,341.64,20 / 22,462113,2019-11-06 11:53:35:994,3.6026,-3.9139,10.8365,-0.0194,0.0328,9.8066,0.2379,-0.3722,-0.0034,-10.87,-37.69,-3.25,147.83,-81.14,57.48
52.84996,-1.679731,129.49,21.04,6,341.64,20 / 22,462212,2019-11-06 11:53:36:093,0.6959,-2.1896,8.5916,0.0258,0.0638,9.8064,0.1209,0.0831,-0.2324,-10.06,-37.25,-3.25,149.15,-81.02,59.62
52.84996,-1.679731,129.49,21.04,6,341.64,20 / 22,462312,2019-11-06 11:53:36:193,2.9082,0.6069,10.3382,0.0229,0.0534,9.8064,-0.169,-0.2371,0.3157,-10.94,-36.81,-3.31,146.2,-81.32,55.89
52.84996,-1.679731,129.49,21.04,6,341.64,20 / 22,462412,2019-11-06 11:53:36:293,1.8078,0.1823,9.347,-0.0241,0.015,9.8066,-0.164,0.2298,-0.0822,-10.87,-37.44,-3.56,141.75,-81.25,54.65
52.84996,-1.679731,129.49,21.04,6,341.64,23 / 23,462512,2019-11-06 11:53:36:393,2.4528,1.9874,9.5093,-0.0226,0.024,9.8065,0.0688,-0.0743,0.0437,-10.94,-37.62,-3.56,141.9,-81.23,54.34
52.84996,-1.679731,129.49,21.04,6,341.64,23 / 23,462611,2019-11-06 11:53:36:492,0.6641,-2.2826,8.9638,-0.0061,0.0241,9.8066,0.0452,0.1657,0.0253,-11.56,-37.31,-3.37,143.85,-81.45,52.92
52.84996,-1.679731,129.49,21.04,6,341.64,23 / 23,462711,2019-11-06 11:53:36:592,0.4728,-3.0558,9.4255,0.0226,-0.0015,9.8066,-0.0688,-0.1825,0.0743,-11.62,-37.81,-3.75,139.11,-81.69,51.25
52.84996,-1.679731,129.49,21.04,6,341.64,23 / 23,462812,2019-11-06 11:53:36:693,0.8087,-0.7397,10.1928,-0.0132,0.028,9.8065,0.0121,0.0074,0.1602,-11.25,-37.44,-4.5,137.5,-81.73,49.81
52.84996,-1.679731,129.49,21.04,6,341.64,23 / 23,462911,2019-11-06 11:53:36:792,0.9479,-2.8636,10.1929,0.0237,-0.0155,9.8065,0.0137,-0.0076,-0.1491,-11.87,-37.75,-4,138.72,-81.71,50.77
52.84996,-1.679731,129.49,21.04,6,341.64,23 / 23,463011,2019-11-06 11:53:36:892,2.072,1.1057,9.1995,0.0029,0.0015,9.8066,-0.1054,-0.1012,-0.0582,-11.94,-37.31,-4.06,139.98,-81.74,52.96
52.84996,-1.679731,129.49,21.04,6,341.64,23 / 23,463111,2019-11-06 11:53:36:992,1.928,-2.9189,9.7262,-0.0354,0.0208,9.8065,0.066,-0.0604,0.1705,-10.87,-38.25,-3.56,140.28,-81.65,52.95
52.84996,-1.679731,129.49,21.04,6,341.64,23 / 23,463211,2019-11-06 11:53:37:092,0.3737,1.5871,9.6672,-0.0066,-0.0558,9.8065,0.1436,-0.2648,0.0599,-11.06,-37.37,-4.19,139.03,-81.78,51.99
52.84996,-1.679731,129.49,21.04,6,341.64,23 / 23,463311,2019-11-06 11:53:37:192,1.1892,1.1615,9.7842,0.0138,0.0159,9.8065,0.0791,-0.3347,0.1829,-11.25,-37.12,-3.56,140.21,-81.61,53.25
52.84996,-1.679731,129.49,21.04,6,341.64,23 / 23,463411,2019-11-06 11:53:37:292,1.8022,0.9213,9.9824,0.0186,0.013,9.8066,0.0545,-0.1149,0.0913,-11.5,-37.25,-3.06,144.09,-81.81,53.84
52.84996,-1.679731,129.49,21.04,6,341.64,23 / 23,463511,2019-11-06 11:53:37:392,1.4776,0.0186,10.4346,0.0065,0.053,9.8065,0.0761,-0.3747,0.1602,-11.62,-37.19,-3.44,144.67,-81.92,54.86
52.84996,-1.679731,129.49,21.04,6,341.64,23 / 23,463612,2019-11-06 11:53:37:493,1.3242,1.9857,10.4074,0.0122,0.0077,9.8066,0.1448,0.0131,0.0434,-11.31,-37,-3.56,141.89,-81.83,56
52.84996,-1.679731,129.49,21.04,6,341.64,23 / 23,463712,2019-11-06 11:53:37:593,-1.0536,0.3749,8.495,0.0409,0.0429,9.8064,-0.3175,-0.1488,0.0963,-11.31,-37.75,-3.94,142.33,-81.79,56.06
52.84996,-1.679731,129.49,21.04,6,341.64,23 / 23,463812,2019-11-06 11:53:37:693,-0.6526,-4.8087,9.527,-0.0174,0.0635,9.8064,-0.2369,0.3484,-0.2395,-11.5,-37.62,-3.81,140.77,-81.52,53.35
52.84996,-1.679731,129.49,21.04,6,341.64,23 / 23,463912,2019-11-06 11:53:37:793,-0.8078,-1.1927,9.2981,0.0247,0.0312,9.8065,-0.0948,0.0352,0.0927,-11.37,-37.31,-3.87,140.87,-81.56,54.05
52.84996,-1.679731,129.49,21.04,6,341.64,23 / 23,464012,2019-11-06 11:53:37:893,1.205,-4.0427,10.0355,-0.0172,0.0251,9.8065,-0.0978,0.2901,-0.0818,-11.87,-37.44,-4.37,140.7,-81.62,53.71
52.84996,-1.679731,129.49,21.04,6,341.64,23 / 23,464112,2019-11-06 11:53:37:993,1.1054,-2.3189,10.3008,-0.004,-0.0795,9.8062,0.0606,0.3701,-0.3792,-11.06,-37.12,-4.5,141.78,-81.52,55.23
52.84996,-1.679731,129.49,21.04,6,341.64,23 / 23,464213,2019-11-06 11:53:38:094,1.4289,-2.6417,10.4024,0.0225,0.0033,9.8066,0.0424,0.0191,-0.0009,-12,-37.62,-3.75,142.18,-81.69,55.4
52.84996,-1.679731,129.49,21.04,6,341.64,23 / 23,464312,2019-11-06 11:53:38:193,0.4485,0.8005,8.904,0.0118,-0.0423,9.8065,-0.1386,0.3222,-0.2025,-11.56,-37.06,-4.5,141.08,-81.82,54.57
52.84996,-1.679731,129.49,21.04,6,341.64,23 / 23,464412,2019-11-06 11:53:38:293,-0.077,1.3056,10.0659,-0.0057,-0.0169,9.8065,0.0058,-0.1431,-0.0036,-11,-37.37,-4.25,141.1,-81.59,54.42
52.84996,-1.679731,129.49,21.04,6,341.64,20 / 21,464512,2019-11-06 11:53:38:393,0.5967,-0.7742,9.3881,-0.0047,-0.0034,9.8065,0.0154,0.0153,0.0398,-12.12,-37.37,-4,141.37,-81.6,54.58
52.84996,-1.679731,129.49,21.04,6,341.64,20 / 21,464612,2019-11-06 11:53:38:493,-0.0027,0.1045,10.2511,0.008,-0.0156,9.8066,-0.0409,-0.1363,0.0694,-11.44,-37.37,-4.56,137.14,-81.61,54.11
52.84996,-1.679731,129.49,21.04,6,341.64,20 / 21,464712,2019-11-06 11:53:38:593,-1.8225,-2.6158,9.9051,-0.0015,-0.0061,9.8066,0.1074,-0.0637,0.0173,-11.31,-37.5,-4,140.92,-81.53,54.07
52.84996,-1.679731,129.49,21.04,6,341.64,20 / 21,464812,2019-11-06 11:53:38:693,1.7736,-0.8664,9.6891,0.0253,-0.0205,9.8065,-0.0149,0.065,-0.0561,-11.25,-37.31,-4.06,141.83,-81.71,55.68
52.84996,-1.679731,129.49,21.04,6,341.64,20 / 21,464912,2019-11-06 11:53:38:793,1.8679,-0.9926,8.9949,0.0304,0.013,9.8065,-0.024,-0.0196,0.094,-12.06,-37.25,-3.62,143.79,-81.83,58.23
52.84996,-1.679731,129.49,21.04,6,341.64,20 / 21,465012,2019-11-06 11:53:38:893,1.4199,0.5996,9.7246,-0.007,-0.0209,9.8065,-0.019,-0.1449,0.1378,-11.25,-37.12,-4.56,139.18,-81.96,57.57
52.84996,-1.679731,129.49,21.04,6,341.64,20 / 21,465112,2019-11-06 11:53:38:993,0.4108,-1.1363,9.457,-0.0008,0.0112,9.8065,-0.0228,-0.0734,0.0402,-11.44,-37.37,-4.19,142.47,-81.98,57.09
52.84996,-1.679731,129.49,21.04,6,341.64,20 / 21,465212,2019-11-06 11:53:39:093,0.873,-0.0578,9.9502,-0.0083,0.0021,9.8066,0.0044,0.0198,-0.0358,-11.69,-37.81,-3.75,143.29,-81.89,57.27
52.84996,-1.679731,129.49,21.04,6,341.64,20 / 21,465312,2019-11-06 11:53:39:193,-0.3245,-0.1548,10.3644,0.0041,0.0014,9.8066,0.0448,-0.0053,0.0313,-11.19,-37.56,-4.31,143.49,-81.98,58.06
52.84996,-1.679731,129.49,21.04,6,341.64,20 / 21,465412,2019-11-06 11:53:39:293,0.3983,-1.6746,9.3278,0.0084,0.0101,9.8066,0.0445,0.18,-0.1481,-11.5,-37,-4.31,143.46,-82.09,58.64
52.84996,-1.679731,129.49,21.04,6,341.64,22 / 22,465512,2019-11-06 11:53:39:393,0.7605,0.5706,10.4852,-0.0081,-0.0254,9.8065,0.0333,0.0439,-0.0857,-12.06,-37.56,-3.81,143.2,-82.2,57.71
52.84996,-1.679731,129.49,21.04,6,341.64,22 / 22,465612,2019-11-06 11:53:39:493,-0.1115,-1.2809,9.2248,0.0099,0.0239,9.8066,-0.0057,0.0885,-0.0032,-11.56,-37.62,-4.19,142.98,-82.18,57.39
52.84996,-1.679731,129.49,21.04,6,341.64,22 / 22,465712,2019-11-06 11:53:39:593,0.6802,-0.3167,9.4027,-0.0198,-0.0144,9.8065,0.0035,0.0427,-0.0087,-12,-37.37,-4.31,141.11,-82.24,55.4
52.84996,-1.679731,129.49,21.04,6,341.64,22 / 22,465812,2019-11-06 11:53:39:693,1.1344,-1.4089,9.1037,-0.0052,-0.0009,9.8065,-0.0349,-0.0553,0.0495,-12.44,-37,-4.12,140.2,-82.28,54.27
52.84996,-1.679731,129.49,21.04,6,341.64,22 / 22,465912,2019-11-06 11:53:39:793,0.6811,-0.2634,9.936,-0.0127,-0.0219,9.8065,0.0703,0.0799,-0.1188,-12.37,-37.44,-4.06,139.21,-82.39,53.18
52.84996,-1.679731,129.49,21.04,6,341.64,22 / 22,466012,2019-11-06 11:53:39:893,0.2315,-0.9814,10.3958,-0.0187,-0.0099,9.8066,-0.1307,0.0525,-0.0374,-12.12,-37.25,-3.69,139.85,-82.34,53.92
52.84996,-1.679731,129.49,21.04,6,341.64,22 / 22,466112,2019-11-06 11:53:39:993,1.6144,-1.3926,9.376,-0.0266,-0.0149,9.8065,0.0162,-0.0197,0.0598,-12.25,-37.56,-4.25,139.42,-82.23,52.73
52.84996,-1.679731,129.49,21.04,6,341.64,22 / 22,466212,2019-11-06 11:53:40:093,0.9066,-0.729,9.0145,-0.0336,-0.0328,9.8064,-0.082,-0.263,0.2113,-11.19,-37.37,-4.56,133.71,-82.24,50.95
52.84996,-1.679731,129.49,21.04,6,341.64,22 / 22,466311,2019-11-06 11:53:40:192,0.198,-4.0606,10.4852,-0.0253,-0.0185,9.8066,0.0836,-0.1341,0.1092,-12.37,-36.75,-4.31,137.16,-82.27,50.28
52.84996,-1.679731,129.49,21.04,6,341.64,22 / 22,466411,2019-11-06 11:53:40:292,0.3582,-0.2481,9.7671,-0.0014,-0.047,9.8065,-0.0235,0.0669,-0.0407,-12.25,-37.5,-4.37,135.46,-82.4,48.33
52.84996,-1.679731,129.49,21.04,6,341.64,22 / 22,466512,2019-11-06 11:53:40:393,0.5039,1.3227,10.253,0.0038,0.0409,9.8065,0.0317,-0.3256,0.2913,-11.94,-37,-4.06,136.19,-82.42,49.31
52.84996,-1.679731,129.49,21.04,6,341.64,22 / 22,466612,2019-11-06 11:53:40:493,-0.3028,0.6135,9.5857,0.0051,-0.0561,9.8064,0.012,-0.0502,0.0425,-12.12,-37.56,-4,136.37,-82.49,49.26
52.84996,-1.679731,129.49,21.04,6,341.64,22 / 22,466712,2019-11-06 11:53:40:593,0.2475,-1.8968,10.7035,-0.0093,-0.0049,9.8066,0.018,-0.1961,0.0321,-12.75,-37.12,-5.06,131.62,-82.55,47.91
52.84996,-1.679731,129.49,21.04,6,341.64,22 / 22,466812,2019-11-06 11:53:40:693,0.6179,-2.6058,8.9211,0.0013,-0.0251,9.8066,0.0347,0.0244,-0.1072,-12,-38,-4.75,131.42,-82.59,47.79
52.84996,-1.679731,129.49,21.04,6,341.64,22 / 22,466912,2019-11-06 11:53:40:793,0.0907,-4.8008,9.5902,-0.0184,-0.0291,9.8065,-0.0172,-0.3419,0.2484,-12.87,-37.69,-4.31,136.13,-82.47,48.71
52.84996,-1.679731,129.49,21.04,6,341.64,22 / 22,467012,2019-11-06 11:53:40:893,-0.2021,-1.5023,9.2799,-0.0093,-0.0407,9.8065,0.0464,0.1231,-0.1484,-12.31,-37.31,-4.12,134.85,-82.41,47.58
52.84996,-1.679731,129.49,21.04,6,341.64,22 / 22,467112,2019-11-06 11:53:40:993,0.6822,-0.2525,10.7454,-0.0295,-0.0629,9.8063,0.0509,-0.3325,0.1704,-11.62,-37.06,-4.44,133.86,-82.37,46.21
52.84996,-1.679731,129.49,21.04,6,341.64,22 / 22,467212,2019-11-06 11:53:41:093,1.344,-3.9644,8.21,0.0074,-0.0681,9.8064,0.0964,0.3348,-0.1298,-13.12,-37.44,-4.94,131.28,-82.1,46.58
52.84996,-1.679731,129.49,21.04,6,341.64,22 / 22,467312,2019-11-06 11:53:41:193,1.0219,-1.8547,8.1137,-0.0002,-0.0577,9.8064,-0.0784,0.0039,-0.1176,-12.62,-37.75,-5.19,129.57,-82.4,44.62
52.84996,-1.679731,129.49,21.04,6,341.64,22 / 22,467412,2019-11-06 11:53:41:293,2.3862,-1.3352,11.8886,-0.0186,-0.0512,9.8065,-0.2311,0.1412,0.0167,-12.62,-37.44,-4.5,134.25,-82.32,46.44
52.84996,-1.679731,129.49,21.04,6,341.64,22 / 23,467512,2019-11-06 11:53:41:393,-1.9821,-0.0855,8.5488,0.0629,0.0432,9.8063,-0.0042,-0.0877,0.0346,-12.62,-36.87,-4.31,138.01,-82.08,50.81
52.84996,-1.679731,129.49,21.04,6,341.64,22 / 23,467612,2019-11-06 11:53:41:493,-1.3668,0.5627,8.1805,0.0315,0.0178,9.8066,0.0552,0.2358,-0.2212,-12.19,-37.5,-4.06,138.4,-81.99,51.34
52.84996,-1.679731,129.49,21.04,6,341.64,22 / 23,467712,2019-11-06 11:53:41:593,1.064,3.3651,10.5438,-0.0086,-0.0708,9.8063,0.0664,-0.0419,-0.1113,-11.87,-37.31,-4.25,136.8,-82.03,49.32
52.84996,-1.679731,129.49,21.04,6,341.64,22 / 23,467811,2019-11-06 11:53:41:692,1.073,-5.3026,8.2125,0.001,-0.0328,9.8066,0.0928,0.5341,-0.412,-12.31,-37.37,-4.69,134.96,-81.8,51.1
52.84996,-1.679731,129.49,21.04,6,341.64,22 / 23,467911,2019-11-06 11:53:41:792,1.4322,-1.5515,9.4888,-0.0119,-0.1178,9.8059,-0.0404,-0.0869,0.0688,-12.31,-37,-4.75,134.01,-81.97,50.22
52.84996,-1.679731,129.49,21.04,6,341.64,22 / 23,468012,2019-11-06 11:53:41:893,1.9661,-3.6265,10.2209,-0.0095,-0.0256,9.8066,-0.0687,0.3535,-0.2065,-12.44,-37.62,-4.12,139.09,-81.84,51.52
52.84996,-1.679731,129.49,21.04,6,341.64,22 / 23,468112,2019-11-06 11:53:41:993,0.295,0.3101,9.855,-0.0032,-0.0136,9.8066,-0.1015,0.2407,-0.0312,-11.31,-36.81,-4.87,135.83,-81.75,52.66
52.84996,-1.679731,129.49,21.04,6,341.64,22 / 23,468212,2019-11-06 11:53:42:093,1.3879,-1.9122,10.6497,-0.0386,0.0309,9.8065,-0.0373,0.0096,0.0901,-11.94,-37.5,-4.12,140.48,-81.54,53.26
52.84996,-1.679731,129.49,21.04,6,341.64,22 / 23,468312,2019-11-06 11:53:42:193,0.0896,-1.0204,8.7472,-0.01,0.0204,9.8066,-0.2143,0.4285,-0.103,-12.19,-37.25,-5,136.96,-81.66,53.43
52.84996,-1.679731,129.49,21.04,6,341.64,22 / 23,468412,2019-11-06 11:53:42:293,-1.0172,2.4229,9.862,-0.0195,0.0286,9.8065,-0.0952,0.3987,-0.2338,-11.69,-37.25,-4.81,135.54,-81.85,51.95
52.84996,-1.679731,129.49,21.04,6,341.64,23 / 25,468512,2019-11-06 11:53:42:393,2.0972,-2.3386,9.7995,-0.0061,0.0329,9.8065,-0.0173,-0.028,-0.0093,-12.56,-37.31,-5,135.6,-81.83,51.53
52.84996,-1.679731,129.49,21.04,6,341.64,23 / 25,468612,2019-11-06 11:53:42:493,0.2982,4.1058,10.0272,-0.0208,-0.0335,9.8065,0.0524,-0.3617,0.2462,-12.06,-37.44,-4.87,135.18,-81.87,51.52
52.84996,-1.679731,129.49,21.04,6,341.64,23 / 25,468712,2019-11-06 11:53:42:593,0.4204,-1.775,9.6272,0.0024,0.0503,9.8064,-0.1681,-0.2021,0.1904,-11.75,-37.31,-4,140.97,-81.67,54.15
52.84996,-1.679731,129.49,21.04,6,341.64,23 / 25,468811,2019-11-06 11:53:42:692,-0.4603,1.778,9.1735,0.0069,-0.0233,9.8066,0.081,0.013,-0.0755,-11.81,-36.31,-5.31,135.96,-81.74,52.74
52.84996,-1.679731,129.49,21.04,6,341.64,23 / 25,468912,2019-11-06 11:53:42:793,3.4128,0.8111,9.8903,0.0039,-0.0322,9.8065,0.0572,-0.1186,-0.0017,-11.81,-37.56,-4.25,139.27,-81.76,51.61
52.84996,-1.679731,129.49,21.04,6,341.64,23 / 25,469012,2019-11-06 11:53:42:893,-0.5639,-2.992,8.9926,-0.0007,-0.0775,9.8063,0.0428,0.0091,-0.0552,-11.69,-37.25,-4.62,137.95,-81.59,54.6
52.84996,-1.679731,129.49,21.04,6,341.64,23 / 25,469111,2019-11-06 11:53:42:992,-0.0813,-3.8195,9.0244,-0.0023,-0.0289,9.8066,-0.0146,-0.3371,0.2343,-11.5,-37.75,-5,137.98,-81.76,55.07
52.84996,-1.679731,129.49,21.04,6,341.64,23 / 25,469211,2019-11-06 11:53:43:092,0.0598,-0.5952,8.8576,0.0157,-0.0768,9.8062,0.01,-0.4248,0.2592,-11.12,-36.94,-4.44,140.49,-82.02,54.47
52.84996,-1.679731,129.49,21.04,6,341.64,23 / 25,469312,2019-11-06 11:53:43:193,0.9913,5.8986,10.547,-0.0192,-0.1169,9.8059,0.0815,-0.4904,0.2909,-11.37,-36.5,-4.19,139.25,-81.97,53.16
52.84996,-1.679731,129.49,21.04,6,341.64,23 / 25,469412,2019-11-06 11:53:43:293,1.1106,3.9608,10.0893,-0.0023,-0.1225,9.8058,-0.0304,0.6686,-0.4332,-11.56,-36,-5,134.84,-82.13,52.05
52.85159,-1.680237,131.05,19.76,4,349.29,22 / 23,469512,2019-11-06 11:53:43:393,-0.6364,2.5169,9.7874,0.0049,-0.1629,9.8053,-0.1336,-0.032,0.0847,-11.62,-36.5,-4.94,134.93,-82.12,52.17
52.85159,-1.680237,131.05,19.76,4,349.29,22 / 23,469612,2019-11-06 11:53:43:493,1.1773,-6.7266,9.1702,0.0139,0.0926,9.8061,-0.0677,0.6939,-0.4456,-11.75,-37.19,-4.44,141.91,-81.6,55.3
52.85159,-1.680237,131.05,19.76,4,349.29,22 / 23,469712,2019-11-06 11:53:43:593,1.045,2.5456,10.382,0.0067,-0.0103,9.8066,-0.0831,0.3899,-0.2326,-11.87,-35.87,-4.19,140.22,-81.72,53.69
52.85159,-1.680237,131.05,19.76,4,349.29,22 / 23,469812,2019-11-06 11:53:43:693,0.9798,-8.2255,9.5702,-0.0334,0.1064,9.806,-0.1205,0.8208,-0.5581,-11.75,-35.94,-5.06,137.74,-81.36,54.36
52.85159,-1.680237,131.05,19.76,4,349.29,22 / 23,469913,2019-11-06 11:53:43:794,-0.286,5.5408,9.7891,-0.0214,-0.0541,9.8064,0.0102,0.6992,-0.5027,-11.06,-36,-5.19,137.65,-81.37,54.8
52.85159,-1.680237,131.05,19.76,4,349.29,22 / 23,470011,2019-11-06 11:53:43:892,0.8125,4.6728,9.2433,0.0031,0.1168,9.8059,-0.1195,-0.2028,0.1829,-12.31,-36.31,-5.44,138.34,-81.24,54.94
52.85159,-1.680237,131.05,19.76,4,349.29,22 / 23,470111,2019-11-06 11:53:43:992,1.548,5.8189,10.4203,0.0138,-0.1217,9.8058,-0.0756,0.7941,-0.525,-11.81,-36.25,-4.69,134.85,-81.75,51.33
52.85159,-1.680237,131.05,19.76,4,349.29,22 / 23,470211,2019-11-06 11:53:44:092,0.7141,-0.1311,9.3547,0.0406,0.0336,9.8065,0.0705,0.089,-0.1913,-12.25,-36.62,-5.19,136.92,-81.63,53.32
52.85159,-1.680237,131.05,19.76,4,349.29,22 / 23,470312,2019-11-06 11:53:44:193,1.6604,0.9614,10.4061,0.0101,-0.0693,9.8064,-0.0046,0.298,-0.1547,-12.44,-36.87,-4.94,136.15,-81.82,52.69
52.85159,-1.680237,131.05,19.76,4,349.29,22 / 23,470412,2019-11-06 11:53:44:293,-0.0665,0.158,10.1355,0.0019,-0.0261,9.8066,-0.0252,0.3654,-0.2205,-11.94,-37.25,-4.25,140.16,-81.59,52.93
52.85159,-1.680237,131.05,19.76,4,349.29,25 / 25,470512,2019-11-06 11:53:44:393,0.7405,-3.3515,8.9794,-0.0037,-0.0716,9.8063,-0.0585,0.2551,-0.2639,-12.56,-36.81,-4.87,137.9,-81.36,53.66
52.85159,-1.680237,131.05,19.76,4,349.29,25 / 25,470612,2019-11-06 11:53:44:493,0.0102,-0.6073,9.0905,-0.0137,-0.0093,9.8066,0.0465,-0.0644,-0.1498,-12.31,-36.94,-5.06,136.31,-81.32,51.9
52.85159,-1.680237,131.05,19.76,4,349.29,25 / 25,470712,2019-11-06 11:53:44:593,1.3757,-3.6637,9.3397,0.0085,0.0257,9.8066,-0.039,-0.2044,0.254,-12.69,-36.5,-5.44,135.88,-81.36,51.47
52.85159,-1.680237,131.05,19.76,4,349.29,25 / 25,470812,2019-11-06 11:53:44:693,0.7126,0.8917,10.4742,0.0191,-0.0178,9.8066,-0.0235,-0.1077,0.0262,-12.19,-37.06,-5.12,134.34,-81.54,49.76
52.85159,-1.680237,131.05,19.76,4,349.29,25 / 25,470912,2019-11-06 11:53:44:793,-0.2582,0.0218,9.8617,-0.0145,0.0393,9.8065,0.096,-0.3184,0.0993,-11.75,-37.37,-5,134.66,-81.56,50.21
52.85159,-1.680237,131.05,19.76,4,349.29,25 / 25,471012,2019-11-06 11:53:44:893,0.4516,1.2972,8.7992,-0.0014,0.053,9.8064,0.0371,0.1461,-0.1057,-12.25,-37.06,-5.37,136.23,-81.31,51.77
52.85159,-1.680237,131.05,19.76,4,349.29,25 / 25,471112,2019-11-06 11:53:44:993,-0.1477,1.6032,9.9277,-0.0168,0.025,9.8065,0.0047,0.0557,-0.0403,-12,-37.06,-5.56,131.97,-81.25,50.57
52.85159,-1.680237,131.05,19.76,4,349.29,25 / 25,471212,2019-11-06 11:53:45:093,1.2069,-2.2446,10.2257,-0.0026,0.0257,9.8065,-0.0343,0.1566,-0.1786,-12.44,-36.62,-5,135.26,-81.2,50.26
52.85159,-1.680237,131.05,19.76,4,349.29,25 / 25,471312,2019-11-06 11:53:45:193,-0.1941,1.1085,10.0599,-0.001,-0.0117,9.8066,-0.051,0.2517,-0.0494,-12.31,-37.44,-5,135.15,-81.38,50.49
52.85159,-1.680237,131.05,19.76,4,349.29,25 / 25,471412,2019-11-06 11:53:45:293,1.6076,-0.9071,10.5814,-0.0258,-0.0386,9.8065,-0.1836,-0.0585,0.1564,-12.5,-37.44,-4.81,134.82,-81.43,50.16
52.85159,-1.680237,131.05,19.76,4,349.29,22 / 22,471513,2019-11-06 11:53:45:394,0.0536,-0.4819,9.3304,-0.0179,-0.0466,9.8065,0.0396,0.1093,-0.2155,-12.56,-37.06,-4.75,135.93,-81.31,50.99
52.85159,-1.680237,131.05,19.76,4,349.29,22 / 22,471612,2019-11-06 11:53:45:493,0.1483,-0.49,8.698,-0.014,0.0241,9.8065,0.0179,-0.2747,0.0027,-12.06,-37.19,-5.06,134.98,-81.26,50.01
52.85159,-1.680237,131.05,19.76,4,349.29,22 / 22,471711,2019-11-06 11:53:45:592,0.1328,-2.2322,9.464,-0.0126,0.0362,9.8065,0.0048,-0.1847,0.1947,-12.37,-37.5,-5.81,130.62,-81.28,48.89
52.85159,-1.680237,131.05,19.76,4,349.29,22 / 22,471812,2019-11-06 11:53:45:693,1.2779,-0.7928,10.449,-0.0039,-0.036,9.8065,-0.075,-0.1494,0.0397,-12.69,-37.12,-5.37,133.15,-81.51,47.78
52.85159,-1.680237,131.05,19.76,4,349.29,22 / 22,471912,2019-11-06 11:53:45:793,-0.1746,-4.9334,9.9678,-0.0127,0.0682,9.8064,0.0158,-0.4228,0.2914,-13.12,-37.75,-4.81,134.41,-81.39,48.71
52.85159,-1.680237,131.05,19.76,4,349.29,22 / 22,472012,2019-11-06 11:53:45:893,-0.664,-2.4531,10.0897,-0.0114,0.0363,9.8065,0.0141,-0.3873,0.1484,-12.5,-37.5,-5.19,133.03,-81.54,48.03
52.85159,-1.680237,131.05,19.76,4,349.29,22 / 22,472112,2019-11-06 11:53:45:993,1.6915,1.628,9.1423,0.0014,0.0291,9.8065,-0.0936,-0.2723,0.0853,-12.87,-37.25,-5.5,133.01,-81.51,47.59
52.85159,-1.680237,131.05,19.76,4,349.29,22 / 22,472212,2019-11-06 11:53:46:093,-0.1236,4.4824,10.3311,-0.0184,0.0625,9.8064,-0.2141,0.2135,-0.1214,-13.19,-37.19,-5.62,130.58,-81.27,48.22
52.85159,-1.680237,131.05,19.76,4,349.29,22 / 22,472312,2019-11-06 11:53:46:193,-1.5066,1.1059,8.5462,-0.0038,0.1041,9.8061,0.0742,-0.4678,0.2301,-12.37,-36.94,-5.62,131.6,-80.99,49.53
52.85159,-1.680237,131.05,19.76,4,349.29,22 / 22,472412,2019-11-06 11:53:46:293,1.7544,-10.2986,10.4283,-0.0525,0.0979,9.806,-0.192,1.0169,-0.56,-13.06,-37.44,-5.5,135.69,-81.03,50.17
52.85159,-1.680237,131.05,19.76,4,349.29,23 / 24,472513,2019-11-06 11:53:46:394,-1.61,0.6817,10.8923,-0.0129,0.0776,9.8062,0.0605,0.1553,-0.0378,-13.19,-37.56,-5.62,131.36,-81.44,49.09
52.85159,-1.680237,131.05,19.76,4,349.29,23 / 24,472612,2019-11-06 11:53:46:493,2.1744,-6.4688,9.0469,-0.0246,0.1468,9.8054,-0.1083,0.7403,-0.4216,-13.75,-36.75,-5.25,137.54,-81.12,52.42
52.85159,-1.680237,131.05,19.76,4,349.29,23 / 24,472712,2019-11-06 11:53:46:593,-2.2118,1.9228,8.6409,-0.0003,-0.0166,9.8065,-0.1863,0.4397,-0.2002,-12.69,-36.94,-5.12,135.94,-81.2,50.8
52.85159,-1.680237,131.05,19.76,4,349.29,23 / 24,472812,2019-11-06 11:53:46:693,-2.0143,0.1081,12.0619,-0.0361,0.0095,9.8065,0.0668,0.3376,-0.0974,-12.37,-37.06,-5.31,135.27,-81.05,49.98
52.85159,-1.680237,131.05,19.76,4,349.29,23 / 24,472912,2019-11-06 11:53:46:793,2.8702,0.3565,8.7232,0.0844,-0.0154,9.8062,0.0115,0.1803,0.0822,-13.31,-37.56,-4.81,138.22,-81.75,54.38
52.85159,-1.680237,131.05,19.76,4,349.29,23 / 24,473012,2019-11-06 11:53:46:893,-1.3822,-0.6992,9.2164,0.0121,-0.0003,9.8066,-0.0132,0.0971,0.0428,-13,-37,-4.62,137.8,-81.9,54.5
52.85159,-1.680237,131.05,19.76,4,349.29,23 / 24,473112,2019-11-06 11:53:46:993,-0.2082,1.285,9.3219,-0.009,-0.039,9.8065,-0.0836,0.2315,-0.2884,-13.06,-37.75,-5.75,135.19,-81.69,54.5
52.85159,-1.680237,131.05,19.76,4,349.29,23 / 24,473212,2019-11-06 11:53:47:093,-1.4009,-3.8504,9.8369,0.0202,0.0463,9.8065,-0.0197,-0.129,0.1324,-12.44,-37.19,-5.56,134.5,-81.43,54.24
52.85159,-1.680237,131.05,19.76,4,349.29,23 / 24,473312,2019-11-06 11:53:47:193,-0.8433,-0.0604,10.3171,0.0174,0.0249,9.8066,-0.0506,0.0473,0.0871,-13,-37.12,-5.25,139.8,-81.39,56.22
52.85159,-1.680237,131.05,19.76,4,349.29,23 / 24,473412,2019-11-06 11:53:47:293,-1.5049,-1.6246,8.7968,0.0043,0.0262,9.8065,-0.0521,0.2412,-0.1104,-13.06,-36.94,-4.75,139.84,-81.35,56.19
52.85159,-1.680237,131.05,19.76,4,349.29,23 / 23,473512,2019-11-06 11:53:47:393,-2.4482,2.1984,11.647,-0.02,-0.0498,9.8065,0.0883,0.2383,-0.2749,-13.25,-36.69,-6.19,135.17,-81.6,54.74
52.85159,-1.680237,131.05,19.76,4,349.29,23 / 23,473613,2019-11-06 11:53:47:494,-0.3854,-1.4278,8.7874,0.0113,0.0461,9.8064,-0.0521,0.1118,-0.15,-13.56,-37.31,-5.69,135.58,-81.42,54.33
52.85159,-1.680237,131.05,19.76,4,349.29,23 / 23,473712,2019-11-06 11:53:47:593,-2.2983,0.2772,10.6325,-0.0065,-0.067,9.8063,0.0888,0.304,-0.1161,-13.06,-37.44,-5.56,130.9,-81.81,49.71
52.85159,-1.680237,131.05,19.76,4,349.29,23 / 23,473812,2019-11-06 11:53:47:693,-1.4172,-1.103,11.3262,0.0015,-0.0314,9.8066,-0.23,-0.2749,-0.0532,-13.75,-37.62,-5.37,135.74,-81.79,50.86
52.85159,-1.680237,131.05,19.76,4,349.29,23 / 23,473912,2019-11-06 11:53:47:793,-3.9472,-2.4098,8.2551,-0.0517,0.0471,9.8064,0.1363,-0.1713,0.1903,-13.12,-37.25,-6.25,133.87,-81.17,52.26
52.85159,-1.680237,131.05,19.76,4,349.29,23 / 23,474012,2019-11-06 11:53:47:893,-0.498,-1.5914,11.2863,0.0454,-0.0364,9.8064,-0.0455,0.0332,-0.3868,-13.12,-36.81,-6.12,135.23,-81.56,54.74
52.85159,-1.680237,131.05,19.76,4,349.29,23 / 23,474111,2019-11-06 11:53:47:992,-4.3519,5.0203,11.0832,0.0667,-0.0978,9.8059,-0.2266,0.4581,-0.5027,-12.81,-36.75,-5.81,137.79,-81.14,57.32
52.85159,-1.680237,131.05,19.76,4,349.29,23 / 23,474212,2019-11-06 11:53:48:093,-0.4835,5.9785,9.3813,-0.0289,0.0598,9.8063,0.0117,-0.4837,0.592,-13.44,-37.06,-5.19,138.98,-81.52,55.36
52.85159,-1.680237,131.05,19.76,4,349.29,23 / 23,474312,2019-11-06 11:53:48:193,-2.2893,-4.6482,8.9203,0.0388,-0.0887,9.8061,-0.1844,-0.2534,0.132,-13.81,-36.94,-5.56,131.77,-82.35,51.19
52.85159,-1.680237,131.05,19.76,4,349.29,23 / 23,474412,2019-11-06 11:53:48:293,-5.8364,6.0517,9.6915,-0.0094,-0.1236,9.8058,0.0641,-0.4581,0.2713,-13.62,-37.56,-5.87,129.97,-82.26,48.44
52.85159,-1.680237,131.05,19.76,4,349.29,23 / 23,474513,2019-11-06 11:53:48:394,-3.6763,5.0356,9.6211,-0.0404,0.1647,9.8051,0.1718,-0.5772,0.3301,-13.56,-37.5,-5,138.04,-81.52,53.74
52.85159,-1.680237,131.05,19.76,4,349.29,23 / 23,474612,2019-11-06 11:53:48:493,-2.3827,1.5758,10.7344,0.0022,0.0776,9.8062,0.0699,0.041,0.0027,-13.87,-37.12,-5.62,135.4,-81.75,54.66
52.85159,-1.680237,131.05,19.76,4,349.29,23 / 23,474712,2019-11-06 11:53:48:593,-2.0401,-1.5416,10.3453,-0.0066,0.0389,9.8066,0.011,-0.1967,0.1414,-13.56,-37.56,-6.12,134.97,-81.95,54.07
52.85159,-1.680237,131.05,19.76,4,349.29,23 / 23,474812,2019-11-06 11:53:48:693,-6.2264,0.4598,9.3082,-0.0058,0.0276,9.8065,-0.1063,0.1497,0.0638,-13.81,-37.62,-6.12,135.81,-81.76,54.8
52.85159,-1.680237,131.05,19.76,4,349.29,23 / 23,474912,2019-11-06 11:53:48:793,-2.7725,-0.2099,9.7141,0.0321,0.0191,9.8066,-0.113,0.0142,0.0004,-13.87,-37.31,-5.87,135.74,-81.88,55.31
52.85159,-1.680237,131.05,19.76,4,349.29,23 / 23,475012,2019-11-06 11:53:48:893,-3.2123,0.5616,9.1079,-0.0053,-0.0184,9.8065,-0.0236,-0.0647,0.0823,-13.69,-37.37,-5.62,135.49,-81.66,54.63
52.85159,-1.680237,131.05,19.76,4,349.29,23 / 23,475112,2019-11-06 11:53:48:993,-1.5654,-2.1862,10.5569,-0.0113,-0.018,9.8065,0.083,-0.0455,0.0906,-14.06,-37.31,-5.5,137.8,-81.7,53.72
52.85159,-1.680237,131.05,19.76,4,349.29,23 / 23,475211,2019-11-06 11:53:49:092,-1.5642,-2.3154,10.1029,-0.0008,0.001,9.8065,0.083,-0.1138,0.059,-13.62,-37.31,-5.19,138.06,-81.57,53.85
52.85159,-1.680237,131.05,19.76,4,349.29,23 / 23,475312,2019-11-06 11:53:49:193,-0.9557,-3.2569,10.2719,-0.0073,0.1444,9.8055,0.1922,-0.604,0.7658,-12.75,-37.19,-5.31,136.31,-81.9,52.58
52.85159,-1.680237,131.05,19.76,4,349.29,23 / 23,475412,2019-11-06 11:53:49:293,-1.98,-6.5119,8.3238,0.0367,0.0503,9.8064,0.136,1.0909,-0.4027,-13.06,-37.75,-4.44,143.09,-81.93,56.8
52.85159,-1.680237,131.05,19.76,4,349.29,23 / 23,475512,2019-11-06 11:53:49:393,1.7215,2.2205,10.7274,0.0659,0.0169,9.8064,-0.1122,0.2498,-0.2365,-12.75,-37.06,-4.12,145.91,-81.83,60.74
52.85159,-1.680237,131.05,19.76,4,349.29,23 / 23,475612,2019-11-06 11:53:49:493,1.6317,-1.2094,10.7016,-0.016,0.1645,9.8052,0.2253,-0.3828,0.5724,-12.25,-37.94,-4.75,143.44,-81.67,61.69
52.85159,-1.680237,131.05,19.76,4,349.29,23 / 23,475712,2019-11-06 11:53:49:593,-0.5548,5.4896,9.9214,0.0156,-0.0402,9.8065,-0.1071,0.711,-0.4169,-11.81,-37.81,-5.25,143.03,-82.14,61.96
52.85159,-1.680237,131.05,19.76,4,349.29,23 / 23,475812,2019-11-06 11:53:49:693,0.5036,1.4736,9.3301,-0.0058,0.0194,9.8066,-0.0864,0.3294,-0.2618,-12.06,-37.44,-4.62,144.06,-81.68,62.92
52.85159,-1.680237,131.05,19.76,4,349.29,23 / 23,475912,2019-11-06 11:53:49:793,-1.3161,5.4226,10.4634,-0.0019,-0.0897,9.8062,-0.0543,0.9415,-0.2672,-11.12,-38.12,-3.81,147.55,-81.45,62.76
52.85159,-1.680237,131.05,19.76,4,349.29,23 / 23,476012,2019-11-06 11:53:49:893,-1.6493,3.978,9.8553,0.0136,-0.0877,9.8062,0.066,-0.4122,0.2119,-11.31,-37.81,-4.44,147.34,-81.61,62.73
52.85159,-1.680237,131.05,19.76,4,349.29,23 / 23,476112,2019-11-06 11:53:49:993,-0.3283,-1.8424,10.3439,-0.0024,0.0074,9.8065,0.0782,0.0625,-0.0036,-10.62,-37.19,-4.25,148.89,-81.2,64.66
52.85159,-1.680237,131.05,19.76,4,349.29,23 / 23,476212,2019-11-06 11:53:50:093,-0.5717,3.129,9.8235,0.0379,-0.0355,9.8065,0.217,-0.3706,0.387,-9.94,-38.37,-4,150.15,-81.28,66.76
52.85159,-1.680237,131.05,19.76,4,349.29,23 / 23,476311,2019-11-06 11:53:50:192,0.0148,-2.8337,9.9319,0.0197,0.0235,9.8066,0.0324,-0.0687,0.0788,-9.5,-37.62,-3.69,152.03,-81.09,69.97
52.85159,-1.680237,131.05,19.76,4,349.29,23 / 23,476411,2019-11-06 11:53:50:292,-0.2432,1.1376,9.9356,0.0032,-0.0614,9.8064,-0.0079,0.2535,-0.0409,-9.69,-37.44,-4.06,152.37,-81.18,70.27
52.85159,-1.680237,131.05,19.76,4,349.29,24 / 24,476511,2019-11-06 11:53:50:392,-0.222,0.2132,11.033,-0.0094,0.0256,9.8065,0.0201,0.1439,0.1673,-8.94,-38.37,-3.62,152.09,-81.27,70.37
52.85159,-1.680237,131.05,19.76,4,349.29,24 / 24,476612,2019-11-06 11:53:50:493,-1.9024,3.4286,9.5818,-0.0079,-0.0597,9.8064,-0.0166,0.4357,-0.1634,-8.56,-37.87,-3.44,155.61,-81.42,69.98
52.85159,-1.680237,131.05,19.76,4,349.29,24 / 24,476712,2019-11-06 11:53:50:593,-1.7367,-0.5,9.8134,0.0106,0.0085,9.8066,0.0656,-0.3034,0.2815,-9.37,-38.62,-2.81,157.1,-81.43,71.95
52.85159,-1.680237,131.05,19.76,4,349.29,24 / 24,476812,2019-11-06 11:53:50:693,-1.274,4.5008,10.5371,0.0049,-0.0122,9.8066,-0.0822,0.1417,0.0051,-8.44,-37.62,-2.81,155.8,-81.74,71.36
52.85159,-1.680237,131.05,19.76,4,349.29,24 / 24,476912,2019-11-06 11:53:50:793,-2.1081,0.3672,9.7055,0.0051,0.0931,9.8062,-0.0779,-0.1529,0.2331,-8.56,-37.81,-3.44,155.69,-81.77,70.68
52.85159,-1.680237,131.05,19.76,4,349.29,24 / 24,477012,2019-11-06 11:53:50:893,-0.2739,-4.4545,9.7735,0.0196,0.0627,9.8063,0.0824,-0.3191,0.3285,-7.87,-37,-2.44,161.05,-81.29,72.52
52.85159,-1.680237,131.05,19.76,4,349.29,24 / 24,477112,2019-11-06 11:53:50:993,-0.9458,0.3475,10.34,-0.009,0.0106,9.8065,0.0467,0.1854,-0.0887,-7.5,-38,-2.31,161.68,-81.35,73.5
52.85159,-1.680237,131.05,19.76,4,349.29,24 / 24,477212,2019-11-06 11:53:51:093,-2.8756,-2.1079,9.244,-0.0002,0.0811,9.8063,-0.0873,-0.0285,0.1852,-8.25,-38.25,-2.5,162.42,-81.11,74.22
52.85159,-1.680237,131.05,19.76,4,349.29,24 / 24,477312,2019-11-06 11:53:51:193,-3.598,2.754,9.9385,-0.0088,0.0146,9.8065,0.0222,0.5606,-0.1846,-7.37,-38.19,-2.25,162.08,-80.98,73.64
52.85159,-1.680237,131.05,19.76,4,349.29,24 / 24,477412,2019-11-06 11:53:51:293,-0.6497,5.2068,10.7879,0.0228,0.0477,9.8065,0.087,0.266,-0.0989,-7.94,-37.75,-1.87,163.72,-80.77,75.99
52.85159,-1.680237,131.05,19.76,4,349.29,23 / 24,477512,2019-11-06 11:53:51:393,-1.3824,-0.227,10.2147,0.0006,-0.0703,9.8063,-0.051,0.5757,-0.1471,-6.69,-38.25,-1.94,164.59,-80.7,77.76
52.85159,-1.680237,131.05,19.76,4,349.29,23 / 24,477612,2019-11-06 11:53:51:493,-0.8278,3.0034,10.1623,0.0064,-0.0713,9.8063,-0.1363,0.5603,-0.3049,-6.75,-38.25,-2.12,163.71,-81.18,76.84
52.85159,-1.680237,131.05,19.76,4,349.29,23 / 24,477712,2019-11-06 11:53:51:593,-1.041,-0.8408,10.236,0.0067,-0.0431,9.8065,0.0147,0.0793,-0.0653,-6.94,-37.94,-1.69,163.49,-81.2,76.49
52.85159,-1.680237,131.05,19.76,4,349.29,23 / 24,477812,2019-11-06 11:53:51:693,0.286,-0.1053,10.3806,0.0329,-0.0143,9.8065,0.1473,-0.1524,0.1196,-6.75,-38,-0.69,168.89,-81.34,78.17
52.85159,-1.680237,131.05,19.76,4,349.29,23 / 24,477912,2019-11-06 11:53:51:793,0.691,-0.8492,9.5188,0.0337,-0.0005,9.8066,0.1186,-0.1446,0.1294,-7.25,-38.12,0,174.77,-81.65,80.71
52.85159,-1.680237,131.05,19.76,4,349.29,23 / 24,478012,2019-11-06 11:53:51:893,-0.5028,-2.5547,9.9786,0.0181,-0.0123,9.8066,0.0654,-0.0371,0.0387,-7,-38.62,0.13,176.51,-81.98,83.83
52.85159,-1.680237,131.05,19.76,4,349.29,23 / 24,478112,2019-11-06 11:53:51:993,0.1113,-0.4778,8.7963,-0.014,0.0272,9.8065,0.0206,-0.1351,0.0409,-7.12,-38.5,0.13,176.66,-81.89,84.14
52.85159,-1.680237,131.05,19.76,4,349.29,23 / 24,478212,2019-11-06 11:53:52:093,-0.2792,0.3912,8.5993,-0.0292,-0.0095,9.8065,0.0035,-0.3394,0.201,-6.81,-38.25,0.13,175.62,-82.02,82.37
52.85159,-1.680237,131.05,19.76,4,349.29,23 / 24,478312,2019-11-06 11:53:52:193,1.1619,-1.8388,9.4032,-0.0404,0.0235,9.8064,-0.0826,-0.4488,0.1244,-7.69,-37.37,-0.31,172.6,-81.98,77.9
52.85159,-1.680237,131.05,19.76,4,349.29,23 / 24,478412,2019-11-06 11:53:52:293,-0.7312,-2.2854,9.693,-0.0388,0.0032,9.8065,-0.0738,-0.2627,0.1232,-7.37,-37.81,-0.75,166.02,-82.04,73.9
52.852776,-1.680636,131.8,7.95,4,328.01,22 / 22,478512,2019-11-06 11:53:52:393,-0.2547,-3.7715,8.8252,-0.014,0.0368,9.8065,0.0032,-0.3051,0.0436,-7.37,-37.75,-0.81,164.77,-81.73,71.31
52.852776,-1.680636,131.8,7.95,4,328.01,22 / 22,478612,2019-11-06 11:53:52:493,1.0717,-4.2139,8.942,-0.0178,-0.0048,9.8066,-0.0494,-0.1152,-0.0935,-7.62,-37.5,-1.62,158.67,-81.46,68.88
52.852776,-1.680636,131.8,7.95,4,328.01,22 / 22,478712,2019-11-06 11:53:52:593,0.7658,-2.5674,9.6387,-0.0376,-0.0163,9.8065,-0.0332,-0.1433,-0.115,-7.69,-37.62,-1.75,157.9,-81.25,66.85
52.852776,-1.680636,131.8,7.95,4,328.01,22 / 22,478812,2019-11-06 11:53:52:693,-0.8547,-4.7392,9.571,-0.0366,0.0458,9.8065,-0.1053,-0.2377,0.005,-8.44,-37.31,-2.37,156.7,-80.99,64.82
52.852776,-1.680636,131.8,7.95,4,328.01,22 / 22,478912,2019-11-06 11:53:52:793,-0.1164,-4.1225,9.6974,-0.0108,0.004,9.8066,-0.0403,0.0135,-0.1579,-8.06,-37.56,-2.62,152.56,-80.56,63.73
52.852776,-1.680636,131.8,7.95,4,328.01,22 / 22,479012,2019-11-06 11:53:52:893,0.8509,-4.8225,8.9189,0.008,0.0536,9.8064,-0.0033,-0.0786,-0.15,-8.69,-37.56,-2.94,153.55,-80.33,64.83
52.852776,-1.680636,131.8,7.95,4,328.01,22 / 22,479112,2019-11-06 11:53:52:993,0.0831,-0.9258,10.3148,0.0066,-0.0076,9.8066,0.0597,-0.0075,-0.2025,-8.56,-37.31,-2.87,152.95,-80.41,64.46
52.852776,-1.680636,131.8,7.95,4,328.01,22 / 22,479212,2019-11-06 11:53:53:093,0.9912,-2.2181,8.6891,-0.031,0.036,9.8065,-0.0175,-0.1714,-0.0785,-9.75,-37.06,-2.06,156.37,-80.08,63.45
52.852776,-1.680636,131.8,7.95,4,328.01,22 / 22,479312,2019-11-06 11:53:53:193,0.3902,-1.9868,9.4514,-0.029,-0.0158,9.8065,-0.045,-0.1407,-0.0741,-9.62,-37.44,-3.19,151.08,-80.25,61.19
52.852776,-1.680636,131.8,7.95,4,328.01,22 / 22,479413,2019-11-06 11:53:53:294,-0.3166,-4.0666,9.5649,-0.0216,0.0053,9.8065,-0.047,-0.2369,0.033,-10.19,-37.37,-4,145.76,-80.03,58.31
52.852776,-1.680636,131.8,7.95,4,328.01,23 / 23,479511,2019-11-06 11:53:53:392,-0.0224,-4.9583,9.6457,-0.0442,-0.0349,9.8065,-0.0551,-0.1089,-0.1598,-10.44,-37.31,-4.19,144.48,-80.05,56.41
52.852776,-1.680636,131.8,7.95,4,328.01,23 / 23,479613,2019-11-06 11:53:53:494,-0.8483,-1.9921,9.5451,-0.0113,-0.0368,9.8066,-0.0371,-0.2933,0.0126,-10.75,-36.87,-4,143.09,-79.8,53.74
52.852776,-1.680636,131.8,7.95,4,328.01,23 / 23,479712,2019-11-06 11:53:53:593,1.6512,-3.6353,8.4633,-0.0258,-0.0153,9.8065,0.0376,-0.1419,-0.1011,-10.94,-37.56,-4.62,139.35,-79.63,52.47
52.852776,-1.680636,131.8,7.95,4,328.01,23 / 23,479812,2019-11-06 11:53:53:693,1.414,-2.3283,9.6268,-0.0275,-0.0198,9.8066,-0.0644,-0.3405,0.0194,-11.62,-36.94,-4.25,140.96,-79.5,50.12
52.852776,-1.680636,131.8,7.95,4,328.01,23 / 23,479912,2019-11-06 11:53:53:793,1.0326,-4.683,9.0423,-0.0355,-0.0466,9.8064,-0.0054,-0.4002,0.0917,-11.81,-36.94,-5.25,136.13,-79.29,47.56
52.852776,-1.680636,131.8,7.95,4,328.01,23 / 23,480012,2019-11-06 11:53:53:893,1.6253,-1.7313,9.6787,-0.0335,-0.0334,9.8065,0.0367,-0.2313,-0.0207,-12.44,-36.94,-5.19,135.38,-79.09,46.07
52.852776,-1.680636,131.8,7.95,4,328.01,23 / 23,480112,2019-11-06 11:53:53:993,-0.1421,-3.7862,9.2898,-0.0052,-0.0147,9.8066,0.0403,-0.1906,-0.1252,-13,-37.12,-5.06,134.6,-78.96,44.72
52.852776,-1.680636,131.8,7.95,4,328.01,23 / 23,480212,2019-11-06 11:53:54:093,0.8166,-2.1891,10.3134,-0.024,-0.0364,9.8065,-0.062,-0.2552,0.0784,-13.31,-37.62,-6.44,131.01,-78.92,43.43
52.852776,-1.680636,131.8,7.95,4,328.01,23 / 23,480312,2019-11-06 11:53:54:193,1.2884,-2.0143,9.7863,-0.0217,-0.0295,9.8065,-0.0512,-0.3096,0.0578,-13.31,-36.37,-5.62,129.34,-78.87,42.34
52.852776,-1.680636,131.8,7.95,4,328.01,23 / 23,480412,2019-11-06 11:53:54:293,0.1061,-3.0595,9.3077,-0.0043,-0.013,9.8066,0.0294,-0.3229,0.0436,-13.87,-37.06,-5.94,128.01,-78.91,39.87
52.852776,-1.680636,131.8,7.95,4,328.01,22 / 22,480512,2019-11-06 11:53:54:393,0.3825,-2.4729,9.2512,-0.0215,-0.0285,9.8065,-0.0168,-0.2842,0.0052,-14.75,-36.19,-6.25,125.08,-78.86,36.49
52.852776,-1.680636,131.8,7.95,4,328.01,22 / 22,480612,2019-11-06 11:53:54:493,0.7843,-3.1586,9.7143,-0.0189,-0.0015,9.8066,-0.0039,-0.2413,-0.0247,-15.5,-37.5,-5.19,128.05,-78.69,35.58
52.852776,-1.680636,131.8,7.95,4,328.01,22 / 22,480712,2019-11-06 11:53:54:593,0.2472,-1.4921,10.1374,-0.0058,-0.0088,9.8066,-0.0059,-0.113,-0.0835,-15.19,-37.06,-5.69,124.45,-78.52,34.39
52.852776,-1.680636,131.8,7.95,4,328.01,22 / 22,480811,2019-11-06 11:53:54:692,0.1467,-2.1105,9.7731,-0.0172,0.0039,9.8065,0.0078,-0.2413,-0.012,-15.5,-36.75,-6.25,123.59,-78.4,33.04
52.852776,-1.680636,131.8,7.95,4,328.01,22 / 22,480912,2019-11-06 11:53:54:793,0.8938,-1.5072,9.3728,-0.0048,0.0075,9.8066,0.0506,-0.386,0.0905,-16,-37.31,-6.25,122.42,-78.42,31.65
52.852776,-1.680636,131.8,7.95,4,328.01,22 / 22,481012,2019-11-06 11:53:54:893,2.1738,-3.4478,9.2767,-0.0079,0.0126,9.8066,-0.0105,-0.3459,-0.0227,-16.62,-36.87,-6.19,121.51,-78.51,30.76
52.852776,-1.680636,131.8,7.95,4,328.01,22 / 22,481112,2019-11-06 11:53:54:993,0.5822,-1.7739,10.0041,-0.0179,0.001,9.8066,-0.0603,-0.3475,0.0388,-17.25,-36.31,-5.69,119.69,-78.46,28.99
52.852776,-1.680636,131.8,7.95,4,328.01,22 / 22,481212,2019-11-06 11:53:55:093,0.9389,-3.273,9.4976,-0.0296,-0.0181,9.8065,-0.0662,-0.3488,0.0101,-17.44,-37.06,-5.69,118.84,-78.35,27.14
52.852776,-1.680636,131.8,7.95,4,328.01,22 / 22,481312,2019-11-06 11:53:55:193,0.5739,-2.3322,10.0816,-0.0152,-0.0439,9.8065,-0.0547,-0.0184,-0.1103,-17.5,-36.5,-6.25,117.94,-78.12,26.22
52.852776,-1.680636,131.8,7.95,4,328.01,22 / 22,481412,2019-11-06 11:53:55:293,-0.7831,-1.0444,9.8729,-0.0149,-0.0581,9.8064,-0.0369,-0.1965,-0.0195,-18.5,-36.44,-5.87,115.37,-78.12,23.24
52.852776,-1.680636,131.8,7.95,4,328.01,23 / 23,481512,2019-11-06 11:53:55:393,1.5745,-1.5497,10.1822,-0.0002,-0.0196,9.8066,0.0027,-0.3244,0.0389,-18.75,-36.81,-6.12,114.27,-78.13,21.5
52.852776,-1.680636,131.8,7.95,4,328.01,23 / 23,481612,2019-11-06 11:53:55:493,1.0355,-1.9922,9.9662,-0.0039,-0.0149,9.8066,0.0379,-0.3084,-0.0418,-18.94,-36.81,-5.56,112.66,-78.14,19.62
52.852776,-1.680636,131.8,7.95,4,328.01,23 / 23,481712,2019-11-06 11:53:55:593,1.8095,0.4894,9.1234,-0.0078,-0.0033,9.8066,-0.015,-0.2149,-0.0763,-20.12,-37.12,-6,111.88,-78.06,18.73
52.852776,-1.680636,131.8,7.95,4,328.01,23 / 23,481812,2019-11-06 11:53:55:693,0.6464,-0.8111,10.0545,-0.0164,-0.0783,9.8063,-0.0113,-0.2074,0.0634,-19.75,-36.69,-5.12,112.66,-78.08,16.75
52.852776,-1.680636,131.8,7.95,4,328.01,23 / 23,481912,2019-11-06 11:53:55:793,1.2262,-1.9614,10.3999,0.0018,-0.0086,9.8066,0.0204,-0.1357,-0.0083,-20.31,-36.81,-6.25,108.26,-78.16,14.73
52.852776,-1.680636,131.8,7.95,4,328.01,23 / 23,482012,2019-11-06 11:53:55:893,1.1381,-1.2925,10.114,0.0059,-0.016,9.8066,0.0418,-0.1039,-0.174,-21.25,-36.56,-5.75,106.03,-78.38,12.76
52.852776,-1.680636,131.8,7.95,4,328.01,23 / 23,482112,2019-11-06 11:53:55:993,0.3973,-1.5631,9.0833,0.0056,0.0457,9.8065,0.1435,-0.2485,-0.0474,-21,-36,-4.94,108.6,-78.47,13.58
52.852776,-1.680636,131.8,7.95,4,328.01,23 / 23,482212,2019-11-06 11:53:56:093,2.2487,-2.2366,9.2646,-0.0122,0.003,9.8065,-0.0867,-0.0835,-0.0807,-21.44,-37.12,-4.62,108.22,-78.62,12.87
52.852776,-1.680636,131.8,7.95,4,328.01,23 / 23,482312,2019-11-06 11:53:56:193,1.0127,-2.6021,10.1182,-0.0136,0.0217,9.8065,-0.0549,-0.3391,0.0866,-21.37,-36.69,-4.31,110.66,-78.55,12.73
52.852776,-1.680636,131.8,7.95,4,328.01,23 / 23,482411,2019-11-06 11:53:56:292,1.763,-2.588,9.7634,-0.0067,0.0595,9.8064,-0.0245,-0.1598,-0.0468,-21.06,-37.19,-4.62,108.57,-78.38,12.84
52.852776,-1.680636,131.8,7.95,4,328.01,22 / 23,482512,2019-11-06 11:53:56:393,1.2568,0.8536,9.6212,-0.0137,0.0035,9.8066,0.0208,-0.4381,0.0836,-22,-36.37,-4.5,109.3,-78.35,11.77
52.852776,-1.680636,131.8,7.95,4,328.01,22 / 23,482612,2019-11-06 11:53:56:493,1.1767,-2.7345,9.7615,0.0025,0.0345,9.8065,-0.0138,-0.3246,0.1215,-22.25,-37,-4.37,110.15,-78.26,12.06
52.852776,-1.680636,131.8,7.95,4,328.01,22 / 23,482712,2019-11-06 11:53:56:593,0.7881,1.0849,10.1276,0.0136,-0.0412,9.8064,-0.03,-0.2565,0.0258,-21.56,-36.69,-4.19,108.95,-78.47,11.03
52.852776,-1.680636,131.8,7.95,4,328.01,22 / 23,482812,2019-11-06 11:53:56:693,2.9611,-0.231,9.2813,0.0121,-0.0007,9.8066,0.0601,-0.3804,0.171,-22.37,-36.87,-4.5,109.44,-78.41,11.5
52.852776,-1.680636,131.8,7.95,4,328.01,22 / 23,482912,2019-11-06 11:53:56:793,3.8954,2.5136,9.4899,-0.0067,-0.0631,9.8064,-0.0117,-0.0911,-0.0175,-22.62,-36.81,-3.62,108.72,-78.48,11.17
52.852776,-1.680636,131.8,7.95,4,328.01,22 / 23,483012,2019-11-06 11:53:56:893,0.7309,-1.2747,10.0077,0.0232,-0.0158,9.8066,0.0952,-0.4209,0.1873,-22.44,-36.94,-3.44,112.31,-78.59,12.42
52.852776,-1.680636,131.8,7.95,4,328.01,22 / 23,483112,2019-11-06 11:53:56:993,4.6532,-3.199,9.1029,0.0142,-0.0572,9.8064,-0.0239,0.2017,-0.1475,-22.37,-36.81,-3.12,113.37,-78.62,13.68
52.852776,-1.680636,131.8,7.95,4,328.01,22 / 23,483212,2019-11-06 11:53:57:093,3.8839,-1.0299,9.5792,-0.0011,-0.053,9.8065,0.0305,-0.1831,0.0055,-22.25,-37.44,-3.06,112.38,-78.74,12.74
52.852776,-1.680636,131.8,7.95,4,328.01,22 / 23,483312,2019-11-06 11:53:57:193,2.9059,-0.6418,9.6055,-0.0011,-0.0432,9.8065,-0.0697,0.3066,-0.1619,-22,-37.37,-3.62,110.26,-78.65,12.82
52.852776,-1.680636,131.8,7.95,4,328.01,22 / 23,483412,2019-11-06 11:53:57:293,1.4307,3.4371,10.2015,-0.0009,-0.0885,9.8062,0.0321,-0.0028,0.0252,-21.81,-37.44,-3.81,109.67,-78.63,12.12
52.852776,-1.680636,131.8,7.95,4,328.01,23 / 23,483512,2019-11-06 11:53:57:393,0.8347,-1.1729,10.0981,0.012,-0.0097,9.8066,-0.0022,0.4906,-0.2846,-21.87,-37.69,-2.87,112.19,-78.81,12.12
52.852776,-1.680636,131.8,7.95,4,328.01,23 / 23,483612,2019-11-06 11:53:57:493,1.7619,1.406,8.9945,0.0083,-0.0809,9.8062,-0.026,0.2265,-0.0287,-22.25,-36.87,-3.44,110.68,-79.12,11.39
52.852776,-1.680636,131.8,7.95,4,328.01,23 / 23,483712,2019-11-06 11:53:57:593,0.6914,-1.7077,9.4303,0.0043,0.0074,9.8066,-0.0281,0.3476,-0.0764,-23.5,-36.56,-4.12,108.09,-79.32,11.78
52.852776,-1.680636,131.8,7.95,4,328.01,23 / 23,483812,2019-11-06 11:53:57:693,4.6615,0.4133,9.6458,-0.0149,-0.0908,9.8062,-0.0916,0.4594,-0.1194,-23.62,-36.44,-3.44,106.33,-79.36,8.18
52.852776,-1.680636,131.8,7.95,4,328.01,23 / 23,483912,2019-11-06 11:53:57:793,2.8544,-3.7508,9.4994,-0.0268,0.0811,9.8062,-0.0714,0.0341,0.0827,-24.5,-37.12,-3.06,105.31,-78.99,6.05
52.852776,-1.680636,131.8,7.95,4,328.01,23 / 23,484012,2019-11-06 11:53:57:893,2.8916,0.4547,9.5058,0.0076,0.0138,9.8066,-0.0142,0.4422,-0.1978,-23.19,-37.19,-3.75,101.21,-79.03,3.76
52.852776,-1.680636,131.8,7.95,4,328.01,23 / 23,484112,2019-11-06 11:53:57:993,4.1814,3.4389,9.5528,0.0106,0.0357,9.8065,0.0644,-0.1613,0.2041,-23.75,-36.94,-2.94,102.68,-79.19,3.48
52.852776,-1.680636,131.8,7.95,4,328.01,23 / 23,484212,2019-11-06 11:53:58:093,2.9923,2.4127,9.9124,0.0044,0.0302,9.8065,0.0977,0.2314,-0.1223,-24.19,-36.75,-3.37,101.07,-79.26,1.86
52.852776,-1.680636,131.8,7.95,4,328.01,23 / 23,484312,2019-11-06 11:53:58:193,2.2549,2.1367,9.4259,0.0232,-0.0004,9.8065,0.0847,-0.0693,0.1273,-23.56,-37,-3.25,98.5,-79.75,-0.11
52.852776,-1.680636,131.8,7.95,4,328.01,23 / 23,484412,2019-11-06 11:53:58:293,3.3603,0.5986,9.0668,-0.0019,-0.0025,9.8066,-0.1194,0.0341,0.0804,-24.75,-36.25,-3.62,94.29,-79.9,-1.18
52.852776,-1.680636,131.8,7.95,4,328.01,25 / 25,484512,2019-11-06 11:53:58:393,2.9221,-0.0173,9.2186,-0.0501,-0.038,9.8064,-0.1816,0.0106,0.081,-24.94,-36.69,-3.31,96.28,-79.91,-1.84
52.852776,-1.680636,131.8,7.95,4,328.01,25 / 25,484612,2019-11-06 11:53:58:493,3.264,-1.4972,9.8669,-0.0267,0.0035,9.8066,-0.0476,-0.1237,0.2345,-24.31,-36.87,-4.31,94.55,-79.24,-2.65
52.852776,-1.680636,131.8,7.95,4,328.01,25 / 25,484712,2019-11-06 11:53:58:593,2.6242,3.7887,9.0886,-0.0145,-0.0392,9.8065,-0.0093,0.1381,-0.0752,-24.06,-36.25,-5.44,91.36,-78.64,-3.99
52.852776,-1.680636,131.8,7.95,4,328.01,25 / 25,484812,2019-11-06 11:53:58:693,0.9962,1.9972,9.6249,0.0044,0.0358,9.8065,0.1301,-0.2447,0.1775,-24.37,-36.19,-4.94,91.82,-78.42,-3.87
52.852776,-1.680636,131.8,7.95,4,328.01,25 / 25,484912,2019-11-06 11:53:58:793,2.8,5.3807,8.9509,0.0062,0.0107,9.8065,-0.0195,0.2963,-0.0645,-23.44,-36.37,-5.62,89.25,-78.73,-3.7
52.852776,-1.680636,131.8,7.95,4,328.01,25 / 25,485012,2019-11-06 11:53:58:893,2.6057,0.6817,9.5612,0.0012,0.0776,9.8062,0.0914,-0.1737,0.2077,-24.37,-36.31,-4.69,91.96,-79.05,-2.73
52.852776,-1.680636,131.8,7.95,4,328.01,25 / 25,485112,2019-11-06 11:53:58:993,3.5345,-2.0581,10.208,-0.011,0.0917,9.8062,0.101,-0.3006,0.1534,-23.75,-36.56,-5.06,92.61,-79.23,-2.23
52.852776,-1.680636,131.8,7.95,4,328.01,25 / 25,485212,2019-11-06 11:53:59:093,1.6143,1.137,10.0637,-0.0036,0.0045,9.8066,0.0312,0.2961,-0.1425,-23.75,-36.69,-4.94,92.5,-79.28,-2.27
52.852776,-1.680636,131.8,7.95,4,328.01,25 / 25,485312,2019-11-06 11:53:59:193,2.2833,-3.0285,10.0694,-0.004,0.0696,9.8063,-0.0186,0.5134,-0.1737,-23.44,-36.44,-4.94,93.17,-79.35,-1.2
52.852776,-1.680636,131.8,7.95,4,328.01,25 / 25,485412,2019-11-06 11:53:59:293,2.9611,1.089,10.3447,0.0169,-0.0793,9.8062,0.0725,0.6278,-0.3183,-23.69,-36.12,-5.12,92.6,-79.69,-1.07
52.852776,-1.680636,131.8,7.95,4,328.01,20 / 22,485512,2019-11-06 11:53:59:393,3.4314,-4.4064,10.46,0.0308,0.0233,9.8065,0.0952,0.2748,-0.24,-22.37,-36.25,-4.44,94.19,-80.05,-1.79
52.852776,-1.680636,131.8,7.95,4,328.01,20 / 22,485612,2019-11-06 11:53:59:493,4.7711,3.5383,9.2136,0.0403,-0.0559,9.8064,-0.0342,0.6836,-0.2764,-23,-37.19,-4.5,93.17,-80.42,-2.41
52.852776,-1.680636,131.8,7.95,4,328.01,20 / 22,485712,2019-11-06 11:53:59:593,2.6282,2.7157,9.7225,0.0455,-0.0003,9.8065,0.0239,0.1115,-0.04,-22.37,-37,-4.94,92.87,-80.67,0.1
52.852776,-1.680636,131.8,7.95,4,328.01,20 / 22,485812,2019-11-06 11:53:59:693,4.2237,3.0748,9.8894,-0.0037,-0.05,9.8065,0.0848,0.3777,-0.2351,-22.31,-36.12,-4.94,94.37,-80.87,2.41
52.852776,-1.680636,131.8,7.95,4,328.01,20 / 22,485912,2019-11-06 11:53:59:793,2.0895,0.6514,8.4417,0.0259,0.0027,9.8066,0.1583,0.0518,0.0006,-21.69,-36.56,-4.62,95.05,-81,2.92
52.852776,-1.680636,131.8,7.95,4,328.01,20 / 22,486011,2019-11-06 11:53:59:892,3.7283,-2.0535,10.3468,0.0066,-0.0387,9.8065,-0.0702,0.2143,-0.0474,-22.31,-36.31,-4.44,97.51,-80.93,3.15
52.852776,-1.680636,131.8,7.95,4,328.01,20 / 22,486111,2019-11-06 11:53:59:992,4.2339,0.505,10.8033,0.0248,-0.0346,9.8065,0.167,0.1486,0.0811,-21.19,-36.69,-5,96.44,-80.9,4.09
52.852776,-1.680636,131.8,7.95,4,328.01,20 / 22,486211,2019-11-06 11:54:00:092,0.4972,4.8402,8.5422,0.0513,-0.0231,9.8064,-0.2844,0.3603,-0.3225,-20.19,-36.94,-5,98.37,-81.06,6.29
52.852776,-1.680636,131.8,7.95,4,328.01,20 / 22,486312,2019-11-06 11:54:00:193,4.652,-0.7763,10.2825,-0.0034,0.0725,9.8063,-0.2159,0.271,-0.2216,-20.75,-37.06,-5.25,101.29,-80.84,9.1
52.852776,-1.680636,131.8,7.95,4,328.01,20 / 22,486413,2019-11-06 11:54:00:294,1.9306,0.9988,10.0546,-0.009,0.0158,9.8066,-0.0497,0.2192,-0.0124,-20.12,-36.62,-4.69,102.1,-80.83,9.84
52.852776,-1.680636,131.8,7.95,4,328.01,21 / 22,486512,2019-11-06 11:54:00:393,3.1462,2.5272,9.943,-0.0108,-0.0248,9.8065,0.0918,0.163,-0.1854,-19.19,-37.12,-5.06,104.27,-80.69,11.81
52.852776,-1.680636,131.8,7.95,4,328.01,21 / 22,486612,2019-11-06 11:54:00:493,2.0538,-0.6037,10.7234,-0.0069,0.0763,9.8063,0.1528,-0.2,0.1542,-19.06,-36.56,-4.62,108.87,-80.64,16.78
52.852776,-1.680636,131.8,7.95,4,328.01,21 / 22,486711,2019-11-06 11:54:00:592,4.1242,-0.3845,8.4653,0.0181,0.018,9.8065,0.0102,-0.1346,0.0339,-18.12,-36.81,-4.5,112.13,-80.91,17.64
52.852776,-1.680636,131.8,7.95,4,328.01,21 / 22,486812,2019-11-06 11:54:00:693,3.4083,3.4494,9.9823,-0.0032,0.0139,9.8066,0.0439,0.0465,-0.0398,-18.69,-37.44,-5.56,107.16,-80.98,18.55
52.852776,-1.680636,131.8,7.95,4,328.01,21 / 22,486911,2019-11-06 11:54:00:792,1.399,0.2313,9.1894,-0.0015,0.067,9.8063,-0.0497,0.3653,-0.0828,-18.62,-37,-5.19,111.17,-80.87,19.79
52.852776,-1.680636,131.8,7.95,4,328.01,21 / 22,487012,2019-11-06 11:54:00:893,-0.086,2.1499,9.5436,-0.0108,-0.0172,9.8065,-0.1554,0.2644,-0.0985,-18.31,-36.94,-6.31,107.27,-80.69,18.18
52.852776,-1.680636,131.8,7.95,4,328.01,21 / 22,487112,2019-11-06 11:54:00:993,4.0912,0.8505,9.5816,-0.0085,-0.0003,9.8066,-0.114,0.1645,-0.0284,-18.25,-36.75,-6.44,107.53,-80.43,17.95
52.852776,-1.680636,131.8,7.95,4,328.01,21 / 22,487212,2019-11-06 11:54:01:093,4.0309,2.2108,9.2028,0.004,-0.0335,9.8065,0.009,0.2693,-0.1225,-17.94,-36.37,-5.5,109.48,-80.48,17.55
52.852776,-1.680636,131.8,7.95,4,328.01,21 / 22,487312,2019-11-06 11:54:01:193,2.3878,0.7664,9.2872,0.0176,-0.0239,9.8066,0.0349,-0.0869,0.0877,-18.81,-37,-5.62,107.4,-80.6,18.12
52.852776,-1.680636,131.8,7.95,4,328.01,21 / 22,487412,2019-11-06 11:54:01:293,5.6531,-1.9214,9.091,-0.0004,-0.0303,9.8065,-0.1275,0.1767,-0.08,-18.25,-36.31,-4.94,110.98,-80.43,19.16
52.85338,-1.680443,131.25,11.35,4,8.65,22 / 23,487512,2019-11-06 11:54:01:393,4.9263,0.5295,8.2596,-0.0107,-0.0506,9.8065,-0.0748,-0.2498,0.1344,-18.5,-36.44,-5.44,109.87,-80.18,17.41
52.85338,-1.680443,131.25,11.35,4,8.65,22 / 23,487612,2019-11-06 11:54:01:493,1.9839,-3.3845,9.749,-0.0186,0.0032,9.8066,-0.0516,-0.1361,0.1263,-19.31,-36.75,-5.69,107.53,-79.64,16.48
52.85338,-1.680443,131.25,11.35,4,8.65,22 / 23,487712,2019-11-06 11:54:01:593,1.1602,0.8339,9.2699,0.0128,-0.0339,9.8065,0.0916,-0.3231,0.1362,-17.81,-36.81,-5.5,109.69,-79.65,15.64
52.85338,-1.680443,131.25,11.35,4,8.65,22 / 23,487812,2019-11-06 11:54:01:693,1.4551,-5.2862,9.2293,0.022,0.0542,9.8064,-0.1348,-0.3561,0.3136,-18.44,-36.69,-5.56,108.54,-79.68,17.62
52.85338,-1.680443,131.25,11.35,4,8.65,22 / 23,487912,2019-11-06 11:54:01:793,3.7335,3.2034,9.2225,-0.0007,0.0015,9.8066,0.0528,-0.2244,0.0593,-17.94,-36.31,-5.56,107.87,-79.66,17.38
52.85338,-1.680443,131.25,11.35,4,8.65,22 / 23,488012,2019-11-06 11:54:01:893,3.2117,-0.1597,9.4794,0.0148,0.0757,9.8063,0.0113,-0.4676,0.3016,-18.25,-35.94,-5.56,108.44,-79.81,18.31
52.85338,-1.680443,131.25,11.35,4,8.65,22 / 23,488112,2019-11-06 11:54:01:993,3.3256,1.8527,9.2264,0.0162,0.0117,9.8066,-0.0133,-0.0004,-0.041,-18,-37.06,-5.31,113.12,-79.91,20.1
52.85338,-1.680443,131.25,11.35,4,8.65,22 / 23,488212,2019-11-06 11:54:02:093,7.3652,-0.8214,8.862,0.0133,0.0772,9.8063,0.1744,-0.2405,0.1957,-18.44,-36.94,-5.25,115.88,-79.95,23.4
52.85338,-1.680443,131.25,11.35,4,8.65,22 / 23,488313,2019-11-06 11:54:02:194,-0.0108,-4.061,9.906,0.0204,-0.0329,9.8066,-0.0363,0.1927,-0.2634,-17.94,-36.75,-5.12,116.27,-80.27,24.45
52.85338,-1.680443,131.25,11.35,4,8.65,22 / 23,488411,2019-11-06 11:54:02:292,2.9776,2.9265,8.8102,-0.0099,0.0307,9.8065,0.0515,-0.1583,0.2055,-17.94,-36.75,-5.81,115.35,-80.18,26.4
52.85338,-1.680443,131.25,11.35,4,8.65,22 / 23,488512,2019-11-06 11:54:02:393,1.3174,-1.4264,9.6268,0.0004,0.0519,9.8065,-0.0473,-0.3513,0.1189,-17.75,-36.69,-5.62,114.82,-80.24,25.89
52.85338,-1.680443,131.25,11.35,4,8.65,22 / 23,488612,2019-11-06 11:54:02:493,1.4122,1.5641,10.0001,0.0217,0.0471,9.8064,0.0293,-0.1713,0.024,-17.94,-36.87,-5.56,114.44,-80.16,25.32
52.85338,-1.680443,131.25,11.35,4,8.65,22 / 23,488712,2019-11-06 11:54:02:593,0.7444,0.1356,9.8208,0.0175,0.0699,9.8063,0.0563,-0.2942,0.2347,-17.62,-37.37,-5.5,119.53,-80.24,28.24
52.85338,-1.680443,131.25,11.35,4,8.65,22 / 23,488812,2019-11-06 11:54:02:693,2.4597,1.2649,9.0584,0.019,0.0238,9.8066,-0.1135,-0.0258,-0.0508,-17.5,-36.87,-5.62,117.06,-80.54,29.14
52.85338,-1.680443,131.25,11.35,4,8.65,22 / 23,488912,2019-11-06 11:54:02:793,2.1329,-3.0901,9.1445,0.0198,0.0577,9.8064,-0.0972,-0.1942,0.1442,-17.56,-36.19,-5.44,120,-80.41,29.56
52.85338,-1.680443,131.25,11.35,4,8.65,22 / 23,489012,2019-11-06 11:54:02:893,0.9015,-0.7601,9.6144,0.0112,0.0109,9.8066,0.0136,-0.0167,-0.1311,-17.87,-36.94,-5.62,117.86,-80.34,29.63
52.85338,-1.680443,131.25,11.35,4,8.65,22 / 23,489112,2019-11-06 11:54:02:993,3.1933,-4.0438,9.7441,-0.0039,0.0847,9.8062,-0.0398,0.1979,-0.3314,-17.81,-37.37,-5.81,119.89,-80.23,31.83
52.85338,-1.680443,131.25,11.35,4,8.65,22 / 23,489212,2019-11-06 11:54:03:093,3.3513,-0.1816,10.584,0.0361,0.0204,9.8065,-0.197,0.1714,0.062,-18.06,-36.56,-5.94,119.42,-80.2,31.22
52.85338,-1.680443,131.25,11.35,4,8.65,22 / 23,489312,2019-11-06 11:54:03:193,1.5298,-1.437,9.0706,-0.0012,0.0204,9.8066,-0.1934,0.3202,-0.236,-17.5,-36.5,-5.06,122.79,-80.1,32.31
52.85338,-1.680443,131.25,11.35,4,8.65,22 / 23,489412,2019-11-06 11:54:03:293,1.9077,2.0167,10.2847,-0.0289,-0.0108,9.8066,0.039,0.1856,-0.104,-17.56,-36.87,-5.62,121.22,-80,33.01
52.85338,-1.680443,131.25,11.35,4,8.65,21 / 21,489512,2019-11-06 11:54:03:393,1.2048,1.0427,9.057,0.01,0.0347,9.8066,0.0033,-0.0041,0.0664,-17.56,-36.87,-5.62,121.78,-79.95,33.61
52.85338,-1.680443,131.25,11.35,4,8.65,21 / 21,489612,2019-11-06 11:54:03:493,2.1214,1.2356,9.511,0.0198,-0.043,9.8065,-0.0488,0.1855,-0.238,-16.75,-36.5,-4.94,125.48,-79.64,34.82
52.85338,-1.680443,131.25,11.35,4,8.65,21 / 21,489712,2019-11-06 11:54:03:593,2.9826,0.1553,9.3377,0.0013,-0.0069,9.8066,0.0225,-0.1057,-0.0595,-16.19,-36.94,-4.81,126.7,-79.7,35.86
52.85338,-1.680443,131.25,11.35,4,8.65,21 / 21,489812,2019-11-06 11:54:03:693,2.0522,-1.9018,9.1583,-0.0025,0.0134,9.8066,0.0255,0.0288,-0.0097,-15.37,-36.62,-4.81,128.36,-79.64,37.79
52.85338,-1.680443,131.25,11.35,4,8.65,21 / 21,489912,2019-11-06 11:54:03:793,1.1736,-1.4215,9.1898,0.0104,-0.0226,9.8066,0.0963,-0.1415,0.0571,-14.94,-36.62,-4.87,129.07,-79.71,38.83
52.85338,-1.680443,131.25,11.35,4,8.65,21 / 21,490012,2019-11-06 11:54:03:893,4.1761,-1.3108,10.7681,-0.0065,-0.0351,9.8065,0.1651,0.0196,-0.123,-14.06,-37,-5.87,126.8,-79.85,40.17
52.85338,-1.680443,131.25,11.35,4,8.65,21 / 21,490112,2019-11-06 11:54:03:993,1.599,1.043,9.4058,0.025,-0.0201,9.8065,0.1136,-0.264,0.1414,-15.25,-37.06,-6.31,127.63,-79.98,41.28
52.85338,-1.680443,131.25,11.35,4,8.65,21 / 21,490212,2019-11-06 11:54:04:093,1.9719,-1.5937,9.8164,0.0289,0.0209,9.8065,0.0052,-0.1426,0.1328,-15.56,-36.56,-6.69,124.9,-79.92,41.05
52.85338,-1.680443,131.25,11.35,4,8.65,21 / 21,490312,2019-11-06 11:54:04:193,1.5571,2.5782,9.2218,0.0204,-0.0262,9.8065,0.1387,-0.3138,0.023,-16.25,-36.25,-6.31,128.15,-80.18,42.55
52.85338,-1.680443,131.25,11.35,4,8.65,21 / 21,490412,2019-11-06 11:54:04:293,3.1435,1.0449,8.8242,-0.0184,0.0764,9.8062,0.0502,-0.368,0.2377,-16.37,-36.87,-6.06,130.24,-79.94,44.3
52.85338,-1.680443,131.25,11.35,4,8.65,22 / 23,490512,2019-11-06 11:54:04:393,4.6571,2.9156,8.8233,-0.0375,0.0153,9.8065,-0.1107,-0.0206,-0.0389,-16.5,-36.87,-5.62,129.44,-79.9,43.21
52.85338,-1.680443,131.25,11.35,4,8.65,22 / 23,490612,2019-11-06 11:54:04:493,0.1174,-0.6688,9.2567,-0.0189,0.0469,9.8065,-0.0752,-0.2236,0.086,-16.69,-36.94,-5.69,128.84,-79.83,42.17
52.85338,-1.680443,131.25,11.35,4,8.65,22 / 23,490712,2019-11-06 11:54:04:593,2.6827,-3.3035,9.5514,-0.0277,0.0477,9.8064,-0.0023,0.2159,-0.1843,-16.19,-36.94,-5.87,129.89,-79.38,42.92
52.85338,-1.680443,131.25,11.35,4,8.65,22 / 23,490812,2019-11-06 11:54:04:693,0.8459,-1.0039,9.6681,0.0074,0.0396,9.8065,-0.0037,0.0062,0.0989,-16.81,-36.81,-5.19,133.17,-79.43,43.67
52.85338,-1.680443,131.25,11.35,4,8.65,22 / 23,490912,2019-11-06 11:54:04:793,2.9152,-3.0659,10.2473,0.0039,0.0346,9.8065,-0.1656,0.136,-0.2759,-16.37,-36.69,-5.31,133.32,-79.48,43.95
52.85338,-1.680443,131.25,11.35,4,8.65,22 / 23,491012,2019-11-06 11:54:04:893,2.5342,2.4849,9.1232,-0.0241,0.0301,9.8065,0.0049,-0.0657,0.1493,-16.37,-36.75,-5.75,129.38,-79.8,42.97
52.85338,-1.680443,131.25,11.35,4,8.65,22 / 23,491112,2019-11-06 11:54:04:993,3.1647,-1.0004,9.9734,-0.0037,0.0615,9.8064,-0.0286,0.4285,-0.3213,-17.25,-37.44,-5.5,132.73,-79.62,43.4
52.85338,-1.680443,131.25,11.35,4,8.65,22 / 23,491212,2019-11-06 11:54:05:093,-0.3622,2.2145,9.4496,0.0247,0.0243,9.8066,-0.193,0.2054,0.0289,-16.44,-36.87,-5.62,130.8,-79.65,44.53
52.85338,-1.680443,131.25,11.35,4,8.65,22 / 23,491312,2019-11-06 11:54:05:193,2.1312,-2.4123,9.5052,0.0009,0.0663,9.8064,-0.0812,0.3374,-0.2264,-16.25,-36.5,-5.69,130.36,-79.45,44.13
52.85338,-1.680443,131.25,11.35,4,8.65,22 / 23,491412,2019-11-06 11:54:05:293,1.1107,1.8647,10.2427,0.0068,-0.027,9.8065,0.0176,0.2738,-0.1889,-16.62,-37,-5.5,132.62,-79.57,43.19
52.85338,-1.680443,131.25,11.35,4,8.65,19 / 20,491512,2019-11-06 11:54:05:393,2.925,-2.1706,10.0395,0.0013,0.042,9.8064,-0.0436,-0.0855,0.1459,-17,-36.56,-6.12,130.75,-79.59,44.17
52.85338,-1.680443,131.25,11.35,4,8.65,19 / 20,491612,2019-11-06 11:54:05:493,1.6594,1.4446,10.2157,0.0277,-0.0206,9.8065,-0.039,0.1873,-0.1459,-16.94,-36.62,-5.87,130.26,-79.76,43.82
52.85338,-1.680443,131.25,11.35,4,8.65,19 / 20,491712,2019-11-06 11:54:05:593,3.9655,-1.3794,9.0383,0.0198,0.0184,9.8065,-0.0411,0.2247,-0.1007,-17.06,-36.94,-5.37,133.37,-79.96,44.72
52.85338,-1.680443,131.25,11.35,4,8.65,19 / 20,491814,2019-11-06 11:54:05:695,0.154,0.9917,10.1779,-0.0142,-0.0311,9.8065,-0.0028,0.2675,-0.1217,-17.06,-36.81,-5.94,129.87,-80.05,43.8
52.85338,-1.680443,131.25,11.35,4,8.65,19 / 20,491912,2019-11-06 11:54:05:793,3.5106,-3.3045,8.4479,-0.005,-0.0094,9.8066,0.0196,0.1476,-0.1564,-16.81,-36.87,-6.12,130.23,-80.06,44.25
52.85338,-1.680443,131.25,11.35,4,8.65,19 / 20,492012,2019-11-06 11:54:05:893,1.3473,-1.8863,9.9726,0.0068,-0.062,9.8063,0.0195,0.4389,-0.2833,-17.25,-36.87,-5.31,132.7,-80.15,44.18
52.85338,-1.680443,131.25,11.35,4,8.65,19 / 20,492112,2019-11-06 11:54:05:993,2.3272,-4.5383,10.2984,0.0172,0.0031,9.8066,0.1306,-0.0453,0.0101,-16.31,-37,-5.31,134.64,-80.04,46.54
52.85338,-1.680443,131.25,11.35,4,8.65,19 / 20,492212,2019-11-06 11:54:06:093,4.1219,-0.681,9.7451,0.0383,-0.0915,9.8061,-0.0694,0.3893,-0.2532,-16.75,-37,-5.69,133.4,-79.95,48.06
52.85338,-1.680443,131.25,11.35,4,8.65,19 / 20,492312,2019-11-06 11:54:06:193,3.0361,0.6368,8.5848,0.0272,-0.0444,9.8065,0.0187,-0.1317,-0.0318,-17.06,-36.81,-5.37,135.19,-80.4,47.68
52.85338,-1.680443,131.25,11.35,4,8.65,19 / 20,492411,2019-11-06 11:54:06:292,1.5755,-0.2688,10.8493,0.0178,0.0204,9.8066,-0.1714,-0.0854,0.1745,-16.87,-36.31,-5.62,131.59,-80.28,46.72
52.85338,-1.680443,131.25,11.35,4,8.65,22 / 22,492511,2019-11-06 11:54:06:392,2.071,-1.6965,8.6754,0.004,0.0068,9.8066,-0.0391,-0.2717,0.2075,-17.75,-37,-6,131.17,-80.29,45.57
52.85338,-1.680443,131.25,11.35,4,8.65,22 / 22,492612,2019-11-06 11:54:06:493,3.7675,-0.034,9.5045,0.0029,0.0272,9.8066,-0.0638,-0.1744,0.125,-17.5,-36.5,-5.56,129.88,-80.29,44.62
52.85338,-1.680443,131.25,11.35,4,8.65,22 / 22,492712,2019-11-06 11:54:06:593,-0.9293,-3.7385,9.4806,0.0373,0.0637,9.8063,0.1188,0.1684,-0.1996,-17.56,-37.5,-5.56,130.76,-80.37,45.17
52.85338,-1.680443,131.25,11.35,4,8.65,22 / 22,492812,2019-11-06 11:54:06:693,3.2088,-2.1179,9.3023,0.0056,0.0314,9.8066,0.0284,-0.0955,0.0813,-16.94,-36.75,-5.31,133.55,-80.63,45.95
52.85338,-1.680443,131.25,11.35,4,8.65,22 / 22,492912,2019-11-06 11:54:06:793,4.2424,-0.9901,9.8358,0.0137,0.0313,9.8065,-0.0752,0.0728,-0.0933,-17.31,-37.12,-5.31,134.3,-80.44,46.62
52.85338,-1.680443,131.25,11.35,4,8.65,22 / 22,493012,2019-11-06 11:54:06:893,0.8951,2.46,8.9089,0.0101,0.0533,9.8064,-0.0314,-0.1833,0.0385,-17.19,-37.06,-5.81,132.91,-80.34,48.03
52.85338,-1.680443,131.25,11.35,4,8.65,22 / 22,493115,2019-11-06 11:54:06:996,3.2466,0.5977,9.5562,-0.0351,0.0672,9.8063,-0.1171,0.4646,-0.3306,-17.12,-37.12,-5.25,136,-80.22,48.44
52.85338,-1.680443,131.25,11.35,4,8.65,22 / 22,493212,2019-11-06 11:54:07:093,0.4616,4.7983,9.3753,-0.0011,0.0291,9.8065,-0.0966,0.027,-0.065,-17.37,-36.69,-5.81,133.29,-80.25,48.36
52.85338,-1.680443,131.25,11.35,4,8.65,22 / 22,493312,2019-11-06 11:54:07:193,1.8701,-5.2174,9.2498,-0.0021,0.1254,9.8058,-0.0729,0.6666,-0.4483,-18,-36.62,-5.25,136.73,-80.08,49.06
52.85338,-1.680443,131.25,11.35,4,8.65,22 / 22,493412,2019-11-06 11:54:07:293,0.32,3.0483,9.3508,0.0345,-0.0358,9.8065,-0.1323,0.5292,-0.2004,-17.37,-36.56,-5.62,132.77,-80.31,47.82
