GPS LATITUDE (degrees), GPS LONGITUDE (degrees), GPS ALTITUDE (m), GPS SPEED (Kmh), GPS ACCURACY (m), GPS ORIENTATION (Â°),GPS SATELLITES IN RANGE, TIME SINCE START (ms), DATE (YYYY-MO-DD HH-MI-SS_SSS), ACCELEROMETER X (m/s²) , ACCELEROMETER Y (m/s²), ACCELEROMETER Z (m/s²), GRAVITY X (m/s²), GRAVITY Y (m/s²), GRAVITY Z (m/s²), GYROSCOPE Yaw (rad/s), GYROSCOPE Pitch (rad/s), GYROSCOPE Roll (rad/s), MAGNETIC FIELD X (Î¼T), MAGNETIC FIELD Y (Î¼T), MAGNETIC FIELD Z (Î¼T), ORIENTATION (Yaw) (Â°), ORIENTATION (Pitch) (Â°), ORIENTATION (Roll ) (Â°)
52.916435,-1.760474,171.15,19.03,3,3.83,23 / 23,1298612,2019-11-06 12:07:32:493,-0.7606,-0.8707,7.7494,0.0256,-0.0022,9.8066,-0.2656,0.0472,0.0216,-17.87,-38.12,-4.69,221.63,-89.36,148.02
52.916435,-1.760474,171.15,19.03,3,3.83,23 / 23,1298711,2019-11-06 12:07:32:592,-0.7162,1.4898,10.049,-0.0167,-0.0276,9.8065,-0.0986,-0.2712,0.186,-17.94,-37.12,-4.75,206.34,-89.66,132.17
52.916435,-1.760474,171.15,19.03,3,3.83,23 / 23,1298812,2019-11-06 12:07:32:693,-0.3573,-2.9156,9.4171,-0.0068,0.0014,9.8066,-0.0243,-0.0555,0.0939,-18.06,-37.87,-4.5,180.72,-89.61,103.26
52.916435,-1.760474,171.15,19.03,3,3.83,23 / 23,1298912,2019-11-06 12:07:32:793,-0.0104,1.8241,10.2208,0.0286,-0.0398,9.8064,0.0855,-0.3551,0.1441,-18.12,-37.75,-4.69,197.93,-89.68,123.66
52.916435,-1.760474,171.15,19.03,3,3.83,23 / 23,1299012,2019-11-06 12:07:32:893,1.0713,-4.2314,10.4915,0.0016,0.0385,9.8066,0.0306,-0.3015,0.2912,-17.94,-37.75,-4.44,203.76,-89.46,126.73
52.916435,-1.760474,171.15,19.03,3,3.83,23 / 23,1299112,2019-11-06 12:07:32:993,0.75,-0.7646,10.4878,0.0001,-0.0436,9.8065,-0.0414,-0.0406,0.0906,-17.44,-37.5,-4.56,227.73,-89.67,154.62
52.916435,-1.760474,171.15,19.03,3,3.83,23 / 23,1299212,2019-11-06 12:07:33:093,0.6419,-2.807,9.7623,-0.0123,0.0106,9.8066,-0.0063,-0.3392,0.1876,-18.56,-36.94,-4.69,231.98,-89.73,157.12
52.916435,-1.760474,171.15,19.03,3,3.83,23 / 23,1299312,2019-11-06 12:07:33:193,-0.3099,0.2926,10.0305,-0.0181,0.0063,9.8066,0.0309,0.0612,0.0157,-17.94,-36.56,-4.94,272.44,-89.82,-161.68
52.916435,-1.760474,171.15,19.03,3,3.83,23 / 23,1299412,2019-11-06 12:07:33:293,1.1049,0.1923,10.0016,0.0017,0.0048,9.8065,0.0572,-0.0821,-0.0086,-18.75,-37.37,-4.06,289.73,-89.59,-147.65
52.916435,-1.760474,171.15,19.03,3,3.83,23 / 23,1299512,2019-11-06 12:07:33:393,1.2978,-0.7932,10.2157,-0.0154,0.0094,9.8066,0.0295,-0.0852,0.0922,-18.5,-37.25,-4.37,277.4,-89.6,-159.27
52.916435,-1.760474,171.15,19.03,3,3.83,23 / 23,1299612,2019-11-06 12:07:33:493,1.3768,-0.9958,9.4112,-0.0135,0.0074,9.8066,-0.0957,0.0977,-0.056,-18.06,-37.62,-4.06,265,-89.73,-171.9
52.916435,-1.760474,171.15,19.03,3,3.83,23 / 23,1299712,2019-11-06 12:07:33:593,0.5351,-0.8001,9.6004,-0.0268,-0.014,9.8066,-0.094,0.0052,0.042,-18.56,-37.19,-4.69,124.23,-89.92,48.85
52.916435,-1.760474,171.15,19.03,3,3.83,23 / 23,1299812,2019-11-06 12:07:33:693,0.102,-1.5565,9.0873,0.0116,-0.0458,9.8064,-0.0359,0.2011,-0.1359,-18.19,-37.19,-4.44,127.26,-89.7,49.31
52.916435,-1.760474,171.15,19.03,3,3.83,23 / 23,1299912,2019-11-06 12:07:33:793,2.1009,-2.1018,10.7846,0.0007,-0.0451,9.8065,-0.0898,-0.1859,0.2007,-18.12,-37.19,-4.87,38.57,-89.74,-36.23
52.916435,-1.760474,171.15,19.03,3,3.83,23 / 23,1300011,2019-11-06 12:07:33:892,-1.6144,-3.0276,8.2631,0.0219,-0.0308,9.8065,-0.1761,0.1469,-0.0822,-18.5,-37.12,-4.56,350.15,-89.71,-84.23
52.916435,-1.760474,171.15,19.03,3,3.83,23 / 23,1300111,2019-11-06 12:07:33:992,2.8324,1.9947,10.6639,-0.0265,-0.0853,9.8062,-0.1015,-0.2976,0.1157,-18.62,-37.56,-4.5,33.79,-89.52,-44.85
52.916435,-1.760474,171.15,19.03,3,3.83,23 / 23,1300212,2019-11-06 12:07:34:093,1.4959,-2.0402,9.434,-0.0283,0.0377,9.8064,0.1049,-0.2292,0.1155,-18.56,-37.56,-4.5,106.8,-89.39,27.55
52.916435,-1.760474,171.15,19.03,3,3.83,23 / 23,1300312,2019-11-06 12:07:34:193,-0.3185,1.5385,8.7541,-0.022,-0.021,9.8066,-0.0137,-0.1284,0.0188,-18.12,-37.37,-5.44,96.85,-89.17,20.74
52.916435,-1.760474,171.15,19.03,3,3.83,23 / 23,1300412,2019-11-06 12:07:34:293,0.3388,1.8315,10.4636,-0.0076,0.0276,9.8065,0.1163,-0.3422,0.0963,-18.37,-37.12,-4.87,92.85,-89.01,16.41
52.916435,-1.760474,171.15,19.03,3,3.83,22 / 22,1300512,2019-11-06 12:07:34:393,1.0867,0.9539,11.5365,0.0153,0.0268,9.8065,0.0505,0.0434,0.0937,-18.37,-37.56,-4.87,99.15,-89.27,23.21
52.916435,-1.760474,171.15,19.03,3,3.83,22 / 22,1300612,2019-11-06 12:07:34:493,-0.2287,0.0593,11.0352,0.0039,0.0218,9.8066,-0.0423,-0.1589,0.0669,-18.31,-37.37,-4.06,101.33,-89.74,23.35
52.916435,-1.760474,171.15,19.03,3,3.83,22 / 22,1300712,2019-11-06 12:07:34:593,2.4958,-2.0545,10.4986,-0.039,0.0144,9.8066,-0.1018,0.2968,-0.2592,-18.37,-37,-4.56,87.49,-89.59,12.22
52.916435,-1.760474,171.15,19.03,3,3.83,22 / 22,1300812,2019-11-06 12:07:34:693,1.4005,0.5723,8.4464,-0.0244,-0.0027,9.8066,-0.0458,0.1362,0.0254,-18.62,-37.44,-4.44,82.41,-89.26,2.91
52.916435,-1.760474,171.15,19.03,3,3.83,22 / 22,1300912,2019-11-06 12:07:34:793,1.6703,-3.097,9.1108,-0.0218,0.0185,9.8065,-0.0571,0.3484,-0.1124,-18.69,-37.31,-4.62,73.3,-89.08,-3.62
52.916435,-1.760474,171.15,19.03,3,3.83,22 / 22,1301012,2019-11-06 12:07:34:893,0.9061,2.0211,8.8764,0.0125,-0.0552,9.8064,0.0096,0.248,-0.2306,-18.12,-37.25,-4.81,68.44,-89.1,-7.69
52.916435,-1.760474,171.15,19.03,3,3.83,22 / 22,1301112,2019-11-06 12:07:34:993,0.5513,-3.8419,10.3321,-0.0126,0.0284,9.8066,-0.0771,0.3265,-0.1598,-19.12,-37.06,-4.5,55.52,-89.02,-24.13
52.916435,-1.760474,171.15,19.03,3,3.83,22 / 22,1301212,2019-11-06 12:07:35:093,0.0471,2.2462,10.0934,0.0082,-0.0456,9.8065,-0.0226,0.2569,-0.2581,-18.75,-37.56,-4.87,37.09,-88.59,-39.82
52.916435,-1.760474,171.15,19.03,3,3.83,22 / 22,1301312,2019-11-06 12:07:35:193,-1.6615,-2.3691,8.763,-0.0055,0.0679,9.8064,0.1597,0.2246,-0.3968,-19.19,-36.69,-5.06,56.5,-88.82,-20.63
52.916435,-1.760474,171.15,19.03,3,3.83,22 / 22,1301412,2019-11-06 12:07:35:293,-1.7353,1.4634,10.0273,0.0322,0.0069,9.8066,0.0413,0.2704,-0.1321,-18.62,-37.31,-5.25,55.1,-89.05,-21.62
52.916435,-1.760474,171.15,19.03,3,3.83,22 / 23,1301512,2019-11-06 12:07:35:393,1.6237,-0.1668,9.8345,0.0315,0.031,9.8065,0.105,-0.1515,-0.0666,-18.69,-37.75,-4.87,60.42,-89.24,-16.12
52.916435,-1.760474,171.15,19.03,3,3.83,22 / 23,1301612,2019-11-06 12:07:35:493,2.6085,-0.5651,11.0519,0.0229,0.0139,9.8065,-0.1126,0.0749,0.0264,-18.81,-38,-5.12,56.38,-89.39,-19.86
52.916435,-1.760474,171.15,19.03,3,3.83,22 / 23,1301712,2019-11-06 12:07:35:593,0.6306,-2.4298,10.0741,0.0052,-0.0448,9.8064,-0.0967,-0.0684,0.1863,-18.81,-37.19,-4.94,49.85,-89.16,-26.62
52.916435,-1.760474,171.15,19.03,3,3.83,22 / 23,1301811,2019-11-06 12:07:35:692,1.4762,0.4863,9.8037,-0.0001,-0.0536,9.8065,0.1345,-0.0221,-0.2196,-18.56,-37.44,-4.75,67.87,-89.3,-8.61
52.916435,-1.760474,171.15,19.03,3,3.83,22 / 23,1301913,2019-11-06 12:07:35:794,-0.3448,-0.215,9.9658,0.0078,0.0232,9.8066,0.0873,-0.2013,0.0465,-18.5,-37.31,-4.56,58.67,-89.42,-16.78
52.916435,-1.760474,171.15,19.03,3,3.83,22 / 23,1302012,2019-11-06 12:07:35:893,0.3875,-0.3687,9.8708,0.0102,0.0283,9.8065,0.0664,-0.1125,0.0132,-19,-36.94,-4.44,51.89,-89.66,-26.74
52.916435,-1.760474,171.15,19.03,3,3.83,22 / 23,1302112,2019-11-06 12:07:35:993,0.1488,0.0807,10.6625,0.0138,-0.0097,9.8066,-0.0758,0.0487,-0.0766,-18.44,-37.37,-5.12,24.8,-89.88,-49.78
52.916435,-1.760474,171.15,19.03,3,3.83,22 / 23,1302212,2019-11-06 12:07:36:093,1.0204,1.0406,10.0832,0.0049,0.0237,9.8066,-0.0847,-0.097,0.1296,-18.69,-37.25,-5.06,145.84,-89.87,70.45
52.916435,-1.760474,171.15,19.03,3,3.83,22 / 23,1302312,2019-11-06 12:07:36:193,0.6695,1.4094,10.4276,-0.0174,0.0139,9.8066,-0.0637,-0.063,0.0206,-18.62,-37.12,-4.87,88.05,-89.7,12.22
52.916435,-1.760474,171.15,19.03,3,3.83,22 / 23,1302412,2019-11-06 12:07:36:293,1.0932,-0.0189,8.7331,0.0074,0.0304,9.8065,-0.0844,-0.085,0.0963,-18.69,-37.37,-4.87,55.98,-89.38,-20.25
52.916435,-1.760474,171.15,19.03,3,3.83,22 / 22,1302513,2019-11-06 12:07:36:394,0.1566,-1.5775,10.2484,-0.0128,-0.0078,9.8066,0.0077,0.0493,-0.1515,-18.44,-37.12,-4.87,60.39,-89.38,-15.15
52.916435,-1.760474,171.15,19.03,3,3.83,22 / 22,1302611,2019-11-06 12:07:36:492,1.2406,-0.9392,9.7389,0.0017,-0.0111,9.8066,-0.0795,-0.024,0.0414,-18.62,-36.87,-5.5,68.59,-89.47,-7.59
52.916435,-1.760474,171.15,19.03,3,3.83,22 / 22,1302711,2019-11-06 12:07:36:592,-1.1385,-0.4428,10.107,0.0039,-0.034,9.8065,-0.0331,0.1818,-0.1104,-18.44,-37.31,-4.75,91.07,-89.44,15.49
52.916435,-1.760474,171.15,19.03,3,3.83,22 / 22,1302811,2019-11-06 12:07:36:692,-0.0707,1.5994,9.9796,0.0055,-0.0327,9.8065,0.0524,0.1832,-0.1884,-18.56,-36.94,-4.81,73.3,-89.37,-3.09
52.916435,-1.760474,171.15,19.03,3,3.83,22 / 22,1302911,2019-11-06 12:07:36:792,-1.4119,2.1912,9.717,0.0167,-0.0506,9.8064,-0.0306,0.2198,-0.2742,-18.56,-36.87,-5.5,75.48,-89.45,-0.79
52.916435,-1.760474,171.15,19.03,3,3.83,22 / 22,1303012,2019-11-06 12:07:36:893,0.6175,-0.2901,10.1191,-0.0102,0.009,9.8066,-0.0612,-0.034,0.006,-18.94,-36.87,-5.31,95.66,-89.31,19.11
52.916435,-1.760474,171.15,19.03,3,3.83,22 / 22,1303112,2019-11-06 12:07:36:993,-1.0979,-1.2133,9.5117,-0.0057,-0.0291,9.8066,0.0801,0.1178,-0.0531,-18.5,-37.37,-5.44,56.71,-89.29,-18.94
52.916435,-1.760474,171.15,19.03,3,3.83,22 / 22,1303212,2019-11-06 12:07:37:093,-0.7097,-2.5214,9.5861,0.018,-0.0262,9.8065,0.0397,-0.0486,-0.03,-19,-37.44,-5.37,45.97,-89.32,-30.21
52.916435,-1.760474,171.15,19.03,3,3.83,22 / 22,1303312,2019-11-06 12:07:37:193,-0.3841,-0.438,11.1999,0.0275,-0.026,9.8065,0.0163,0.3065,-0.1429,-18.5,-37.12,-5.62,53.31,-89.24,-19.45
52.916435,-1.760474,171.15,19.03,3,3.83,22 / 22,1303412,2019-11-06 12:07:37:293,0.0373,1.6561,10.5041,0.0172,0.0162,9.8066,-0.0064,0.1996,-0.1592,-18.25,-36.94,-5.19,69.1,-89.5,-6.31
52.916435,-1.760474,171.15,19.03,3,3.83,22 / 22,1303512,2019-11-06 12:07:37:393,-1.1129,0.3373,10.8604,0.0121,0.0456,9.8065,-0.2308,0.0868,0.0813,-17.5,-37.5,-5.94,127.58,-89.36,55.99
52.916435,-1.760474,171.15,19.03,3,3.83,22 / 22,1303612,2019-11-06 12:07:37:493,0.7959,2.3381,8.7058,-0.0441,-0.0525,9.8063,-0.1863,-0.2099,0.19,-17.06,-37.5,-5.69,102.83,-88.94,30.15
52.916435,-1.760474,171.15,19.03,3,3.83,22 / 22,1303711,2019-11-06 12:07:37:592,-0.7713,-0.0877,9.3964,-0.0223,-0.0329,9.8065,-0.0184,0.0265,0.0451,-17.56,-37.44,-5.81,101.18,-88.65,27.03
52.916435,-1.760474,171.15,19.03,3,3.83,22 / 22,1303811,2019-11-06 12:07:37:692,1.1496,-0.912,10.9187,0.0113,-0.034,9.8065,-0.0982,0.0304,0.0071,-17.62,-36.75,-5.5,86.48,-88.66,9.36
52.916435,-1.760474,171.15,19.03,3,3.83,22 / 22,1303913,2019-11-06 12:07:37:794,-1.658,-0.7309,8.0898,-0.0165,-0.0229,9.8065,0.2797,0.0095,-0.1149,-17.81,-37.06,-5.25,74.68,-88.74,-2.21
52.916435,-1.760474,171.15,19.03,3,3.83,22 / 22,1304012,2019-11-06 12:07:37:893,-1.7525,-3.6541,8.1879,-0.0033,0.0347,9.8065,0.2414,0.2978,-0.3126,-18.37,-36.94,-6,81.74,-89.07,8.37
52.916435,-1.760474,171.15,19.03,3,3.83,22 / 22,1304112,2019-11-06 12:07:37:993,1.3044,3.0583,11.4546,0.0102,0.0111,9.8066,-0.1101,0.101,0.0215,-18.37,-37.06,-5.44,76.85,-89.04,0.52
52.916435,-1.760474,171.15,19.03,3,3.83,22 / 22,1304211,2019-11-06 12:07:38:092,0.0211,-3.8579,9.1891,0.0045,0.0714,9.8063,-0.2192,-0.3659,0.2606,-18.5,-37.37,-5.62,77.82,-88.94,4.22
52.916435,-1.760474,171.15,19.03,3,3.83,22 / 22,1304314,2019-11-06 12:07:38:195,-1.9029,1.3879,8.4403,0.0293,0.0082,9.8066,-0.1834,0.2636,-0.1449,-18.06,-37,-5.75,70.99,-88.55,-3.26
52.916435,-1.760474,171.15,19.03,3,3.83,22 / 22,1304412,2019-11-06 12:07:38:293,0.5031,-3.9533,10.158,-0.0524,0.045,9.8063,0.1745,-0.3103,0.1755,-18.37,-37.44,-4.69,82.13,-88.57,4.84
52.916435,-1.760474,171.15,19.03,3,3.83,21 / 23,1304512,2019-11-06 12:07:38:393,0.8461,1.6697,11.3017,0.0284,-0.0282,9.8065,-0.0145,0.3915,-0.1552,-17.94,-37.19,-4.87,68.41,-88.89,-8.11
52.916435,-1.760474,171.15,19.03,3,3.83,21 / 23,1304612,2019-11-06 12:07:38:493,1.3917,-2.9627,11.6526,0.0263,0.0346,9.8065,0.0468,0.1063,-0.0796,-18.56,-36.44,-5.06,73.38,-89.08,-3.5
52.916435,-1.760474,171.15,19.03,3,3.83,21 / 23,1304712,2019-11-06 12:07:38:593,-0.8883,1.0201,9.3512,0.0412,-0.0257,9.8065,-0.1265,0.3342,-0.1447,-17.87,-37.19,-5.37,51.95,-89.34,-23.55
52.916435,-1.760474,171.15,19.03,3,3.83,21 / 23,1304812,2019-11-06 12:07:38:693,-0.169,3.5753,9.2262,0.0181,-0.0178,9.8066,-0.0094,-0.1292,0.1917,-17.94,-37.06,-5.44,55.51,-89.36,-20.01
52.916435,-1.760474,171.15,19.03,3,3.83,21 / 23,1304915,2019-11-06 12:07:38:796,2.6183,-2.565,8.7819,0.0008,-0.0491,9.8065,0.1096,0.1533,-0.3178,-18,-37.31,-4.81,66.26,-89.42,-9.26
52.916435,-1.760474,171.15,19.03,3,3.83,21 / 23,1305013,2019-11-06 12:07:38:894,0.6716,0.1914,8.4102,-0.0173,0.0051,9.8066,0.0066,-0.4603,0.1292,-18,-37.5,-4.31,78.75,-89.53,0.36
52.916435,-1.760474,171.15,19.03,3,3.83,21 / 23,1305112,2019-11-06 12:07:38:993,1.8867,-3.0808,9.9158,-0.0181,0.0114,9.8066,-0.0035,-0.1531,0.1387,-18.12,-37.25,-5.31,78.99,-89.41,3.37
52.916435,-1.760474,171.15,19.03,3,3.83,21 / 23,1305212,2019-11-06 12:07:39:093,-0.1015,3.8209,8.129,0.03,-0.0705,9.8063,0.0264,-0.4931,0.3449,-17.44,-37.5,-5.37,60.13,-89.26,-14.83
52.916435,-1.760474,171.15,19.03,3,3.83,21 / 23,1305312,2019-11-06 12:07:39:193,0.9888,0.5733,10.527,-0.0325,-0.0128,9.8065,0.1299,-0.1236,0.0499,-17.94,-36.87,-5.37,80.67,-88.69,3.63
52.916435,-1.760474,171.15,19.03,3,3.83,21 / 23,1305412,2019-11-06 12:07:39:293,-1.1191,2.5495,8.6035,0.0255,-0.06,9.8064,0.0792,-0.177,0.093,-17.81,-37.19,-5.37,75.82,-88.77,-1.03
52.916435,-1.760474,171.15,19.03,3,3.83,24 / 24,1305512,2019-11-06 12:07:39:393,0.4149,1.2112,10.1362,-0.0342,-0.022,9.8065,0.2044,-0.2109,0.0265,-17.94,-36.44,-4.81,81.08,-88.9,4.5
52.916435,-1.760474,171.15,19.03,3,3.83,24 / 24,1305612,2019-11-06 12:07:39:493,-0.9329,0.7977,9.3923,0.0087,0.0002,9.8066,0.0993,0.03,0.0114,-18.5,-36.75,-5.44,69.27,-88.81,-7.42
52.916435,-1.760474,171.15,19.03,3,3.83,24 / 24,1305712,2019-11-06 12:07:39:593,0.4557,0.0501,10.88,0.0014,-0.0181,9.8066,0.0825,-0.0868,0.0555,-18.56,-37.37,-5.31,51.31,-88.78,-25.74
52.916435,-1.760474,171.15,19.03,3,3.83,24 / 24,1305812,2019-11-06 12:07:39:693,0.7157,-0.7246,10.1862,-0.0033,-0.0087,9.8066,-0.0793,0.1733,0.0136,-17.81,-36.75,-5.19,44.47,-88.71,-31.8
52.916435,-1.760474,171.15,19.03,3,3.83,24 / 24,1305912,2019-11-06 12:07:39:793,-0.0391,-0.6964,8.2462,0.0036,-0.0344,9.8065,-0.0555,0.179,-0.1709,-18.44,-37.25,-5.19,41.81,-88.41,-34.79
52.916435,-1.760474,171.15,19.03,3,3.83,24 / 24,1306012,2019-11-06 12:07:39:893,-0.4439,-0.8726,8.9657,-0.0147,-0.0153,9.8066,0.0311,-0.0224,0.0063,-18.19,-36.94,-5.37,47.32,-88.45,-29.43
52.916435,-1.760474,171.15,19.03,3,3.83,24 / 24,1306112,2019-11-06 12:07:39:993,0.1232,0.5143,10.5943,-0.0162,-0.0409,9.8065,0.1458,0.1403,-0.0291,-18.5,-36.94,-5.62,39.64,-88.55,-33.74
52.916435,-1.760474,171.15,19.03,3,3.83,24 / 24,1306212,2019-11-06 12:07:40:093,-0.3852,2.2056,10.0982,0.0306,-0.054,9.8064,-0.0418,-0.119,0.1038,-18.87,-37.25,-5.12,28.74,-88.38,-47.99
52.916435,-1.760474,171.15,19.03,3,3.83,24 / 24,1306312,2019-11-06 12:07:40:193,-0.6193,-1.6021,11.1859,-0.0305,-0.0303,9.8065,0.1135,-0.1698,0.0075,-19.12,-37.06,-5.81,29.69,-88.21,-44.44
52.916435,-1.760474,171.15,19.03,3,3.83,24 / 24,1306412,2019-11-06 12:07:40:293,-1.4679,0.8525,8.6964,-0.0001,-0.0065,9.8066,0.0572,-0.0242,0.1333,-18.12,-36.81,-5.56,24.02,-88.28,-48.91
52.916435,-1.760474,171.15,19.03,3,3.83,24 / 24,1306512,2019-11-06 12:07:40:393,0.2676,0.0933,10.3255,-0.0152,-0.0122,9.8066,0.1464,-0.1615,-0.0678,-19,-36.56,-5.81,28.97,-88.48,-44.88
52.916435,-1.760474,171.15,19.03,3,3.83,24 / 24,1306611,2019-11-06 12:07:40:492,0.4904,0.2151,10.3115,0.0164,0.012,9.8066,0.0775,-0.0509,0.1155,-19,-37.25,-5.44,32.27,-88.52,-44.49
52.916435,-1.760474,171.15,19.03,3,3.83,24 / 24,1306711,2019-11-06 12:07:40:592,-1.5891,-0.1469,10.1613,0.0159,-0.0211,9.8066,-0.1399,0.1969,-0.0215,-18.81,-36.81,-5.69,29.66,-88.26,-44.43
52.916435,-1.760474,171.15,19.03,3,3.83,24 / 24,1306812,2019-11-06 12:07:40:693,-3.3098,1.4056,10.7053,0.0268,-0.0272,9.8065,0.1031,-0.3627,0.0541,-18.56,-37.19,-5.31,30.17,-88.06,-46.93
52.916435,-1.760474,171.15,19.03,3,3.83,24 / 24,1306912,2019-11-06 12:07:40:793,0.7584,1.0503,10.8135,0.0445,0.0155,9.8065,0.0406,0.2204,-0.0047,-18.25,-36.94,-5.62,15.21,-88.61,-57.07
52.916435,-1.760474,171.15,19.03,3,3.83,24 / 24,1307012,2019-11-06 12:07:40:893,1.0548,3.7445,10.4145,0.0348,-0.0657,9.8063,0.0997,-0.4412,0.1713,-17.5,-37.06,-4.81,14.77,-88.88,-59.44
52.916435,-1.760474,171.15,19.03,3,3.83,24 / 24,1307112,2019-11-06 12:07:40:993,1.1919,-0.8872,9.4354,0.0017,-0.0118,9.8066,0.0022,-0.2534,0.1483,-17.69,-37.12,-5.06,20.67,-89.48,-54.17
52.916435,-1.760474,171.15,19.03,3,3.83,24 / 24,1307212,2019-11-06 12:07:41:093,-0.7689,1.5172,7.2467,-0.0142,-0.0659,9.8063,-0.2769,-0.5287,0.6812,-18,-37,-5.25,16.79,-89.04,-58.24
52.916435,-1.760474,171.15,19.03,3,3.83,24 / 24,1307312,2019-11-06 12:07:41:193,1.4279,-4.7538,11.366,-0.0416,-0.0799,9.8062,0.3215,-0.3223,0.131,-18.81,-36.31,-5.31,17.65,-88.12,-58.66
52.916435,-1.760474,171.15,19.03,3,3.83,24 / 24,1307412,2019-11-06 12:07:41:293,1.0311,-0.5745,9.2396,-0.0119,-0.0663,9.8064,0.167,-0.0084,-0.125,-18.19,-37.12,-5.56,7.19,-88.03,-64.86
52.918076,-1.760277,173.19,21.17,3,1.84,23 / 24,1307513,2019-11-06 12:07:41:394,0.5483,-1.1332,9.5404,-0.0146,0.0325,9.8066,-0.0832,-0.12,0.0855,-18.44,-37.31,-5.5,6.76,-87.94,-68.2
52.918076,-1.760277,173.19,21.17,3,1.84,23 / 24,1307612,2019-11-06 12:07:41:493,-0.0995,-0.4032,11.6652,-0.0394,0.0433,9.8064,0.0101,-0.3059,0.2612,-18.62,-36.44,-5.31,17.13,-87.98,-59.23
52.918076,-1.760277,173.19,21.17,3,1.84,23 / 24,1307712,2019-11-06 12:07:41:593,-0.2706,4.0118,8.2552,-0.0267,0.0335,9.8065,-0.0227,-0.2208,0.2819,-18.87,-36.87,-5.12,20.94,-87.69,-55.89
52.918076,-1.760277,173.19,21.17,3,1.84,23 / 24,1307812,2019-11-06 12:07:41:693,0.3186,-1.747,10.6505,-0.0449,-0.0027,9.8065,-0.0564,0.2856,0.009,-19.25,-36.87,-5.25,17.92,-87.24,-58.96
52.918076,-1.760277,173.19,21.17,3,1.84,23 / 24,1307912,2019-11-06 12:07:41:793,0.6381,1.2502,10.0954,0.0083,-0.0156,9.8066,0.0315,0.0676,-0.2307,-18.19,-36.87,-5,17.26,-87.24,-58.86
52.918076,-1.760277,173.19,21.17,3,1.84,23 / 24,1308012,2019-11-06 12:07:41:893,0.188,-1.4038,9.6067,-0.0107,0.071,9.8064,0.0488,0.2332,-0.2741,-18,-36.56,-5.44,18.1,-87.57,-57.88
52.918076,-1.760277,173.19,21.17,3,1.84,23 / 24,1308112,2019-11-06 12:07:41:993,-0.9916,1.1968,9.7086,-0.0033,0.0421,9.8065,-0.0169,0.2121,-0.0086,-18.06,-37.06,-5.5,14.39,-87.75,-61.2
52.918076,-1.760277,173.19,21.17,3,1.84,23 / 24,1308211,2019-11-06 12:07:42:092,0.5237,-0.8194,10.6589,0.0055,0.0328,9.8065,0.0592,0.1618,-0.2888,-17.87,-36.69,-4.75,12.82,-88.07,-62.51
52.918076,-1.760277,173.19,21.17,3,1.84,23 / 24,1308311,2019-11-06 12:07:42:192,-0.7439,1.2017,9.9744,0.0142,0.0207,9.8066,-0.0274,0.2236,0.107,-18.06,-37,-5.19,4.91,-88.44,-69.83
52.918076,-1.760277,173.19,21.17,3,1.84,23 / 24,1308412,2019-11-06 12:07:42:293,-0.8947,0.559,8.6566,0.0003,-0.0025,9.8066,-0.103,-0.085,-0.1597,-18.31,-36.37,-5.44,4.25,-88.35,-70.46
52.918076,-1.760277,173.19,21.17,3,1.84,22 / 22,1308512,2019-11-06 12:07:42:393,-0.5607,1.2533,8.3423,0.0367,0.0046,9.8065,-0.1038,0.1861,-0.0959,-17.31,-37.56,-5.56,4.83,-88.51,-65.99
52.918076,-1.760277,173.19,21.17,3,1.84,22 / 22,1308612,2019-11-06 12:07:42:493,0.1788,0.9972,10.0271,-0.0039,0.0221,9.8066,-0.0743,0.1465,0.1974,-17.44,-37.31,-5.56,359.92,-88.56,-70.64
52.918076,-1.760277,173.19,21.17,3,1.84,22 / 22,1308712,2019-11-06 12:07:42:593,3.205,0.8475,9.6484,0.0294,-0.0726,9.8063,-0.1308,0.3915,-0.3414,-17.87,-36.69,-5.81,358.64,-88.31,-72.85
52.918076,-1.760277,173.19,21.17,3,1.84,22 / 22,1308812,2019-11-06 12:07:42:693,-0.3172,-3.4405,11.7448,0.0157,-0.008,9.8065,0.0973,0.3008,-0.2489,-18.12,-37,-5.81,2.68,-88.43,-69.03
52.918076,-1.760277,173.19,21.17,3,1.84,22 / 22,1308912,2019-11-06 12:07:42:793,-0.2711,2.4664,11.8804,0.0594,-0.0534,9.8063,-0.0302,0.4646,-0.182,-18,-37.12,-5.31,347,-87.83,-86.5
52.918076,-1.760277,173.19,21.17,3,1.84,22 / 22,1309012,2019-11-06 12:07:42:893,1.6767,2.5626,10.4101,0.038,0.0155,9.8065,-0.097,0.1116,-0.0393,-18.37,-36.44,-5.31,342.84,-87.94,-90.46
52.918076,-1.760277,173.19,21.17,3,1.84,22 / 22,1309112,2019-11-06 12:07:42:993,1.7973,4.8593,9.2731,-0.0002,-0.0447,9.8065,0.0305,0.4474,-0.2659,-18.44,-37.06,-5.19,344.14,-88.17,-89.34
52.918076,-1.760277,173.19,21.17,3,1.84,22 / 22,1309212,2019-11-06 12:07:43:093,0.8103,2.4708,8.1011,0.0252,-0.0074,9.8065,-0.1044,0.4711,-0.2021,-17.69,-36.81,-4.62,345.65,-88.21,-87.94
52.918076,-1.760277,173.19,21.17,3,1.84,22 / 22,1309312,2019-11-06 12:07:43:193,3.0572,-1.9789,9.362,0.0414,-0.0543,9.8063,-0.0392,0.2592,-0.1931,-16.87,-37.06,-4.62,342.92,-88.07,-89.5
52.918076,-1.760277,173.19,21.17,3,1.84,22 / 22,1309412,2019-11-06 12:07:43:293,-0.9373,2.7975,9.2484,0.0102,-0.0929,9.8061,0.1623,-0.4598,0.1691,-17.94,-36.69,-5.25,350.01,-87.87,-83.73
52.918076,-1.760277,173.19,21.17,3,1.84,23 / 23,1309512,2019-11-06 12:07:43:393,5.1733,2.7794,9.785,0.0267,0.0279,9.8065,0.1074,-0.1118,-0.1107,-17.56,-37.62,-4.69,343.31,-88.01,-90
52.918076,-1.760277,173.19,21.17,3,1.84,23 / 23,1309612,2019-11-06 12:07:43:493,-0.3121,2.8049,10.6112,0.0057,0.0097,9.8066,-0.0192,-0.3697,0.271,-17.75,-37.25,-5,336.09,-88.1,-96.84
52.918076,-1.760277,173.19,21.17,3,1.84,23 / 23,1309712,2019-11-06 12:07:43:593,1.5867,-2.0587,10.9905,-0.038,0.0635,9.8064,0.0178,-0.3803,0.237,-17.25,-37.06,-5.12,329.8,-88.21,-101.92
52.918076,-1.760277,173.19,21.17,3,1.84,23 / 23,1309812,2019-11-06 12:07:43:693,-0.2996,5.1714,9.2047,-0.0053,-0.0138,9.8065,0.1434,-0.3007,0.1258,-17.25,-37.56,-4.75,328.38,-88.64,-103.7
52.918076,-1.760277,173.19,21.17,3,1.84,23 / 23,1309912,2019-11-06 12:07:43:793,0.4078,2.8153,9.9997,-0.0486,0.076,9.8062,0.0907,-0.0505,0.0446,-16.12,-37.06,-5.06,284.73,-89.36,-146.56
52.918076,-1.760277,173.19,21.17,3,1.84,23 / 23,1310011,2019-11-06 12:07:43:892,-0.6042,3.3414,8.8276,-0.0006,0.0172,9.8066,0.047,-0.042,0.0158,-16.06,-37.56,-5,258.78,-89.44,-172.61
52.918076,-1.760277,173.19,21.17,3,1.84,23 / 23,1310111,2019-11-06 12:07:43:992,-0.4292,1.8039,10.8599,-0.0068,-0.0053,9.8066,0.0465,0.0644,0.0738,-15.87,-37.37,-4.56,252.72,-89.55,-178.97
52.918076,-1.760277,173.19,21.17,3,1.84,23 / 23,1310212,2019-11-06 12:07:44:093,0.2302,2.1351,9.6419,0.0318,-0.0129,9.8066,0.0157,0.0829,0.0367,-16.19,-37,-5,280.69,-89.45,-150.77
52.918076,-1.760277,173.19,21.17,3,1.84,23 / 23,1310312,2019-11-06 12:07:44:193,2.2556,2.347,10.58,-0.0025,0.0226,9.8066,0.0048,-0.0202,0.0884,-15.69,-37.06,-4.81,296.6,-89.28,-134.64
52.918076,-1.760277,173.19,21.17,3,1.84,23 / 23,1310412,2019-11-06 12:07:44:293,-0.31,1.779,9.8851,-0.0149,0.0145,9.8065,0.0212,-0.049,0.0345,-15.31,-37.37,-5.25,290.15,-89.24,-139.74
52.918076,-1.760277,173.19,21.17,3,1.84,22 / 22,1310512,2019-11-06 12:07:44:393,-1.493,4.5348,9.2831,-0.0147,0.0156,9.8066,-0.0276,0.3632,-0.0816,-15.56,-37.56,-5.06,288.93,-89.42,-142.46
52.918076,-1.760277,173.19,21.17,3,1.84,22 / 22,1310612,2019-11-06 12:07:44:493,1.3711,1.1219,9.8707,-0.012,0.0126,9.8066,-0.0318,0.1609,-0.2475,-15.62,-37.19,-5,285.45,-89.46,-146.04
52.918076,-1.760277,173.19,21.17,3,1.84,22 / 22,1310712,2019-11-06 12:07:44:593,2.4977,1.871,10.3943,-0.0307,0.0216,9.8065,0.1441,0.0097,0.0488,-15.25,-36.87,-5.12,264.12,-89.47,-166.21
52.918076,-1.760277,173.19,21.17,3,1.84,22 / 22,1310812,2019-11-06 12:07:44:693,-0.0982,0.6761,9.5521,0.0024,0.034,9.8065,-0.1347,-0.1687,0.1756,-14.31,-36.87,-5.06,255.37,-89.39,-173.51
52.918076,-1.760277,173.19,21.17,3,1.84,22 / 22,1310912,2019-11-06 12:07:44:793,1.7817,5.628,10.5799,0.053,-0.0403,9.8064,-0.2416,0.2591,-0.1651,-14.44,-37.19,-5.25,267.82,-89.52,-161.32
52.918076,-1.760277,173.19,21.17,3,1.84,22 / 22,1311012,2019-11-06 12:07:44:893,6.021,2.6714,9.7344,-0.0399,0.0793,9.8062,-0.392,0.442,-0.4036,-15,-37.37,-5.56,284.47,-89.54,-142.72
52.918076,-1.760277,173.19,21.17,3,1.84,22 / 22,1311112,2019-11-06 12:07:44:993,-2.0775,0.7549,9.9148,-0.002,-0.0359,9.8065,-0.065,0.4392,0.0581,-15.44,-37.19,-5.25,347.99,-88.6,-82.89
52.918076,-1.760277,173.19,21.17,3,1.84,22 / 22,1311212,2019-11-06 12:07:45:093,-1.1447,0.1897,10.074,0.0066,-0.0389,9.8065,-0.0538,0.1006,-0.0171,-14.94,-36.37,-5.56,349.42,-88.38,-78.11
52.918076,-1.760277,173.19,21.17,3,1.84,22 / 22,1311312,2019-11-06 12:07:45:193,-0.3911,1.9845,10.2481,0.0443,-0.0468,9.8064,-0.0531,0.2933,-0.1851,-15.56,-37.06,-5.44,351.62,-88.31,-80.47
52.918076,-1.760277,173.19,21.17,3,1.84,22 / 22,1311412,2019-11-06 12:07:45:293,-0.655,-0.1043,9.8152,-0.0016,-0.0125,9.8066,-0.0028,-0.0715,-0.0438,-14.87,-37.37,-4.62,353.49,-88.58,-77.7
52.918076,-1.760277,173.19,21.17,3,1.84,23 / 23,1311512,2019-11-06 12:07:45:393,-0.7241,-0.9794,10.7604,-0.0028,-0.0141,9.8066,0.077,0.0748,-0.0173,-15.31,-37.87,-5.5,352.63,-88.74,-78.54
52.918076,-1.760277,173.19,21.17,3,1.84,23 / 23,1311612,2019-11-06 12:07:45:493,-1.4159,1.0946,9.6328,0.024,-0.0095,9.8066,0.0881,-0.1668,0.0782,-15.62,-36.81,-4.81,351.35,-88.67,-80.85
52.918076,-1.760277,173.19,21.17,3,1.84,23 / 23,1311712,2019-11-06 12:07:45:593,-1.9886,-1.0622,10.3591,0.0316,-0.0128,9.8066,0.0167,0.0238,-0.0021,-15.19,-37.06,-5.06,343.73,-88.72,-86.99
52.918076,-1.760277,173.19,21.17,3,1.84,23 / 23,1311812,2019-11-06 12:07:45:693,-2.0284,3.9111,10.1077,0.0221,-0.0405,9.8065,-0.0166,-0.3388,0.2643,-15.44,-37,-4.94,337.89,-88.7,-92.53
52.918076,-1.760277,173.19,21.17,3,1.84,23 / 23,1311912,2019-11-06 12:07:45:793,-0.7685,-0.1308,9.4177,-0.0239,0.022,9.8065,0.0935,-0.4157,0.222,-15.75,-37.25,-5.12,332.79,-88.76,-98.6
52.918076,-1.760277,173.19,21.17,3,1.84,23 / 23,1312012,2019-11-06 12:07:45:893,-2.2312,1.4383,9.9885,-0.0077,0.0134,9.8066,-0.0124,0.1851,-0.1231,-15.5,-37.5,-5,325.71,-88.65,-104.07
52.918076,-1.760277,173.19,21.17,3,1.84,23 / 23,1312112,2019-11-06 12:07:45:993,-1.3349,0.435,9.9226,0.0026,0.0326,9.8065,0.0057,-0.0894,0.073,-15.25,-37.5,-4.94,322.02,-88.55,-107.44
52.918076,-1.760277,173.19,21.17,3,1.84,23 / 23,1312212,2019-11-06 12:07:46:093,0.0827,-1.7866,9.5043,-0.0079,0.025,9.8066,0.0117,0.1169,-0.1355,-15.56,-37.25,-4.19,318.21,-88.65,-115.73
52.918076,-1.760277,173.19,21.17,3,1.84,23 / 23,1312313,2019-11-06 12:07:46:194,0.0456,-0.2092,9.8102,-0.009,0.0212,9.8065,-0.0086,-0.017,0.0676,-14.87,-37.44,-4.25,317.46,-88.67,-115.45
52.918076,-1.760277,173.19,21.17,3,1.84,23 / 23,1312413,2019-11-06 12:07:46:294,-0.8462,-1.8038,9.8763,-0.0141,0.0049,9.8065,0.0033,-0.1963,-0.0043,-15.12,-36.94,-4.5,318.8,-88.69,-114.21
52.918076,-1.760277,173.19,21.17,3,1.84,22 / 23,1312513,2019-11-06 12:07:46:394,-2.2862,1.3472,9.8943,0.0008,-0.0028,9.8066,-0.0744,0.3435,-0.2569,-14.44,-36.56,-5,315.37,-89.14,-113.47
52.918076,-1.760277,173.19,21.17,3,1.84,22 / 23,1312612,2019-11-06 12:07:46:493,-2.4577,-2.0138,10.7282,-0.0234,0.029,9.8065,0.0647,0.1397,-0.0862,-14.94,-37.56,-4.81,317.68,-89.48,-113.05
52.918076,-1.760277,173.19,21.17,3,1.84,22 / 23,1312712,2019-11-06 12:07:46:593,-2.4135,0.6083,10.0444,0.0283,-0.0241,9.8065,-0.0316,0.3452,-0.0485,-14.81,-37.06,-4.94,314.11,-89.27,-116.23
52.918076,-1.760277,173.19,21.17,3,1.84,22 / 23,1312813,2019-11-06 12:07:46:694,-2.2602,1.0188,8.7787,0.021,-0.0093,9.8066,0.0768,0.0387,-0.1766,-15.06,-37.56,-5.19,305.24,-89.26,-124.87
52.918076,-1.760277,173.19,21.17,3,1.84,22 / 23,1312912,2019-11-06 12:07:46:793,-2.9826,-0.4682,9.2371,-0.0124,-0.0339,9.8065,0.0003,0.0947,0.0586,-14.81,-36.94,-5.25,321.06,-89.22,-109.36
52.918076,-1.760277,173.19,21.17,3,1.84,22 / 23,1313014,2019-11-06 12:07:46:895,-1.8875,-0.7985,9.0126,0.0069,-0.0101,9.8065,0.1915,-0.1241,0.0596,-15,-37.06,-5,318.97,-89.05,-111.12
52.918076,-1.760277,173.19,21.17,3,1.84,22 / 23,1313112,2019-11-06 12:07:46:993,-3.6713,0.9944,11.777,0.0551,-0.0121,9.8064,-0.045,0.705,-0.3447,-14.5,-37.19,-4.37,309.1,-89.24,-123.45
52.918076,-1.760277,173.19,21.17,3,1.84,22 / 23,1313212,2019-11-06 12:07:47:093,-7.5455,8.3616,7.7524,0.0865,-0.0791,9.8059,0.1884,-0.4276,0.3468,-14.75,-37.44,-4.94,296.88,-88.95,-132.49
52.918076,-1.760277,173.19,21.17,3,1.84,22 / 23,1313312,2019-11-06 12:07:47:193,-6.1596,4.7341,8.8561,0.0866,-0.1418,9.8052,-0.1657,0.7072,-0.4793,-14.87,-37,-5,314.15,-88.63,-115.1
52.918076,-1.760277,173.19,21.17,3,1.84,22 / 23,1313412,2019-11-06 12:07:47:293,-5.1552,2.9202,8.779,0.0405,-0.0854,9.8062,0.0545,-0.5977,0.3664,-15,-37.31,-5,316.2,-88.78,-113.39
52.918076,-1.760277,173.19,21.17,3,1.84,24 / 24,1313513,2019-11-06 12:07:47:394,-0.3021,-6.7232,10.311,0.0232,-0.0449,9.8065,0.0272,0.1588,-0.049,-14.44,-37.25,-4.56,314.66,-88.75,-113.46
52.918076,-1.760277,173.19,21.17,3,1.84,24 / 24,1313616,2019-11-06 12:07:47:497,-2.7098,4.2436,9.8643,0.0562,-0.0862,9.8061,-0.0454,0.6491,-0.4601,-14,-37.69,-4.12,311.84,-88.8,-119.89
52.918076,-1.760277,173.19,21.17,3,1.84,24 / 24,1313712,2019-11-06 12:07:47:593,-1.0084,-4.517,9.5981,0.0015,-0.0319,9.8065,0.0478,-0.0491,-0.0225,-14.25,-36.87,-4.5,295.01,-89.11,-137
52.918076,-1.760277,173.19,21.17,3,1.84,24 / 24,1313812,2019-11-06 12:07:47:693,-2.7351,0.7653,9.9549,0.0331,-0.0685,9.8064,0.0922,-0.2574,0.1666,-14.06,-37.12,-4.81,298.21,-88.92,-129.76
52.918076,-1.760277,173.19,21.17,3,1.84,24 / 24,1313912,2019-11-06 12:07:47:793,-1.0456,-1.6217,10.3339,0.0136,0.0079,9.8066,-0.0764,0.0018,0.128,-13.94,-37.56,-4.44,294.5,-89.03,-137.25
52.918076,-1.760277,173.19,21.17,3,1.84,24 / 24,1314012,2019-11-06 12:07:47:893,-1.6307,-0.6615,9.7344,0.0212,-0.0225,9.8065,0.0678,-0.0342,0.0155,-14.44,-37.31,-4.12,300.06,-88.91,-131.6
52.918076,-1.760277,173.19,21.17,3,1.84,24 / 24,1314112,2019-11-06 12:07:47:993,0.6334,-1.0339,8.5939,0.0304,0.0145,9.8065,-0.007,-0.0576,-0.0073,-14.06,-36.44,-4.75,283.33,-88.61,-143.73
52.918076,-1.760277,173.19,21.17,3,1.84,24 / 24,1314212,2019-11-06 12:07:48:093,0.6407,-1.3371,10.4381,-0.008,0.0555,9.8065,-0.1053,0.0995,-0.0973,-13.56,-36.62,-4.62,274.12,-88.75,-153.11
52.918076,-1.760277,173.19,21.17,3,1.84,24 / 24,1314312,2019-11-06 12:07:48:193,-2.0736,2.6392,8.8899,-0.0234,0.039,9.8065,-0.016,-0.232,0.228,-14.19,-36.44,-4.69,277.89,-88.67,-149.25
52.918076,-1.760277,173.19,21.17,3,1.84,24 / 24,1314412,2019-11-06 12:07:48:293,-2.2183,-0.1216,9.7284,-0.011,-0.0085,9.8066,0.0785,-0.0524,0.0202,-13.69,-37.12,-5.12,281.68,-88.62,-145.31
52.918076,-1.760277,173.19,21.17,3,1.84,23 / 24,1314512,2019-11-06 12:07:48:393,0.1345,-0.4052,9.3992,0.0059,0.0071,9.8066,-0.0456,-0.1324,0.084,-13.69,-37.12,-4.69,282.82,-88.47,-143.8
52.918076,-1.760277,173.19,21.17,3,1.84,23 / 24,1314613,2019-11-06 12:07:48:494,0.3305,1.2127,10.4468,-0.0121,-0.009,9.8066,-0.1259,0.053,0.0419,-13.44,-37.12,-4.19,290.24,-88.49,-138.8
52.918076,-1.760277,173.19,21.17,3,1.84,23 / 24,1314711,2019-11-06 12:07:48:592,-0.6816,-1.2107,9.84,-0.0158,0.0055,9.8065,0.1083,0.0574,-0.0681,-13.75,-37.37,-4.19,283.32,-88.5,-147.01
52.918076,-1.760277,173.19,21.17,3,1.84,23 / 24,1314812,2019-11-06 12:07:48:693,-0.7556,0.2437,10.5137,0.0107,0.0138,9.8066,-0.0548,0.0071,-0.0272,-13.81,-37,-4.31,268.9,-88.61,-161.63
52.918076,-1.760277,173.19,21.17,3,1.84,23 / 24,1314912,2019-11-06 12:07:48:793,-0.524,1.3411,9.5721,0.0149,0.0076,9.8066,-0.0243,0.1581,-0.0102,-13.31,-36.62,-4.37,259.94,-88.51,-168.96
52.918076,-1.760277,173.19,21.17,3,1.84,23 / 24,1315012,2019-11-06 12:07:48:893,-0.5194,0.0783,10.7575,0.0098,-0.0237,9.8066,-0.0547,0.0918,0.0556,-13.37,-36.62,-3.87,265.63,-88.41,-162.94
52.918076,-1.760277,173.19,21.17,3,1.84,23 / 24,1315112,2019-11-06 12:07:48:993,-1.0592,0.7761,10.1795,-0.0002,-0.046,9.8065,0.0612,0.1558,-0.1088,-13.44,-37.12,-4.25,274.58,-88.26,-153.61
52.918076,-1.760277,173.19,21.17,3,1.84,23 / 24,1315211,2019-11-06 12:07:49:092,-0.2648,-0.5826,9.1195,0.0103,-0.0055,9.8066,0.0909,-0.0992,0.0141,-14.06,-36.87,-4,271.73,-88.19,-157.73
52.918076,-1.760277,173.19,21.17,3,1.84,23 / 24,1315312,2019-11-06 12:07:49:193,-0.1453,-3.2444,10.2991,0.0177,-0.0143,9.8066,-0.0132,0.164,-0.0729,-13.69,-37.12,-4.5,268.56,-88.28,-161.13
52.918076,-1.760277,173.19,21.17,3,1.84,23 / 24,1315412,2019-11-06 12:07:49:293,-1.3889,-2.0176,10.2308,0.0216,-0.021,9.8065,0.073,-0.208,0.1348,-13.37,-37.62,-4.19,263.76,-88.18,-164.06
52.918076,-1.760277,173.19,21.17,3,1.84,23 / 23,1315512,2019-11-06 12:07:49:393,-0.2982,-1.6746,10.2492,0.0269,-0.0253,9.8066,-0.026,0.0315,-0.1956,-13.31,-37.06,-4.19,254.35,-87.96,-173.2
52.918076,-1.760277,173.19,21.17,3,1.84,23 / 23,1315612,2019-11-06 12:07:49:493,0.6032,2.0936,11.2471,-0.0138,-0.0102,9.8065,-0.1801,-0.2616,0.131,-12.5,-37.06,-3.94,244.84,-87.97,178.65
52.918076,-1.760277,173.19,21.17,3,1.84,23 / 23,1315712,2019-11-06 12:07:49:593,-0.0348,-3.2681,8.0591,-0.0385,-0.0069,9.8065,0.1722,-0.2267,0.0824,-12.94,-37.37,-4.37,245.89,-88,177.96
52.918076,-1.760277,173.19,21.17,3,1.84,23 / 23,1315812,2019-11-06 12:07:49:693,-1.217,0.5209,7.6402,-0.01,-0.073,9.8063,0.0653,-0.3971,0.1863,-12.62,-37.25,-4.81,242.78,-87.96,178.62
52.918076,-1.760277,173.19,21.17,3,1.84,23 / 23,1315912,2019-11-06 12:07:49:793,0.8329,-2.9675,10.8433,-0.0178,0.014,9.8065,0.043,-0.213,0.0886,-12.5,-37.5,-4.31,236.66,-88,169.98
52.918076,-1.760277,173.19,21.17,3,1.84,23 / 23,1316012,2019-11-06 12:07:49:893,-2.9046,0.472,10.3242,0.0723,-0.006,9.8063,0.0775,-0.3106,0.1802,-12.75,-36.87,-4.37,236.85,-87.72,169.14
52.918076,-1.760277,173.19,21.17,3,1.84,23 / 23,1316112,2019-11-06 12:07:49:993,-0.8322,-2.805,10.8312,-0.0133,0.0681,9.8063,0.1551,-0.3612,0.0926,-12.37,-37.25,-4.06,221.88,-87.17,155.82
52.918076,-1.760277,173.19,21.17,3,1.84,23 / 23,1316212,2019-11-06 12:07:50:093,1.0691,3.9348,10.1392,0.01,0.0249,9.8066,0.0623,0.0092,0.0382,-12.37,-36.62,-3.31,225.8,-86.9,156.45
52.918076,-1.760277,173.19,21.17,3,1.84,23 / 23,1316312,2019-11-06 12:07:50:193,-2.3702,2.7939,9.6138,-0.0414,0.0581,9.8063,0.0865,-0.5197,0.3394,-12.25,-36.5,-2.94,223.67,-86.57,154.56
52.918076,-1.760277,173.19,21.17,3,1.84,23 / 23,1316412,2019-11-06 12:07:50:293,-1.3141,3.4944,9.6279,-0.0252,0.0059,9.8065,-0.0978,0.1796,-0.069,-12.5,-37.56,-3.87,222.42,-86.64,157.64
52.919834,-1.76062,173.96,19.89,3,344.87,23 / 23,1316512,2019-11-06 12:07:50:393,-0.1726,1.566,8.5754,-0.033,0.0539,9.8064,0.0495,-0.2469,0.2,-12.19,-36.87,-4.12,226.81,-86.62,162.42
52.919834,-1.76062,173.96,19.89,3,344.87,23 / 23,1316612,2019-11-06 12:07:50:493,1.0534,-3.6885,10.2499,-0.0463,0.0333,9.8065,-0.094,0.557,-0.2894,-12.19,-36.94,-3.94,221.11,-86.46,156.32
52.919834,-1.76062,173.96,19.89,3,344.87,23 / 23,1316711,2019-11-06 12:07:50:592,-1.6908,1.7401,8.7902,0.0067,0.0145,9.8066,-0.1218,0.2062,-0.035,-11.56,-36.75,-3.56,222.44,-86.41,157.93
52.919834,-1.76062,173.96,19.89,3,344.87,23 / 23,1316812,2019-11-06 12:07:50:693,1.2768,-3.5495,11.395,-0.0432,0.0223,9.8064,-0.1637,0.4236,-0.1087,-12,-37.75,-3.31,225.42,-86.51,157.06
52.919834,-1.76062,173.96,19.89,3,344.87,23 / 23,1316912,2019-11-06 12:07:50:793,1.3721,-1.026,9.4594,0.0236,-0.0688,9.8064,-0.0075,0.5367,-0.32,-12.12,-37.19,-4,221.13,-86.38,156.5
52.919834,-1.76062,173.96,19.89,3,344.87,23 / 23,1317012,2019-11-06 12:07:50:893,2.0697,-2.1008,10.0778,-0.0048,-0.0177,9.8066,0.0031,-0.0903,0.0854,-11.94,-37.44,-3.87,224.2,-86.6,159.55
52.919834,-1.76062,173.96,19.89,3,344.87,23 / 23,1317112,2019-11-06 12:07:50:993,-2.8228,4.8168,10.7207,0.012,-0.0547,9.8064,0.0785,0.6581,-0.378,-11.62,-37.81,-3.19,231.47,-86.9,162.94
52.919834,-1.76062,173.96,19.89,3,344.87,23 / 23,1317212,2019-11-06 12:07:51:093,2.4095,-2.4657,9.3201,-0.0014,-0.0634,9.8063,-0.0182,0.5025,-0.2401,-11.44,-37.06,-3.5,225.83,-86.59,159
52.919834,-1.76062,173.96,19.89,3,344.87,23 / 23,1317312,2019-11-06 12:07:51:193,-1.0517,-1.4617,9.2689,0.0259,-0.155,9.8053,0.105,0.9708,-0.7701,-11.56,-37.69,-4.06,226.07,-86.55,161.95
52.919834,-1.76062,173.96,19.89,3,344.87,23 / 23,1317412,2019-11-06 12:07:51:293,4.1011,-8.1551,10.2851,-0.0041,0.0383,9.8065,-0.0077,0.4149,-0.1758,-11.87,-37.31,-3.94,219.21,-86.26,154.52
52.919834,-1.76062,173.96,19.89,3,344.87,23 / 23,1317512,2019-11-06 12:07:51:393,0.7853,-4.3223,10.3455,0.104,-0.1374,9.8051,0.069,-0.4313,0.4565,-11.37,-37.12,-4.31,228.23,-86.53,166.36
52.919834,-1.76062,173.96,19.89,3,344.87,23 / 23,1317612,2019-11-06 12:07:51:493,-1.9951,4.0424,10.5573,0.0446,-0.077,9.8062,0.0441,-0.7423,0.572,-12.19,-37.19,-3.87,226.16,-86.61,161.73
52.919834,-1.76062,173.96,19.89,3,344.87,23 / 23,1317712,2019-11-06 12:07:51:593,-0.7625,7.5749,10.9881,0.0531,-0.187,9.8047,-0.0137,-0.8358,0.6555,-12.37,-37.56,-3.25,225.91,-86.66,157.29
52.919834,-1.76062,173.96,19.89,3,344.87,23 / 23,1317812,2019-11-06 12:07:51:693,-0.8023,-0.4257,9.1606,0.0101,-0.072,9.8063,0.1402,-0.8698,0.58,-12.75,-37.87,-3.44,242.07,-87.15,172.22
52.919834,-1.76062,173.96,19.89,3,344.87,23 / 23,1317912,2019-11-06 12:07:51:793,3.3852,-5.7719,10.2894,0.0491,-0.0808,9.8061,0.0665,-0.8445,0.4669,-12.06,-36.94,-4.25,240.99,-87.41,176.04
52.919834,-1.76062,173.96,19.89,3,344.87,23 / 23,1318012,2019-11-06 12:07:51:893,0.7109,0.64,10.008,0.0759,-0.094,9.8058,0.063,-0.7379,0.2766,-11.44,-37.62,-4.25,239.24,-87.51,176.16
52.919834,-1.76062,173.96,19.89,3,344.87,23 / 23,1318112,2019-11-06 12:07:51:993,3.6023,-9.511,10.4922,0.0355,-0.0308,9.8065,0.1131,-0.8228,0.5145,-11.62,-37.06,-3.62,239.84,-87.45,174.72
52.919834,-1.76062,173.96,19.89,3,344.87,23 / 23,1318212,2019-11-06 12:07:52:093,-4.6356,8.984,10.685,0.0974,-0.157,9.8049,0.1135,0.0401,-0.0844,-11.25,-37.69,-3.56,243.52,-87.25,-178.5
52.919834,-1.76062,173.96,19.89,3,344.87,23 / 23,1318312,2019-11-06 12:07:52:193,3.0578,-6.929,10.4947,-0.0143,0.0532,9.8065,0.0225,0.0228,-0.0967,-12.25,-37.31,-3.31,246.55,-87.37,177.79
52.919834,-1.76062,173.96,19.89,3,344.87,23 / 23,1318412,2019-11-06 12:07:52:293,-4.9717,5.8414,9.2607,0.0468,-0.0866,9.8061,-0.1036,0.772,-0.2948,-11.56,-37,-3.94,239.58,-87.36,174.67
52.919834,-1.76062,173.96,19.89,3,344.87,23 / 24,1318512,2019-11-06 12:07:52:393,3.0567,-5.2851,9.518,-0.0437,0.1256,9.8057,-0.0594,0.9466,-0.5709,-11.87,-37.69,-2.69,225.62,-87.1,156
52.919834,-1.76062,173.96,19.89,3,344.87,23 / 24,1318611,2019-11-06 12:07:52:492,0.8063,0.1344,11.5942,-0.0036,-0.0065,9.8066,-0.0687,0.9102,-0.6156,-11,-37.5,-3.44,234.77,-87.35,167.05
52.919834,-1.76062,173.96,19.89,3,344.87,23 / 24,1318712,2019-11-06 12:07:52:593,2.9525,-5.3025,12.3456,-0.0803,0.0317,9.8062,-0.2649,0.8036,-0.3968,-11.81,-37,-2.37,241.01,-87.54,167
52.919834,-1.76062,173.96,19.89,3,344.87,23 / 24,1318812,2019-11-06 12:07:52:693,-4.7691,2.6491,8.4159,-0.0512,-0.0623,9.8062,-0.367,0.6247,-0.316,-11.62,-37.69,-3.5,247.24,-87.65,177.93
52.919834,-1.76062,173.96,19.89,3,344.87,23 / 24,1318912,2019-11-06 12:07:52:793,-0.2012,2.209,9.3635,-0.075,0.0699,9.806,-0.1658,0.7275,-0.3817,-11.87,-37.31,-2.81,251.1,-87.72,-178.41
52.919834,-1.76062,173.96,19.89,3,344.87,23 / 24,1319012,2019-11-06 12:07:52:893,-2.098,5.2033,10.0542,-0.0249,0.0159,9.8066,-0.0596,0.6808,-0.4903,-11.56,-37.37,-4.25,237.25,-87.99,170.61
52.919834,-1.76062,173.96,19.89,3,344.87,23 / 24,1319112,2019-11-06 12:07:52:993,1.7605,-3.9607,9.6557,-0.0448,0.0814,9.8061,0.079,0.4225,-0.581,-12.06,-37.87,-3.5,231.05,-88.11,159.6
52.919834,-1.76062,173.96,19.89,3,344.87,23 / 24,1319212,2019-11-06 12:07:53:093,-1.1217,-1.3947,10.4468,0.007,-0.0205,9.8066,-0.0831,0.3618,-0.1681,-11.62,-37.19,-4.31,233.84,-88.01,166.97
52.919834,-1.76062,173.96,19.89,3,344.87,23 / 24,1319312,2019-11-06 12:07:53:193,1.5235,-3.4956,10.8752,-0.0069,0.0514,9.8065,0.0303,0.3023,-0.1049,-12.56,-37.12,-3.81,228.54,-87.59,160.53
52.919834,-1.76062,173.96,19.89,3,344.87,23 / 24,1319412,2019-11-06 12:07:53:293,0.0821,-0.0042,10.3822,-0.0267,0.0212,9.8066,0.0311,0.0304,-0.1296,-11.87,-37.06,-3.06,232.74,-87.55,162.58
52.919834,-1.76062,173.96,19.89,3,344.87,22 / 24,1319513,2019-11-06 12:07:53:394,-0.0323,0.5299,10.1603,-0.0131,0.0029,9.8066,-0.0062,-0.1306,-0.0653,-11.69,-37.81,-3.37,235.18,-87.43,165.7
52.919834,-1.76062,173.96,19.89,3,344.87,22 / 24,1319612,2019-11-06 12:07:53:493,0.1612,-1.2086,10.3393,0.0128,0.0097,9.8066,0.0192,-0.0203,0.0395,-11.81,-37.5,-3.62,227.9,-87.39,161.98
52.919834,-1.76062,173.96,19.89,3,344.87,22 / 24,1319712,2019-11-06 12:07:53:593,-0.2211,1.6048,9.7775,0.0072,0.0113,9.8066,-0.0501,0.1168,-0.0898,-11.81,-36.94,-3.25,232.12,-87.53,161.97
52.919834,-1.76062,173.96,19.89,3,344.87,22 / 24,1319812,2019-11-06 12:07:53:693,-3.5703,2.2049,8.0378,0.0587,-0.0478,9.8063,-0.1499,0.4704,-0.2402,-11.62,-37.06,-3.37,235.16,-87.5,165.32
52.919834,-1.76062,173.96,19.89,3,344.87,22 / 24,1319912,2019-11-06 12:07:53:793,1.9153,-1.2516,9.7801,-0.0523,-0.0215,9.8064,-0.2081,0.4464,-0.2166,-11.87,-37,-3.37,226.7,-87.92,155.26
52.919834,-1.76062,173.96,19.89,3,344.87,22 / 24,1320012,2019-11-06 12:07:53:893,-0.9432,0.2313,8.1796,0.0189,-0.0377,9.8065,-0.1663,0.3113,-0.2675,-11.69,-37.12,-3.56,226.4,-87.98,159.09
52.919834,-1.76062,173.96,19.89,3,344.87,22 / 24,1320112,2019-11-06 12:07:53:993,0.389,-0.4362,10.8655,-0.0248,-0.0029,9.8066,0.0211,-0.0532,0.1311,-11.12,-38,-3.5,225.38,-88.01,155.35
52.919834,-1.76062,173.96,19.89,3,344.87,22 / 24,1320212,2019-11-06 12:07:54:093,0.2491,-3.0993,9.4195,-0.0018,0.0592,9.8064,-0.0785,-0.0548,0.224,-11.25,-37.19,-3.25,219.92,-87.8,149.74
52.919834,-1.76062,173.96,19.89,3,344.87,22 / 24,1320312,2019-11-06 12:07:54:193,1.2339,-5.5896,9.4082,-0.0351,0.1165,9.8058,-0.0623,-0.3551,0.2413,-11.5,-37.94,-2.69,213.88,-87.49,143.77
52.919834,-1.76062,173.96,19.89,3,344.87,22 / 24,1320412,2019-11-06 12:07:54:293,0.0904,-1.6841,9.9748,-0.0147,0.0743,9.8063,0.0051,-0.5253,0.3639,-11.37,-37.87,-3,217.45,-87.58,147.59
52.919834,-1.76062,173.96,19.89,3,344.87,22 / 23,1320512,2019-11-06 12:07:54:393,-1.0903,4.7463,9.7639,-0.0418,0.0534,9.8064,0.0911,-0.6011,0.3643,-11.06,-37.19,-3.12,215.76,-87.67,145.41
52.919834,-1.76062,173.96,19.89,3,344.87,22 / 23,1320611,2019-11-06 12:07:54:492,3.5266,-4.2518,9.8065,-0.0368,0.0699,9.8063,0.0566,-0.7121,0.3124,-11.69,-37.94,-2.69,218.78,-87.67,147.29
52.919834,-1.76062,173.96,19.89,3,344.87,22 / 23,1320712,2019-11-06 12:07:54:593,-0.1266,0.1457,8.9064,-0.0094,0.0222,9.8066,-0.0507,-0.3806,0.3485,-10.94,-36.94,-2.94,220.09,-87.92,149.69
52.919834,-1.76062,173.96,19.89,3,344.87,22 / 23,1320812,2019-11-06 12:07:54:693,0.9272,-1.7443,10.5887,-0.009,0.0539,9.8065,-0.1494,-0.0917,0.1874,-11.31,-37.75,-3.31,215.94,-88.06,144.97
52.919834,-1.76062,173.96,19.89,3,344.87,22 / 23,1320912,2019-11-06 12:07:54:793,1.1054,0.2008,9.4095,0.0282,0.0294,9.8065,-0.0365,-0.0778,-0.0204,-11.81,-37.19,-2.75,220.61,-87.92,148.68
52.919834,-1.76062,173.96,19.89,3,344.87,22 / 23,1321012,2019-11-06 12:07:54:893,0.916,-2.3489,9.7129,-0.029,-0.0137,9.8065,-0.0003,0.2292,-0.1955,-11,-37.56,-3.06,216.07,-88.18,144.89
52.919834,-1.76062,173.96,19.89,3,344.87,22 / 23,1321112,2019-11-06 12:07:54:993,0.9089,0.4939,10.4211,-0.0035,-0.0325,9.8065,0.0714,0.0956,-0.1088,-11.5,-37.37,-2.87,217.28,-88.19,146.08
52.919834,-1.76062,173.96,19.89,3,344.87,22 / 23,1321212,2019-11-06 12:07:55:093,-0.9057,1.9548,8.8162,0.0055,-0.0075,9.8066,-0.0149,0.282,-0.0324,-11.56,-37.19,-4.12,213.82,-88.08,145.37
52.919834,-1.76062,173.96,19.89,3,344.87,22 / 23,1321312,2019-11-06 12:07:55:193,0.6564,-1.7095,10.3354,-0.0128,0.032,9.8066,0.0221,0.161,-0.137,-11.87,-37.31,-2.87,219.76,-88.29,147.06
52.919834,-1.76062,173.96,19.89,3,344.87,22 / 23,1321411,2019-11-06 12:07:55:292,-1.307,1.7703,9.3976,0.025,-0.0607,9.8064,0.0766,-0.0394,-0.1953,-11.25,-37.5,-2.62,217.2,-88.18,146.01
52.919834,-1.76062,173.96,19.89,3,344.87,23 / 23,1321513,2019-11-06 12:07:55:394,1.4481,0.2462,10.5233,-0.0225,0.0099,9.8066,0.0666,-0.2517,0.1368,-12,-37.87,-2.5,217.84,-87.91,141.28
52.919834,-1.76062,173.96,19.89,3,344.87,23 / 23,1321613,2019-11-06 12:07:55:494,-0.3188,2.2457,8.3417,-0.0158,0.0079,9.8065,0.1137,-0.3828,0.2856,-11.37,-38,-3.12,213.36,-87.97,142.32
52.919834,-1.76062,173.96,19.89,3,344.87,23 / 23,1321713,2019-11-06 12:07:55:594,1.6314,-2.6753,9.473,-0.0551,0.0119,9.8064,0.0661,-0.4679,0.2649,-11.56,-37.87,-3.44,217.09,-88.1,144.64
52.919834,-1.76062,173.96,19.89,3,344.87,23 / 23,1321812,2019-11-06 12:07:55:693,0.7324,-0.2531,11.6819,-0.0394,0.013,9.8065,0.0866,-0.4435,0.3939,-11.75,-38.37,-3.44,208.89,-88.37,135.33
52.919834,-1.76062,173.96,19.89,3,344.87,23 / 23,1321912,2019-11-06 12:07:55:793,2.2752,-3.3046,11.1155,-0.04,0.0976,9.806,0.2046,-0.5408,0.2904,-11.81,-37.69,-2.81,208.88,-87.95,135.95
52.919834,-1.76062,173.96,19.89,3,344.87,23 / 23,1322012,2019-11-06 12:07:55:893,-0.198,3.7069,10.1564,-0.0146,-0.0309,9.8066,0.1572,-0.6232,0.2689,-11.75,-38.12,-3.12,218.36,-87.94,146.31
52.919834,-1.76062,173.96,19.89,3,344.87,23 / 23,1322112,2019-11-06 12:07:55:993,-2.4396,2.8498,10.327,-0.0333,0.0742,9.8063,0.097,-0.621,0.3273,-11.87,-37.37,-2.75,209.73,-87.72,137.14
52.919834,-1.76062,173.96,19.89,3,344.87,23 / 23,1322212,2019-11-06 12:07:56:093,-2.5782,2.1099,9.6705,-0.0289,0.0528,9.8064,0.0175,-0.308,0.235,-11.87,-37.81,-2.75,214.75,-87.73,142.74
52.919834,-1.76062,173.96,19.89,3,344.87,23 / 23,1322312,2019-11-06 12:07:56:193,-0.641,3.6919,8.2386,-0.1091,0.0804,9.8057,0.0572,-0.345,0.1698,-12.44,-37.94,-2.87,238.87,-87.97,168.23
52.919834,-1.76062,173.96,19.89,3,344.87,23 / 23,1322412,2019-11-06 12:07:56:293,-0.2644,-8.9858,8.9227,-0.066,0.1111,9.8058,0.1147,-0.0421,-0.103,-12.56,-38.12,-3.12,225.7,-88.06,152.63
52.919834,-1.76062,173.96,19.89,3,344.87,22 / 23,1322512,2019-11-06 12:07:56:393,-1.2032,4.8637,8.7276,-0.0628,0.1065,9.8058,-0.0807,0.2068,-0.1961,-12.12,-37.75,-3.5,229.82,-88.28,157.89
52.919834,-1.76062,173.96,19.89,3,344.87,22 / 23,1322611,2019-11-06 12:07:56:492,2.2885,-3.4362,9.6563,-0.0902,0.124,9.8054,-0.1446,0.4627,-0.2636,-12.06,-37.75,-3.19,201.1,-88,127.34
52.919834,-1.76062,173.96,19.89,3,344.87,22 / 23,1322712,2019-11-06 12:07:56:593,-0.6033,2.895,9.5051,-0.0132,0.0093,9.8065,-0.101,0.6306,-0.1973,-12.37,-37.81,-2.94,200.06,-88.02,126.17
52.919834,-1.76062,173.96,19.89,3,344.87,22 / 23,1322812,2019-11-06 12:07:56:693,1.9347,-3.9683,9.6339,-0.0044,-0.0134,9.8066,-0.1189,0.4401,-0.0347,-12.37,-37.37,-2.75,207.45,-88.06,134.15
52.919834,-1.76062,173.96,19.89,3,344.87,22 / 23,1322912,2019-11-06 12:07:56:793,2.3025,-1.1616,9.9858,-0.0076,-0.0584,9.8064,0.0429,-0.2167,-0.0511,-12.37,-38.19,-3.44,214.93,-87.94,142.58
52.919834,-1.76062,173.96,19.89,3,344.87,22 / 23,1323012,2019-11-06 12:07:56:893,-2.1676,2.4402,8.227,0.0342,-0.0208,9.8065,0.0946,-0.2761,0.179,-12.75,-37.44,-3.25,227.44,-88.38,153.74
52.919834,-1.76062,173.96,19.89,3,344.87,22 / 23,1323112,2019-11-06 12:07:56:993,1.8954,-5.4784,8.9702,0.024,0.065,9.8064,-0.0349,-0.9316,0.6204,-12.5,-37,-3.06,220.51,-88.22,147.99
52.919834,-1.76062,173.96,19.89,3,344.87,22 / 23,1323212,2019-11-06 12:07:57:093,-0.9792,8.398,11.5095,0.0317,-0.0768,9.8063,-0.026,-0.922,0.6325,-12.56,-37.5,-2.69,225.65,-88.2,152.2
52.919834,-1.76062,173.96,19.89,3,344.87,22 / 23,1323312,2019-11-06 12:07:57:193,1.5661,-2.2589,9.402,-0.0295,0.0504,9.8064,-0.0041,-0.8676,0.5416,-12.56,-37.75,-2.62,211.72,-87.51,138.43
52.919834,-1.76062,173.96,19.89,3,344.87,22 / 23,1323412,2019-11-06 12:07:57:293,1.1834,-0.736,11.0689,-0.0053,-0.0581,9.8065,0.0317,-0.586,0.2619,-12.56,-37.62,-2.81,218.99,-87.6,146.27
52.919834,-1.76062,173.96,19.89,3,344.87,23 / 23,1323512,2019-11-06 12:07:57:393,4.6732,-10.069,10.9626,-0.0754,0.1383,9.8054,-0.0062,-0.4953,0.3208,-12.75,-37.25,-3.31,231.25,-87.74,159.12
52.919834,-1.76062,173.96,19.89,3,344.87,23 / 23,1323612,2019-11-06 12:07:57:493,0.2753,3.3562,10.3881,0.0093,-0.0218,9.8066,-0.0583,0.0695,0.1541,-12.31,-37.75,-3.25,225.09,-87.7,154.12
52.919834,-1.76062,173.96,19.89,3,344.87,23 / 23,1323712,2019-11-06 12:07:57:593,-0.511,-3.5714,9.2169,-0.0327,0.0727,9.8063,-0.2122,0.0782,0.0793,-12.81,-37.56,-3.44,218.04,-87.58,145.26
52.919834,-1.76062,173.96,19.89,3,344.87,23 / 23,1323812,2019-11-06 12:07:57:693,2.9466,-4.4647,11.1695,-0.0432,0.0205,9.8065,-0.0521,0.5497,-0.4107,-12.44,-38.06,-3.69,212.97,-87.47,145.52
52.919834,-1.76062,173.96,19.89,3,344.87,23 / 23,1323912,2019-11-06 12:07:57:793,0.8681,-2.2679,8.6721,-0.0282,0.0502,9.8065,0.2234,0.3661,-0.465,-13.19,-37.94,-2.81,214.66,-87.12,142.29
52.919834,-1.76062,173.96,19.89,3,344.87,23 / 23,1324012,2019-11-06 12:07:57:893,1.5227,0.642,11.0071,-0.0083,0.0395,9.8065,0.0282,0.2208,-0.0366,-12.81,-37.75,-2.25,221.39,-87.56,144.78
52.919834,-1.76062,173.96,19.89,3,344.87,23 / 23,1324112,2019-11-06 12:07:57:993,-1.6031,-1.1329,8.6105,0.0518,-0.0025,9.8065,-0.0784,-0.0194,0.162,-11.94,-37.44,-3,215.1,-87.88,142.77
52.919834,-1.76062,173.96,19.89,3,344.87,23 / 23,1324212,2019-11-06 12:07:58:093,1.1791,-5.1164,9.1879,-0.0183,-0.0701,9.8063,-0.2016,0.0321,0.2301,-12.12,-37.25,-3,224.59,-87.9,153.03
52.919834,-1.76062,173.96,19.89,3,344.87,23 / 23,1324312,2019-11-06 12:07:58:193,-2.0911,0.9034,9.306,0.0124,-0.0899,9.8062,-0.1351,-0.1991,0.132,-12.37,-37.69,-3.06,229.85,-87.99,158.59
52.919834,-1.76062,173.96,19.89,3,344.87,23 / 23,1324412,2019-11-06 12:07:58:293,1.193,0.4755,9.8455,-0.0245,0.0028,9.8066,-0.0221,-0.2018,0.2983,-13.12,-37.81,-3.12,225.12,-87.94,152.25
52.919834,-1.76062,173.96,19.89,3,344.87,21 / 22,1324512,2019-11-06 12:07:58:393,-1.3865,3.7925,9.8862,0.0427,-0.0725,9.8063,0.1875,-0.457,0.1708,-12.75,-38.25,-3.31,230.48,-87.97,157.92
52.919834,-1.76062,173.96,19.89,3,344.87,21 / 22,1324611,2019-11-06 12:07:58:492,1.1762,-1.0063,10.7255,0.0468,0.0214,9.8064,0.2743,-0.5139,0.2232,-12.81,-38,-2.94,224.05,-87.72,151.54
52.919834,-1.76062,173.96,19.89,3,344.87,21 / 22,1324712,2019-11-06 12:07:58:593,1.8935,-4.9015,11.4662,0.0661,-0.0401,9.8063,0.2028,-0.6709,0.2656,-12.31,-38,-1.94,223.71,-87.59,148.36
52.919834,-1.76062,173.96,19.89,3,344.87,21 / 22,1324812,2019-11-06 12:07:58:693,-0.2462,-4.5783,9.6654,0.0357,-0.0723,9.8063,-0.0624,-0.559,0.5166,-12.37,-37.81,-2,231.75,-87.41,157.55
52.919834,-1.76062,173.96,19.89,3,344.87,21 / 22,1324912,2019-11-06 12:07:58:793,2.804,-4.1182,12.7745,-0.0177,-0.0725,9.8063,-0.0462,-0.2499,0.2769,-12.19,-38.5,-1.69,230.94,-87.57,156.28
52.919834,-1.76062,173.96,19.89,3,344.87,21 / 22,1325012,2019-11-06 12:07:58:893,-2.6261,0.5468,7.7063,0.0212,0.013,9.8066,0.0877,-0.0479,-0.1225,-12.69,-38.56,-2.31,230.93,-87.37,155.7
52.919834,-1.76062,173.96,19.89,3,344.87,21 / 22,1325112,2019-11-06 12:07:58:993,0.0554,-5.5856,9.8058,0.0033,0.0518,9.8065,0.0945,0.0739,-0.189,-12.5,-37.87,-2.37,228.41,-87.12,154.58
52.919834,-1.76062,173.96,19.89,3,344.87,21 / 22,1325212,2019-11-06 12:07:59:093,0.1285,1.1418,10.6208,-0.01,-0.0568,9.8064,-0.1186,0.3744,-0.0485,-12.75,-38.81,-2.25,233.71,-87.25,159.02
52.919834,-1.76062,173.96,19.89,3,344.87,21 / 22,1325312,2019-11-06 12:07:59:193,-3.0391,3.243,8.5251,-0.0502,0.0301,9.8064,-0.2269,0.5281,-0.085,-12.5,-38.5,-2.37,228.39,-87.21,154.36
52.919834,-1.76062,173.96,19.89,3,344.87,21 / 22,1325412,2019-11-06 12:07:59:293,-0.3776,0.9475,11.3715,-0.0279,0.1004,9.8061,0.0354,0.2018,-0.1069,-12.31,-38,-2.56,218.7,-86.99,148.49
52.921406,-1.761365,175.49,21.54,4,346.28,21 / 21,1325512,2019-11-06 12:07:59:393,2.4462,-0.9319,11.3436,0.014,-0.0164,9.8066,0.2009,0.1341,-0.1972,-12,-37.81,-2.37,230.47,-87.22,156.62
52.921406,-1.761365,175.49,21.54,4,346.28,21 / 21,1325611,2019-11-06 12:07:59:492,1.3016,-3.5878,10.3805,-0.0082,0.0141,9.8066,-0.0167,-0.2671,0.1933,-11.75,-38.31,-2.94,225.34,-86.99,155.93
52.921406,-1.761365,175.49,21.54,4,346.28,21 / 21,1325712,2019-11-06 12:07:59:593,0.0557,2.3542,10.3962,0.0455,-0.0439,9.8064,-0.0541,-0.6348,0.4,-11.94,-38.69,-2.62,230.37,-87.12,161.38
52.921406,-1.761365,175.49,21.54,4,346.28,21 / 21,1325812,2019-11-06 12:07:59:693,2.6635,-3.9666,11.238,-0.0207,0.0982,9.8061,0.0679,-0.613,0.4283,-12.25,-38.56,-2.19,233.15,-87.13,159.97
52.921406,-1.761365,175.49,21.54,4,346.28,21 / 21,1325912,2019-11-06 12:07:59:793,-0.0915,1.1873,9.7719,-0.0014,-0.0219,9.8065,0.1075,-0.5229,0.2704,-12.31,-37.87,-2.87,224.33,-86.79,155.23
52.921406,-1.761365,175.49,21.54,4,346.28,21 / 21,1326012,2019-11-06 12:07:59:893,1.8258,-0.6595,9.7922,-0.0397,0.0876,9.8062,0.0154,-0.4705,0.2738,-12.37,-37.62,-2.62,218.22,-86.57,148.73
52.921406,-1.761365,175.49,21.54,4,346.28,21 / 21,1326112,2019-11-06 12:07:59:993,1.9739,-5.9174,8.9701,-0.0336,0.0563,9.8064,0.1391,-0.2963,0.1469,-12.5,-37.81,-2.94,224.63,-86.51,156.17
52.921406,-1.761365,175.49,21.54,4,346.28,21 / 21,1326213,2019-11-06 12:08:00:094,1.0356,-3.4005,8.2042,-0.0505,0.1073,9.8058,0.0203,0.2291,0.0071,-13,-38.06,-2.19,228.58,-86.78,154.28
52.921406,-1.761365,175.49,21.54,4,346.28,21 / 21,1326312,2019-11-06 12:08:00:193,2.351,-3.6851,11.3896,-0.0294,0.0725,9.8063,-0.1582,0.2941,-0.1338,-12.56,-37.56,-2.75,224.81,-87.13,153.53
52.921406,-1.761365,175.49,21.54,4,346.28,21 / 21,1326412,2019-11-06 12:08:00:293,-0.9707,3.8409,10.003,-0.0062,0.0523,9.8065,-0.0423,0.5827,-0.3441,-12,-38.75,-2.5,226.55,-86.89,153.21
52.921406,-1.761365,175.49,21.54,4,346.28,21 / 22,1326512,2019-11-06 12:08:00:393,0.0727,-3.143,11.9794,-0.0561,0.1311,9.8056,0.046,0.6275,-0.7318,-12.5,-38.31,-2,213.51,-86.24,139.42
52.921406,-1.761365,175.49,21.54,4,346.28,21 / 22,1326612,2019-11-06 12:08:00:493,1.044,5.6116,10.1493,0.0219,0.0467,9.8064,0.055,0.6383,-0.4598,-11.31,-37.87,-1.06,215.67,-85.82,139.2
52.921406,-1.761365,175.49,21.54,4,346.28,21 / 22,1326712,2019-11-06 12:08:00:593,1.7007,-1.1246,10.7013,-0.0019,0.0707,9.8064,0.0357,0.041,-0.1751,-10.56,-37.5,-2.75,205.68,-85.54,137.14
52.921406,-1.761365,175.49,21.54,4,346.28,21 / 22,1326812,2019-11-06 12:08:00:693,1.4019,1.2629,9.6277,0.0112,0.0204,9.8066,-0.0047,0.1759,-0.0719,-11.19,-37.94,-2.75,203.89,-85.58,135.06
52.921406,-1.761365,175.49,21.54,4,346.28,21 / 22,1326912,2019-11-06 12:08:00:793,0.1852,4.5547,8.9763,-0.0325,0.0003,9.8065,-0.1261,-0.0656,0.1394,-11.75,-37.37,-1.94,205.51,-85.53,130.77
52.921406,-1.761365,175.49,21.54,4,346.28,21 / 22,1327012,2019-11-06 12:08:00:893,-0.1382,0.9777,10.3109,-0.0147,-0.0554,9.8065,0.0123,-0.0619,-0.0648,-10.87,-37.94,-2.25,203.13,-85.36,129.57
52.921406,-1.761365,175.49,21.54,4,346.28,21 / 22,1327112,2019-11-06 12:08:00:993,-2.099,4.0424,9.7729,0.0124,-0.0012,9.8066,0.0089,-0.3749,0.4244,-10.94,-38,-2.62,198.77,-85.08,129.24
52.921406,-1.761365,175.49,21.54,4,346.28,21 / 22,1327212,2019-11-06 12:08:01:093,0.339,-0.6072,8.7959,-0.0068,-0.0213,9.8066,-0.0946,-0.1611,0.2981,-10.37,-37.62,-2.62,195.86,-85.08,127.4
52.921406,-1.761365,175.49,21.54,4,346.28,21 / 22,1327312,2019-11-06 12:08:01:193,-1.4797,1.1566,8.9477,-0.0115,-0.0523,9.8065,-0.0648,-0.1858,0.1644,-10.5,-37.31,-2.75,195.36,-85.11,126.59
52.921406,-1.761365,175.49,21.54,4,346.28,21 / 22,1327412,2019-11-06 12:08:01:293,1.2351,-0.3162,10.6497,-0.0195,-0.0122,9.8065,0.053,-0.0913,-0.0061,-10.12,-37.62,-2.94,196.01,-84.92,127.75
52.921406,-1.761365,175.49,21.54,4,346.28,21 / 23,1327512,2019-11-06 12:08:01:393,-1.2432,2.7205,9.8468,0.0226,0.0255,9.8065,0.0785,0.1331,-0.1952,-10.62,-37.12,-1.56,201.82,-84.85,128.39
52.921406,-1.761365,175.49,21.54,4,346.28,21 / 23,1327611,2019-11-06 12:08:01:492,2.9553,0.3914,9.7567,-0.0072,0.0542,9.8064,0.0328,0.1739,-0.1539,-10.81,-35,-2.12,201.79,-84.5,128.4
52.921406,-1.761365,175.49,21.54,4,346.28,21 / 23,1327711,2019-11-06 12:08:01:592,0.0989,0.1036,8.9364,0.0144,-0.0146,9.8066,0.1001,0.1118,-0.1614,-11.37,-36.87,-2.5,203.22,-84.69,130.38
52.921406,-1.761365,175.49,21.54,4,346.28,21 / 23,1327811,2019-11-06 12:08:01:692,0.715,-1.3721,9.2786,0.0032,0.0207,9.8066,-0.032,0.3084,-0.0316,-11.5,-36.75,-3.12,198.89,-85.13,129.19
52.921406,-1.761365,175.49,21.54,4,346.28,21 / 23,1327911,2019-11-06 12:08:01:792,1.2417,-1.6031,10.1343,-0.016,-0.0025,9.8066,-0.0972,0.3037,-0.1732,-11.31,-37.69,-2.56,199.7,-85.3,130.18
52.921406,-1.761365,175.49,21.54,4,346.28,21 / 23,1328012,2019-11-06 12:08:01:893,-2.2061,2.057,10.8412,0.008,0.0147,9.8065,0.0198,0.2028,-0.1339,-11,-37.37,-2.56,202.39,-85.25,133.45
52.921406,-1.761365,175.49,21.54,4,346.28,21 / 23,1328112,2019-11-06 12:08:01:993,1.4543,-0.9991,10.9969,0.0018,0.0367,9.8065,0.1501,-0.0889,-0.0732,-10.5,-37.37,-2.19,205.49,-85.11,134.38
52.921406,-1.761365,175.49,21.54,4,346.28,21 / 23,1328212,2019-11-06 12:08:02:093,-0.0416,1.3426,9.3653,0.0132,0.0034,9.8065,-0.0094,-0.0467,-0.0083,-11.31,-37.87,-2.62,204.92,-85.22,136.82
52.921406,-1.761365,175.49,21.54,4,346.28,21 / 23,1328312,2019-11-06 12:08:02:193,1.5341,-0.4331,9.7707,-0.0086,0.0194,9.8065,-0.0089,-0.2254,0.0749,-11,-37.56,-2.75,204.5,-85.08,136.49
52.921406,-1.761365,175.49,21.54,4,346.28,21 / 23,1328412,2019-11-06 12:08:02:293,-0.9807,1.6947,9.2265,-0.0098,-0.032,9.8065,-0.0328,-0.2552,0.1704,-10.81,-37.56,-2.31,206.99,-85.11,134.78
52.921406,-1.761365,175.49,21.54,4,346.28,20 / 20,1328512,2019-11-06 12:08:02:393,-0.3126,-1.2989,9.2074,0.0058,0.0144,9.8066,0.0167,-0.2996,0.1059,-11.06,-36.25,-1.56,205.01,-84.96,132.11
52.921406,-1.761365,175.49,21.54,4,346.28,20 / 20,1328612,2019-11-06 12:08:02:493,1.0517,-2.1468,10.5149,0.0146,-0.0124,9.8066,0.085,-0.198,0.0703,-12.12,-36.69,-2.75,201.18,-84.94,130.62
52.921406,-1.761365,175.49,21.54,4,346.28,20 / 20,1328712,2019-11-06 12:08:02:593,0.3596,-0.7371,10.1687,0.0136,-0.0115,9.8066,0.0766,-0.072,0.0306,-11.44,-37.31,-2.44,204.7,-84.93,131.94
52.921406,-1.761365,175.49,21.54,4,346.28,20 / 20,1328812,2019-11-06 12:08:02:693,0.5516,-3.279,9.8288,-0.0023,-0.0003,9.8066,-0.0269,0.0026,-0.0747,-10.62,-37.87,-2.94,201.47,-84.87,132.91
52.921406,-1.761365,175.49,21.54,4,346.28,20 / 20,1328912,2019-11-06 12:08:02:793,-0.88,1.1218,9.3311,0.0101,-0.0454,9.8065,-0.0367,0.1713,-0.086,-10.31,-37.31,-3.5,200.35,-85.04,133.09
52.921406,-1.761365,175.49,21.54,4,346.28,20 / 20,1329012,2019-11-06 12:08:02:893,1.2424,-2.3198,10.1341,-0.0148,0.0257,9.8066,0.0266,0.2233,-0.2456,-9.25,-36.87,-1.44,204.6,-84.97,129.43
52.921406,-1.761365,175.49,21.54,4,346.28,20 / 20,1329112,2019-11-06 12:08:02:993,-0.2684,2.4653,9.5382,0.0125,-0.023,9.8065,-0.0679,0.2833,-0.1949,-11.31,-37.75,-2.25,202.7,-84.83,129.71
52.921406,-1.761365,175.49,21.54,4,346.28,20 / 20,1329214,2019-11-06 12:08:03:095,0.7469,-1.9912,10.699,0.009,0.0305,9.8066,-0.015,0.2749,-0.2277,-10.81,-37.56,-2.56,198.33,-84.65,129.12
52.921406,-1.761365,175.49,21.54,4,346.28,20 / 20,1329312,2019-11-06 12:08:03:193,-1.3974,1.955,9.9788,0.0136,-0.0244,9.8066,0.0246,0.3034,-0.2355,-10.69,-37.31,-3.62,195.28,-84.55,129.73
52.921406,-1.761365,175.49,21.54,4,346.28,20 / 20,1329412,2019-11-06 12:08:03:293,0.8697,-1.6502,8.7746,-0.0088,0.0109,9.8065,-0.0091,0.2848,-0.1106,-10.62,-37.94,-2.62,198.55,-84.55,129.51
52.921406,-1.761365,175.49,21.54,4,346.28,20 / 21,1329515,2019-11-06 12:08:03:396,0.0651,-1.4798,9.74,-0.0121,-0.0209,9.8066,-0.014,0.125,-0.0535,-11.25,-36.25,-2,203.67,-84.85,130.56
52.921406,-1.761365,175.49,21.54,4,346.28,20 / 21,1329611,2019-11-06 12:08:03:492,0.095,1.8899,9.0697,-0.0037,0.0135,9.8065,-0.0265,-0.0315,0.0807,-12.37,-37,-2.94,202.83,-84.81,132.82
52.921406,-1.761365,175.49,21.54,4,346.28,20 / 21,1329712,2019-11-06 12:08:03:593,-0.4526,-1.1094,9.0916,0.0125,0.0242,9.8066,-0.1698,0.0134,0.2066,-11.37,-37.12,-3,203.98,-84.68,136.17
52.921406,-1.761365,175.49,21.54,4,346.28,20 / 21,1329812,2019-11-06 12:08:03:693,-1.4837,-0.4754,9.6363,-0.0183,0.0465,9.8064,0.0889,-0.0881,-0.1526,-11.19,-37.56,-3.62,202.93,-84.9,139.3
52.921406,-1.761365,175.49,21.54,4,346.28,20 / 21,1329912,2019-11-06 12:08:03:793,-0.3982,0.4934,8.4929,-0.0201,-0.0051,9.8066,0.1019,-0.1326,-0.0348,-11.62,-37.69,-3.31,206.4,-84.77,137.5
52.921406,-1.761365,175.49,21.54,4,346.28,20 / 21,1330012,2019-11-06 12:08:03:893,-0.9624,2.1317,10.0465,-0.0193,-0.0067,9.8065,0.0848,-0.2347,0.1369,-11.44,-37.87,-2.94,203.71,-84.71,135.98
52.921406,-1.761365,175.49,21.54,4,346.28,20 / 21,1330112,2019-11-06 12:08:03:993,1.1862,-1.6324,8.5723,0.0146,0.0345,9.8065,-0.0972,-0.176,0.1336,-11.62,-37.44,-3.37,206.65,-84.57,137.89
52.921406,-1.761365,175.49,21.54,4,346.28,20 / 21,1330213,2019-11-06 12:08:04:094,-1.0051,-0.1689,8.932,0.0413,-0.0153,9.8065,0.1099,-0.1919,0.0735,-11.81,-37.94,-3.19,208.88,-84.85,140.48
