GPS LATITUDE (degrees), GPS LONGITUDE (degrees), GPS ALTITUDE (m), GPS SPEED (Kmh), GPS ACCURACY (m), GPS ORIENTATION (Â°),GPS SATELLITES IN RANGE, TIME SINCE START (ms), DATE (YYYY-MO-DD HH-MI-SS_SSS), ACCELEROMETER X (m/s²) , ACCELEROMETER Y (m/s²), ACCELEROMETER Z (m/s²), GRAVITY X (m/s²), GRAVITY Y (m/s²), GRAVITY Z (m/s²), GYROSCOPE Yaw (rad/s), GYROSCOPE Pitch (rad/s), GYROSCOPE Roll (rad/s), MAGNETIC FIELD X (Î¼T), MAGNETIC FIELD Y (Î¼T), MAGNETIC FIELD Z (Î¼T), ORIENTATION (Yaw) (Â°), ORIENTATION (Pitch) (Â°), ORIENTATION (Roll ) (Â°)
53.051537,-1.781771,191.5,11.01,4,58.05,19 / 20,678315,2019-11-06 12:53:40:023,-6.0172,5.1403,9.4688,-0.0712,0.0439,9.8062,0.0815,-0.3085,0.3885,-10.19,-43.75,-7.25,211.18,-80.54,173.76
53.051537,-1.781771,191.5,11.01,4,58.05,19 / 20,678415,2019-11-06 12:53:40:123,-1.6467,0.0164,10.6483,-0.0351,0.0198,9.8065,-0.0566,-0.3041,0.3078,-10,-43.19,-7.44,210.03,-80.54,171.6
53.051537,-1.781771,191.5,11.01,4,58.05,17 / 21,678515,2019-11-06 12:53:40:223,-2.5357,3.849,9.5258,-0.026,0.0266,9.8066,-0.1716,0.1251,0.1944,-10.25,-43.5,-8.19,209.87,-80.75,173.85
53.051537,-1.781771,191.5,11.01,4,58.05,17 / 21,678615,2019-11-06 12:53:40:323,-0.8549,2.3165,10.133,-0.0019,-0.0186,9.8066,0.1176,0.0023,-0.0548,-9.75,-43.75,-8.75,208.36,-80.92,174.28
53.051537,-1.781771,191.5,11.01,4,58.05,17 / 21,678714,2019-11-06 12:53:40:422,-2.8375,4.4172,9.8388,0.03,-0.0171,9.8066,0.1705,0.139,-0.2291,-9.62,-43.19,-8.94,209.17,-80.69,175.47
53.051537,-1.781771,191.5,11.01,4,58.05,17 / 21,678814,2019-11-06 12:53:40:522,0.4446,-3.1264,8.7822,-0.0386,0.044,9.8064,-0.0719,-0.1132,0.4086,-9.62,-43.56,-8.5,209.46,-80.34,174.3
53.051537,-1.781771,191.5,11.01,4,58.05,17 / 21,678915,2019-11-06 12:53:40:623,0.687,1.476,10.3938,-0.0077,-0.0008,9.8066,-0.0879,0.3406,0.0038,-9.62,-43.25,-9.25,210.15,-80.53,177.17
53.051537,-1.781771,191.5,11.01,4,58.05,17 / 21,679014,2019-11-06 12:53:40:722,-0.8578,1.1115,8.2646,0.0279,0.0232,9.8066,-0.0284,0.1746,-0.2209,-9.44,-43.12,-9.94,206.65,-80.53,178.03
53.051537,-1.781771,191.5,11.01,4,58.05,17 / 21,679114,2019-11-06 12:53:40:822,2.7621,-0.5483,9.8998,0.0277,-0.0444,9.8065,0.102,0.2333,-0.4008,-8.94,-43.81,-10,205.65,-80.46,176.96
53.051537,-1.781771,191.5,11.01,4,58.05,17 / 21,679214,2019-11-06 12:53:40:922,-2.3535,-0.6066,8.9084,-0.0929,0.0728,9.8059,-0.1302,0.1123,0.0377,-8.62,-43.69,-10.56,200.5,-80.41,171.36
53.051537,-1.781771,191.5,11.01,4,58.05,17 / 21,679314,2019-11-06 12:53:41:022,1.3211,0.4831,7.7958,-0.0172,0.0587,9.8063,-0.0756,-0.0171,0.0504,-8.06,-47.37,-12.5,194.58,-80.24,168.68
53.051537,-1.781771,191.5,11.01,4,58.05,17 / 21,679414,2019-11-06 12:53:41:122,-2.4816,0.0159,7.2243,-0.0135,0.0647,9.8063,-0.0347,0.2869,-0.2088,-7.37,-50.44,-10.62,191.64,-79.83,166.84
53.051537,-1.781771,191.5,11.01,4,58.05,18 / 20,679514,2019-11-06 12:53:41:222,4.098,2.897,9.8226,0.0038,-0.0685,9.8064,-0.3073,0.5357,-0.4012,-6.81,-49.81,-6.94,196,-79.98,164.8
53.051537,-1.781771,191.5,11.01,4,58.05,18 / 20,679614,2019-11-06 12:53:41:322,-2.5847,-7.0147,10.2255,-0.0047,-0.0209,9.8066,-0.1148,0.148,-0.0038,-6.81,-44.12,-5.75,199.14,-80.87,163.91
53.051537,-1.781771,191.5,11.01,4,58.05,18 / 20,679714,2019-11-06 12:53:41:422,-0.0276,6.0883,8.34,0.1757,0.0711,9.8047,-0.0134,0.9185,-0.4438,-7.31,-40.44,-8.87,193.54,-81.51,162.5
53.051537,-1.781771,191.5,11.01,4,58.05,18 / 20,679814,2019-11-06 12:53:41:522,-1.8371,10.5374,10.0752,-0.0218,-0.075,9.8063,0.3103,0.1334,-0.0159,-7.81,-42.06,-10.19,198.24,-80.94,168.68
53.051537,-1.781771,191.5,11.01,4,58.05,18 / 20,679914,2019-11-06 12:53:41:622,5.1387,1.0434,11.9459,0.1031,-0.1084,9.8055,0.0545,0.9037,-0.4936,-7.87,-42.5,-10.5,201.76,-80.71,174.18
53.051537,-1.781771,191.5,11.01,4,58.05,18 / 20,680014,2019-11-06 12:53:41:722,-10.374,2.1362,8.2091,0.1218,-0.0734,9.8056,-0.2836,1.3945,-0.6721,-7.31,-43,-11.69,196.86,-81.15,174.37
53.051537,-1.781771,191.5,11.01,4,58.05,18 / 20,680114,2019-11-06 12:53:41:822,7.7604,-3.9935,11.5537,-0.0067,0.013,9.8065,-0.0322,-0.5472,0.4126,-8.56,-43.25,-11,203.36,-81.61,173.94
53.051537,-1.781771,191.5,11.01,4,58.05,18 / 20,680214,2019-11-06 12:53:41:922,3.5637,-1.3734,10.7374,0.1217,0.0237,9.8058,0.096,0.5384,-0.3574,-8.37,-42.81,-10.5,203.27,-81.29,175.98
53.051537,-1.781771,191.5,11.01,4,58.05,18 / 20,680314,2019-11-06 12:53:42:022,6.5649,-4.5318,9.2794,-0.0675,0.043,9.8062,0.1422,-0.8659,0.5266,-8.62,-44.06,-10.25,204.95,-80.75,175.52
53.051537,-1.781771,191.5,11.01,4,58.05,18 / 20,680414,2019-11-06 12:53:42:122,0.9249,-1.1454,10.8312,0.0061,-0.0266,9.8066,0.1982,-0.0944,-0.0008,-8.25,-43.37,-9.75,201,-80.44,173.62
53.051537,-1.781771,191.5,11.01,4,58.05,19 / 21,680514,2019-11-06 12:53:42:222,-3.9365,1.8101,9.1189,-0.0775,-0.0129,9.8063,0.0578,-0.5714,0.3457,-8.31,-43.19,-9.56,199.04,-80.45,170.62
53.051537,-1.781771,191.5,11.01,4,58.05,19 / 21,680614,2019-11-06 12:53:42:322,0.1196,1.1233,9.3646,-0.0062,0.015,9.8066,-0.0582,-0.3806,0.1821,-8.25,-43.5,-10.31,199.55,-80.58,171.26
53.051537,-1.781771,191.5,11.01,4,58.05,19 / 21,680714,2019-11-06 12:53:42:422,-3.1087,1.953,9.3976,-0.049,0.0444,9.8064,-0.0062,-0.5191,0.2807,-7.81,-43.37,-10.37,199.86,-80.5,171.81
53.051537,-1.781771,191.5,11.01,4,58.05,19 / 21,680814,2019-11-06 12:53:42:522,5.1863,-0.1649,10.8501,-0.0569,0.0255,9.8064,0.2392,-0.5016,0.3606,-8.12,-43.5,-9.81,198.26,-80.26,169.63
53.051537,-1.781771,191.5,11.01,4,58.05,19 / 21,680914,2019-11-06 12:53:42:622,-1.3318,1.0019,10.5317,-0.023,-0.002,9.8065,0.0189,-0.1281,0.0155,-7.87,-43.31,-10.06,198.81,-79.77,170.98
53.051537,-1.781771,191.5,11.01,4,58.05,19 / 21,681014,2019-11-06 12:53:42:722,4.2936,-4.0853,9.7688,-0.0347,0.0209,9.8065,0.0019,-0.603,0.3824,-8.19,-43.62,-9.81,197.83,-79.83,169.64
53.051537,-1.781771,191.5,11.01,4,58.05,19 / 21,681114,2019-11-06 12:53:42:822,-0.431,-0.5398,9.7758,-0.0046,0.0077,9.8065,-0.0322,0.0531,0.0878,-8.62,-43.12,-9.69,201.49,-79.8,171.19
53.051537,-1.781771,191.5,11.01,4,58.05,19 / 21,681214,2019-11-06 12:53:42:922,4.749,-3.0593,9.2194,-0.0278,0.0065,9.8066,0.1116,-0.4483,0.196,-9.37,-42.87,-9.44,203.49,-79.78,172.02
53.051537,-1.781771,191.5,11.01,4,58.05,19 / 21,681314,2019-11-06 12:53:43:022,-0.3893,0.1407,10.8546,0.0306,-0.0007,9.8066,-0.0967,0.4302,-0.3758,-8.81,-43.87,-9.44,203.2,-79.53,172.22
53.051537,-1.781771,191.5,11.01,4,58.05,19 / 21,681414,2019-11-06 12:53:43:122,-3.967,0.0637,9.2532,-0.04,0.0372,9.8065,-0.0446,-0.1099,0.0932,-8.62,-43.31,-8.94,202.31,-79.46,170.57
53.051537,-1.781771,191.5,11.01,4,58.05,18 / 20,681515,2019-11-06 12:53:43:223,0.4597,-2.1013,8.6068,0.0144,0.0189,9.8065,-0.1183,-0.2721,0.1701,-9.06,-43.44,-9.81,201.2,-79.51,171.07
53.051537,-1.781771,191.5,11.01,4,58.05,18 / 20,681614,2019-11-06 12:53:43:322,1.4797,-0.859,10.0629,-0.0217,0.0009,9.8066,-0.0434,-0.0999,0.1679,-9.12,-43.44,-8.56,203.53,-79.57,172.35
53.051537,-1.781771,191.5,11.01,4,58.05,18 / 20,681714,2019-11-06 12:53:43:422,-1.509,-1.2211,8.0597,-0.0139,-0.0116,9.8066,0.1334,0.0241,-0.0364,-9.31,-43.31,-8.5,205.41,-79.62,172.77
53.051537,-1.781771,191.5,11.01,4,58.05,18 / 20,681814,2019-11-06 12:53:43:522,3.9662,-2.0115,9.4776,-0.0132,-0.0079,9.8065,0.1175,-0.2413,0.1513,-9.56,-43.25,-9.25,206.32,-79.42,173.06
53.051537,-1.781771,191.5,11.01,4,58.05,18 / 20,681914,2019-11-06 12:53:43:622,0.5667,-0.3583,10.2733,0.0056,-0.0201,9.8066,0.0019,0.2394,-0.1509,-9.94,-42.94,-9.12,206.34,-79.19,173.41
53.051537,-1.781771,191.5,11.01,4,58.05,18 / 20,682014,2019-11-06 12:53:43:722,-0.7284,-2.3714,9.3597,-0.0158,0.0041,9.8065,-0.136,0.0242,0.0032,-9.44,-43.25,-8.44,205.47,-79.39,173.2
53.051537,-1.781771,191.5,11.01,4,58.05,18 / 20,682114,2019-11-06 12:53:43:822,0.6882,-0.1583,8.7744,0.0354,0.0403,9.8064,-0.1495,0.2307,-0.1444,-9.44,-43.25,-8.12,204.87,-79.47,172.12
53.051537,-1.781771,191.5,11.01,4,58.05,18 / 20,682214,2019-11-06 12:53:43:922,-0.486,2.0084,10.9544,0.0213,0.0005,9.8066,0.0284,0.1314,-0.236,-9.94,-43.31,-8.62,205.34,-79.16,171.88
53.051537,-1.781771,191.5,11.01,4,58.05,18 / 20,682314,2019-11-06 12:53:44:022,1.2138,-2.0231,8.6439,-0.0033,-0.0122,9.8066,0.1297,-0.0677,-0.0093,-9.37,-43.25,-8.37,203.5,-79.13,170.37
53.051537,-1.781771,191.5,11.01,4,58.05,18 / 20,682414,2019-11-06 12:53:44:122,-1.2154,0.8033,8.0292,0.028,-0.0008,9.8066,-0.0272,0.2113,-0.1751,-9.31,-43.5,-7.94,203.22,-78.86,170.29
53.051537,-1.781771,191.5,11.01,4,58.05,19 / 20,682514,2019-11-06 12:53:44:222,2.9119,0.6292,10.8418,-0.025,0.0134,9.8066,-0.1733,-0.3585,0.2495,-9.62,-43.5,-7.75,205.39,-78.82,169.9
53.051537,-1.781771,191.5,11.01,4,58.05,19 / 20,682614,2019-11-06 12:53:44:322,2.1649,0.2013,9.693,0.0201,-0.0224,9.8065,0.0109,0.1237,-0.1502,-9.62,-43.37,-8.12,205.84,-79.24,170.01
53.051537,-1.781771,191.5,11.01,4,58.05,19 / 20,682714,2019-11-06 12:53:44:422,3.4025,-0.6358,10.0784,0.0111,-0.0008,9.8066,0.0706,-0.3243,0.0493,-10.44,-43.25,-7.62,205.52,-79.22,169.55
53.051537,-1.781771,191.5,11.01,4,58.05,19 / 20,682814,2019-11-06 12:53:44:522,1.9398,-0.6479,9.967,0.018,0.0163,9.8066,0.0096,-0.0873,0.1634,-10.94,-43,-8.06,207.95,-78.97,170.09
53.051537,-1.781771,191.5,11.01,4,58.05,19 / 20,682914,2019-11-06 12:53:44:622,-2.5479,0.0123,9.4798,-0.0422,0.0049,9.8065,0.0932,-0.5578,0.3287,-11.31,-43.5,-7.75,208.23,-79.06,170.38
53.051537,-1.781771,191.5,11.01,4,58.05,19 / 20,683014,2019-11-06 12:53:44:722,0.3062,-2.4796,10.1642,-0.0234,-0.0186,9.8065,-0.0051,-0.4338,0.2042,-10.75,-42.5,-6.87,211.27,-79.23,171.58
53.051537,-1.781771,191.5,11.01,4,58.05,19 / 20,683114,2019-11-06 12:53:44:822,0.0154,2.3975,8.4274,-0.0301,-0.0427,9.8065,-0.0964,-0.2033,-0.0584,-10.94,-43.5,-7.5,211.63,-79.54,172.07
53.051537,-1.781771,191.5,11.01,4,58.05,19 / 20,683214,2019-11-06 12:53:44:922,2.9254,1.0648,9.941,-0.0441,-0.0133,9.8065,0.0878,-0.2896,0.0859,-11.69,-43.06,-8.06,212.27,-80.11,171.51
53.051537,-1.781771,191.5,11.01,4,58.05,19 / 20,683314,2019-11-06 12:53:45:022,0.2622,0.7915,8.9372,-0.0008,0.0058,9.8066,-0.0877,0.1444,-0.0591,-11.69,-42.87,-7.44,213.59,-79.91,170.98
53.051537,-1.781771,191.5,11.01,4,58.05,19 / 20,683414,2019-11-06 12:53:45:122,1.3147,-0.1974,9.1607,-0.0083,-0.0255,9.8065,-0.0037,-0.1411,-0.189,-11.44,-42.69,-7.19,211.44,-80.15,170.73
53.051537,-1.781771,191.5,11.01,4,58.05,19 / 20,683514,2019-11-06 12:53:45:222,2.4832,-3.9737,8.8299,0.0094,-0.0568,9.8064,-0.0552,0.2648,-0.1743,-11.69,-42.94,-7.62,211.66,-80.53,169.99
53.051537,-1.781771,191.5,11.01,4,58.05,19 / 20,683615,2019-11-06 12:53:45:323,2.324,-3.9151,9.3456,-0.003,-0.0219,9.8065,-0.1259,-0.001,-0.2056,-11.87,-43,-7.25,213.88,-80.86,169.78
53.051537,-1.781771,191.5,11.01,4,58.05,19 / 20,683714,2019-11-06 12:53:45:422,0.6267,-4.2057,9.3971,0.0447,-0.0105,9.8065,-0.0245,0.3449,-0.2322,-12.5,-42.87,-7.56,210.89,-80.97,168.21
53.051537,-1.781771,191.5,11.01,4,58.05,19 / 20,683814,2019-11-06 12:53:45:522,-1.5131,2.9997,10.079,0.0282,-0.0125,9.8065,0.059,0.2063,-0.2943,-12.62,-42.37,-6.44,217.93,-80.67,169.43
53.051537,-1.781771,191.5,11.01,4,58.05,19 / 20,683914,2019-11-06 12:53:45:622,0.7079,-0.7854,10.288,0.0448,-0.022,9.8064,0.0616,0.1684,-0.2165,-12.5,-42.37,-6.69,212.37,-80.54,167.77
53.051537,-1.781771,191.5,11.01,4,58.05,19 / 20,684014,2019-11-06 12:53:45:722,-0.1814,1.109,10.0388,0.0237,-0.0081,9.8066,-0.032,0.2155,-0.1228,-12.12,-43,-7.25,212.79,-80.3,169.15
53.051537,-1.781771,191.5,11.01,4,58.05,19 / 20,684114,2019-11-06 12:53:45:822,0.6919,-3.7464,9.8133,0.0115,-0.0441,9.8065,-0.0644,-0.0743,-0.0496,-12.56,-42.75,-5.69,218.05,-80.53,170.26
53.051537,-1.781771,191.5,11.01,4,58.05,19 / 20,684214,2019-11-06 12:53:45:922,0.3375,-0.2903,10.4231,0.0076,-0.0173,9.8065,-0.0071,0.1258,-0.0276,-12.56,-42.87,-6,218.32,-80.69,170.34
53.051537,-1.781771,191.5,11.01,4,58.05,19 / 20,684314,2019-11-06 12:53:46:022,2.0124,0.3051,9.7066,-0.0057,-0.0233,9.8065,-0.0924,0.0233,0.0025,-12.87,-42.75,-6.12,218.99,-80.91,170.87
53.051537,-1.781771,191.5,11.01,4,58.05,19 / 20,684415,2019-11-06 12:53:46:123,1.4643,0.9364,9.6239,-0.0144,-0.0227,9.8066,0.0079,-0.0559,0.0041,-13,-42.5,-5.75,220.07,-81.27,171.25
53.051537,-1.781771,191.5,11.01,4,58.05,18 / 20,684515,2019-11-06 12:53:46:223,-0.7177,-1.747,9.5338,0.0025,-0.039,9.8065,-0.0508,0.1397,-0.0853,-13.12,-42.19,-6.31,220.02,-81.44,170.87
53.051537,-1.781771,191.5,11.01,4,58.05,18 / 20,684615,2019-11-06 12:53:46:323,0.9688,1.9311,9.9146,-0.0045,-0.0248,9.8065,-0.0179,0.2146,-0.0563,-12.87,-42.44,-6.69,219.22,-81.84,172.08
53.051537,-1.781771,191.5,11.01,4,58.05,18 / 20,684715,2019-11-06 12:53:46:423,1.8419,-2.7398,9.4281,-0.0155,-0.0412,9.8065,-0.0764,-0.1822,0.0935,-13.12,-42.06,-6.19,222.75,-82.24,172.93
53.051537,-1.781771,191.5,11.01,4,58.05,18 / 20,684815,2019-11-06 12:53:46:523,-2.7517,-0.0052,10.1131,0.0002,-0.0723,9.8063,-0.0224,0.3793,-0.3672,-12.94,-42.19,-6.5,224.11,-82.67,173.8
53.051537,-1.781771,191.5,11.01,4,58.05,18 / 20,684914,2019-11-06 12:53:46:622,2.8943,-4.1746,11.0361,0.0148,0.0052,9.8066,0.14,-0.2139,0.0294,-13.81,-42.37,-5.44,226.96,-82.8,171.46
53.051537,-1.781771,191.5,11.01,4,58.05,18 / 20,685014,2019-11-06 12:53:46:722,3.9171,1.022,10.9908,0.0565,0.0043,9.8064,0.1116,0.1127,-0.2572,-13.25,-42.31,-5.87,221.73,-82.3,171.47
53.051537,-1.781771,191.5,11.01,4,58.05,18 / 20,685114,2019-11-06 12:53:46:822,2.7494,-0.8252,11.9122,-0.0268,0.0207,9.8065,0.0753,-0.3664,0.2365,-13.31,-42.56,-5.87,219.5,-81.94,169.6
53.051537,-1.781771,191.5,11.01,4,58.05,18 / 20,685214,2019-11-06 12:53:46:922,1.4609,-1.8193,9.5964,-0.0163,0.0209,9.8065,-0.0216,-0.2945,0.162,-14.31,-42.5,-5.75,221.12,-82,168.73
53.051537,-1.781771,191.5,11.01,4,58.05,18 / 20,685314,2019-11-06 12:53:47:022,0.8052,4.4639,9.6186,-0.0323,0.0425,9.8065,0.2395,-0.5849,0.2622,-13.75,-42.37,-4.87,223.36,-82.03,168.41
53.051537,-1.781771,191.5,11.01,4,58.05,18 / 20,685414,2019-11-06 12:53:47:122,1.422,-0.4302,10.1828,-0.0179,0.0349,9.8065,-0.0238,-0.3806,0.2744,-13.37,-42.19,-5.12,221.71,-81.84,169.09
53.05222,-1.780762,193.21,13.53,4,50.78,18 / 19,685515,2019-11-06 12:53:47:223,-2.7648,-1.124,10.144,-0.0085,0.0758,9.8063,0.0253,-0.323,0.2543,-13.5,-42.31,-5.31,222.39,-81.89,169.88
53.05222,-1.780762,193.21,13.53,4,50.78,18 / 19,685614,2019-11-06 12:53:47:322,2.0324,-1.0998,11.2857,-0.02,0.0111,9.8066,0.129,-0.2288,-0.0391,-13.19,-42.5,-4.75,220.49,-81.52,168.07
53.05222,-1.780762,193.21,13.53,4,50.78,18 / 19,685714,2019-11-06 12:53:47:422,1.8327,1.1939,10.7852,0.0105,0.0243,9.8066,0.0981,-0.1898,-0.0656,-12.81,-42.62,-4.31,221.35,-81.17,166.92
53.05222,-1.780762,193.21,13.53,4,50.78,18 / 19,685815,2019-11-06 12:53:47:523,2.4671,-0.3198,10.9929,-0.0144,0.0377,9.8065,0.0964,-0.2739,0.1419,-12.94,-43.12,-4,219.61,-80.76,165.33
53.05222,-1.780762,193.21,13.53,4,50.78,18 / 19,685915,2019-11-06 12:53:47:623,-1.6558,-0.6048,10.0883,0.0204,0.0252,9.8066,0.1298,-0.0626,-0.0195,-13.37,-43.31,-3.44,221.91,-80.29,165.92
53.05222,-1.780762,193.21,13.53,4,50.78,18 / 19,686015,2019-11-06 12:53:47:723,0.0108,-1.8457,8.9928,0.0121,0.0463,9.8065,-0.0685,-0.1632,0.129,-13.06,-42.5,-2.31,224.3,-79.85,165.92
53.05222,-1.780762,193.21,13.53,4,50.78,18 / 19,686115,2019-11-06 12:53:47:823,-1.1105,-0.902,8.8781,0.0025,0.0324,9.8066,-0.2649,0.2613,-0.0867,-12.87,-42.87,-2.62,221.6,-80,166.13
53.05222,-1.780762,193.21,13.53,4,50.78,18 / 19,686215,2019-11-06 12:53:47:923,1.0699,1.4,9.8664,-0.0174,-0.0051,9.8066,-0.0673,0.0949,-0.2255,-13.06,-42.31,-3.31,220.78,-80.27,163.82
53.05222,-1.780762,193.21,13.53,4,50.78,18 / 19,686315,2019-11-06 12:53:48:023,3.5016,-4.9449,9.3401,0.0291,-0.0481,9.8065,0.0367,0.4608,-0.4291,-13.25,-42.56,-3.44,218.63,-80.27,161.22
53.05222,-1.780762,193.21,13.53,4,50.78,18 / 19,686414,2019-11-06 12:53:48:122,2.7632,-2.4904,8.6488,0.0045,-0.0003,9.8066,-0.0448,0.1102,-0.0795,-12.56,-43.06,-2.87,218.3,-80.13,161.02
53.05222,-1.780762,193.21,13.53,4,50.78,20 / 21,686514,2019-11-06 12:53:48:222,1.0962,-2.4787,11.4571,0.0351,-0.0139,9.8065,-0.0071,0.2326,-0.1242,-12.69,-42.87,-2.81,218.45,-79.96,161.58
53.05222,-1.780762,193.21,13.53,4,50.78,20 / 21,686614,2019-11-06 12:53:48:322,-0.2546,0.8888,8.3863,0.0302,0.0112,9.8066,-0.1156,0.3017,-0.1226,-12.56,-43.25,-2.44,221.13,-79.86,161.83
53.05222,-1.780762,193.21,13.53,4,50.78,20 / 21,686714,2019-11-06 12:53:48:422,2.2212,-3.7271,8.5039,0.036,0.0127,9.8065,-0.0248,-0.0564,0.012,-13.19,-43.19,-2.5,221.34,-79.82,162.22
53.05222,-1.780762,193.21,13.53,4,50.78,20 / 21,686814,2019-11-06 12:53:48:522,0.299,0.8931,10.0568,0.0074,-0.0598,9.8064,-0.0206,0.1233,-0.2299,-13.25,-43.81,-2.69,218.73,-79.66,163.16
53.05222,-1.780762,193.21,13.53,4,50.78,20 / 21,686914,2019-11-06 12:53:48:622,-0.2638,-1.1391,9.4543,-0.0165,-0.009,9.8065,0.0123,-0.2803,0.0635,-12.81,-42.56,-1.75,221.41,-79.87,162.23
53.05222,-1.780762,193.21,13.53,4,50.78,20 / 21,687014,2019-11-06 12:53:48:722,-0.0112,-1.8358,10.2196,-0.0002,0.0104,9.8065,-0.035,-0.2269,0.1197,-13.31,-42.81,-1.56,221.37,-79.97,161.94
53.05222,-1.780762,193.21,13.53,4,50.78,20 / 21,687115,2019-11-06 12:53:48:823,-0.3208,-0.5774,9.5604,-0.0096,0.0336,9.8065,-0.0071,-0.2632,0.1066,-13.44,-43.37,-2.06,220.79,-79.97,161.09
53.05222,-1.780762,193.21,13.53,4,50.78,20 / 21,687215,2019-11-06 12:53:48:923,1.0307,-4.0891,10.7203,-0.0017,0.0276,9.8066,0.0366,-0.151,0.0151,-13.31,-42.81,-2.19,220.49,-79.8,161.03
53.05222,-1.780762,193.21,13.53,4,50.78,20 / 21,687315,2019-11-06 12:53:49:023,1.7179,-1.644,11.0787,-0.0453,0.0358,9.8064,0.1406,-0.4609,0.1823,-12.87,-43.37,-2.25,220.09,-79.89,160.23
53.05222,-1.780762,193.21,13.53,4,50.78,20 / 21,687415,2019-11-06 12:53:49:123,-1.0994,-1.6726,10.058,0.0057,0.0196,9.8065,0.1461,-0.0643,-0.0012,-12.87,-43.19,-1.94,218.83,-79.68,158.8
53.05222,-1.780762,193.21,13.53,4,50.78,19 / 19,687515,2019-11-06 12:53:49:223,-1.1861,0.8563,9.6758,-0.0177,0.0012,9.8066,0.1403,-0.3395,0.0733,-12.81,-42.69,-1.56,218.69,-79.35,159.3
53.05222,-1.780762,193.21,13.53,4,50.78,19 / 19,687615,2019-11-06 12:53:49:323,0.2753,-0.6875,8.8539,0.0111,0.0397,9.8065,-0.1113,-0.2543,0.3486,-12.44,-43.06,-1.62,216.76,-79.27,159.07
53.05222,-1.780762,193.21,13.53,4,50.78,19 / 19,687714,2019-11-06 12:53:49:422,-0.9307,-0.0028,9.9556,-0.0066,0.0303,9.8065,-0.1551,-0.1379,0.2928,-13.19,-42.75,-1.87,219.33,-79.47,160.01
53.05222,-1.780762,193.21,13.53,4,50.78,19 / 19,687814,2019-11-06 12:53:49:522,-0.082,-0.9252,9.5996,-0.0065,-0.0135,9.8066,-0.0637,-0.1446,0.0405,-12.81,-43.5,-1.06,223.56,-79.87,161.26
53.05222,-1.780762,193.21,13.53,4,50.78,19 / 19,687914,2019-11-06 12:53:49:622,0.5532,1.0734,10.3646,0.0129,-0.0038,9.8065,-0.0788,0.1056,-0.0849,-13.06,-42.69,-1.19,223.87,-80.22,160.85
53.05222,-1.780762,193.21,13.53,4,50.78,19 / 19,688014,2019-11-06 12:53:49:722,0.1967,-1.3167,10.4612,-0.0004,0.0342,9.8066,0.0078,-0.0795,0.124,-13.19,-43,-1.12,223.55,-80.18,160.49
53.05222,-1.780762,193.21,13.53,4,50.78,19 / 19,688114,2019-11-06 12:53:49:822,1.8563,-2.0608,11.4295,0.0425,0.0027,9.8065,-0.0688,0.3294,-0.1458,-13.37,-43.5,-1.06,223.76,-80.01,161.22
53.05222,-1.780762,193.21,13.53,4,50.78,19 / 19,688214,2019-11-06 12:53:49:922,-3.6951,-1.1928,10.1859,0.0227,-0.0148,9.8066,0.031,0.3032,-0.2247,-13.12,-43.56,-0.75,223.57,-79.61,162.5
53.05222,-1.780762,193.21,13.53,4,50.78,19 / 19,688315,2019-11-06 12:53:50:023,1.3404,1.0697,10.1885,0.0074,-0.0451,9.8065,0.039,0.2324,-0.2695,-12.44,-43.37,-0.69,222.57,-79.6,162.93
53.05222,-1.780762,193.21,13.53,4,50.78,19 / 19,688415,2019-11-06 12:53:50:123,0.0465,3.2451,9.304,0.0365,0.0074,9.8065,0.0233,0.2262,0.0082,-13.25,-42.75,-1.06,223.85,-79.31,163.03
53.05222,-1.780762,193.21,13.53,4,50.78,18 / 20,688515,2019-11-06 12:53:50:223,1.7128,0.4554,9.9934,0.0076,0.0045,9.8066,0.0623,-0.0383,0.0561,-12.81,-42.81,-1.06,224.57,-79.15,164.53
53.05222,-1.780762,193.21,13.53,4,50.78,18 / 20,688614,2019-11-06 12:53:50:322,-0.5016,-0.6385,9.5554,0.0297,-0.0119,9.8065,0.0864,0.0956,0.0268,-12.69,-43.12,-0.87,225.17,-78.94,165.97
53.05222,-1.780762,193.21,13.53,4,50.78,18 / 20,688714,2019-11-06 12:53:50:422,-1.3516,1.1539,9.1418,-0.004,-0.0155,9.8065,0.0302,-0.2907,0.1574,-13.44,-43.06,-0.94,225.56,-78.76,167.03
53.05222,-1.780762,193.21,13.53,4,50.78,18 / 20,688814,2019-11-06 12:53:50:522,-2.4782,-0.4409,9.1257,-0.0084,-0.012,9.8066,-0.0787,-0.0453,0.2013,-13.5,-42.56,-0.69,226.94,-79.08,168.24
53.05222,-1.780762,193.21,13.53,4,50.78,18 / 20,688914,2019-11-06 12:53:50:622,0.3407,-0.8132,9.3651,-0.0543,-0.0389,9.8064,0.0531,-0.1208,0.1758,-13.56,-42.31,-1.37,231.69,-79.86,170.01
53.05222,-1.780762,193.21,13.53,4,50.78,18 / 20,689014,2019-11-06 12:53:50:722,1.0612,-1.796,10.4233,0.0085,-0.0246,9.8066,-0.0093,-0.0396,0.0018,-13.87,-42.75,-1.87,229.58,-79.96,171.3
53.05222,-1.780762,193.21,13.53,4,50.78,18 / 20,689115,2019-11-06 12:53:50:823,-0.5699,-2.0362,10.7984,-0.0017,0.0448,9.8065,-0.033,-0.1661,0.19,-13.81,-43.5,-1.81,229.44,-79.86,171.35
53.05222,-1.780762,193.21,13.53,4,50.78,18 / 20,689214,2019-11-06 12:53:50:922,0.4308,1.1554,11.1161,0.0163,0.0168,9.8066,-0.0499,-0.124,0.0159,-13.94,-42.37,-1.31,232.07,-79.73,170.85
53.05222,-1.780762,193.21,13.53,4,50.78,18 / 20,689314,2019-11-06 12:53:51:022,-1.679,0.7561,10.4821,-0.0071,0.0416,9.8064,-0.0511,-0.2871,0.075,-13.44,-42.56,-1.69,226.95,-79.71,170.72
53.05222,-1.780762,193.21,13.53,4,50.78,18 / 20,689414,2019-11-06 12:53:51:122,1.8721,-2.1996,10.4668,-0.0084,0.0416,9.8065,0.1543,-0.3436,0.2089,-13.31,-42.25,-0.94,228.51,-79.42,168.98
53.05222,-1.780762,193.21,13.53,4,50.78,18 / 20,689514,2019-11-06 12:53:51:222,-0.3582,-1.3093,9.7822,0.0021,0.0255,9.8065,0.0378,-0.1139,0.0935,-13.81,-42.87,-1.06,229.4,-79.14,169.26
53.05222,-1.780762,193.21,13.53,4,50.78,18 / 20,689614,2019-11-06 12:53:51:322,2.7176,-0.837,10.7976,-0.0223,0.022,9.8066,0.1248,-0.2318,0.0927,-13,-43.25,-1.56,224.47,-78.99,168.88
53.05222,-1.780762,193.21,13.53,4,50.78,18 / 20,689714,2019-11-06 12:53:51:422,-1.3471,-0.0839,10.3434,-0.0168,0.0045,9.8065,0.0424,0.1638,-0.0797,-13.12,-42.87,-1,226.44,-78.83,168.17
53.05222,-1.780762,193.21,13.53,4,50.78,18 / 20,689814,2019-11-06 12:53:51:522,-1.1934,-1.056,9.2889,0.0092,0.0124,9.8066,0.0084,0.0494,-0.0868,-12.44,-42.75,-1.06,223.67,-78.72,166.99
53.05222,-1.780762,193.21,13.53,4,50.78,18 / 20,689915,2019-11-06 12:53:51:623,-1.6696,-0.5877,10.2698,-0.006,-0.0098,9.8066,-0.1741,0.0416,-0.042,-12.87,-43.31,-1.06,224.67,-78.66,165.92
53.05222,-1.780762,193.21,13.53,4,50.78,18 / 20,690015,2019-11-06 12:53:51:723,1.8662,-1.7158,11.0956,-0.0523,0.0065,9.8064,0.0978,-0.2789,0.211,-13.06,-43.75,-0.5,227.05,-79.01,164.99
53.05222,-1.780762,193.21,13.53,4,50.78,18 / 20,690115,2019-11-06 12:53:51:823,-0.132,2.641,9.0774,-0.013,-0.0161,9.8066,-0.0747,0.0956,0.0772,-12.75,-42.87,-1.44,225.37,-79.09,165.89
53.05222,-1.780762,193.21,13.53,4,50.78,18 / 20,690215,2019-11-06 12:53:51:923,-2.4574,-0.6717,9.1257,-0.0087,-0.0332,9.8066,-0.0572,0.0929,0.0437,-13.62,-42.87,-0.69,228.97,-79.48,167.8
53.05222,-1.780762,193.21,13.53,4,50.78,18 / 20,690314,2019-11-06 12:53:52:022,-0.2259,0.7557,8.2295,0.0178,-0.0532,9.8064,-0.1001,0.2339,-0.2553,-13.06,-43.19,-1.69,225.34,-79.78,168.22
53.05222,-1.780762,193.21,13.53,4,50.78,18 / 20,690414,2019-11-06 12:53:52:122,-1.8118,-1.8346,10.6508,-0.0148,-0.0147,9.8066,0.1344,0.0157,-0.0432,-12.87,-43.5,-2.06,226.07,-79.98,168.77
53.05222,-1.780762,193.21,13.53,4,50.78,18 / 20,690514,2019-11-06 12:53:52:222,0.4351,0.1766,9.472,-0.0088,0.0183,9.8066,0.0037,0.0673,-0.1076,-12.87,-43.75,-1,227.56,-79.8,167.93
53.05222,-1.780762,193.21,13.53,4,50.78,18 / 20,690615,2019-11-06 12:53:52:323,-0.3534,3.457,11.0119,-0.039,0.0162,9.8065,0.1904,-0.1414,-0.0104,-12.25,-42.75,-0.62,225.56,-79.7,167.21
53.05222,-1.780762,193.21,13.53,4,50.78,18 / 20,690715,2019-11-06 12:53:52:423,-0.5144,-1.0152,11.6701,-0.0242,-0.0687,9.8064,0.2228,0.278,-0.2975,-12.81,-43.19,-1.19,225.8,-79.23,166.16
53.05222,-1.780762,193.21,13.53,4,50.78,18 / 20,690814,2019-11-06 12:53:52:522,1.1757,-0.578,9.2776,0.0059,0.0028,9.8066,-0.1114,-0.0809,0.0812,-12.37,-43.5,-1.31,224,-79.4,165.68
53.05222,-1.780762,193.21,13.53,4,50.78,18 / 20,690914,2019-11-06 12:53:52:622,0.4644,-2.2255,9.2899,-0.0092,-0.004,9.8066,0.0625,0.3204,-0.0552,-13.19,-43.44,-1.12,226.2,-79.47,166.15
53.05222,-1.780762,193.21,13.53,4,50.78,18 / 20,691014,2019-11-06 12:53:52:722,2.0224,-0.9468,8.8466,0.0001,-0.0081,9.8066,0.013,-0.0275,-0.0562,-12.81,-43.37,-0.94,226.15,-79.48,166.04
53.05222,-1.780762,193.21,13.53,4,50.78,18 / 20,691114,2019-11-06 12:53:52:822,-0.4251,0.0048,10.3535,0.017,-0.0492,9.8065,0.0686,0.0669,-0.1061,-12.19,-43.31,-0.75,225.31,-79.55,167.28
53.05222,-1.780762,193.21,13.53,4,50.78,18 / 20,691214,2019-11-06 12:53:52:922,-1.1054,-0.1633,9.6769,0.0194,0.0425,9.8065,-0.1597,-0.0352,0.1292,-13.19,-43.31,-1.5,227.23,-79.46,167.68
53.05222,-1.780762,193.21,13.53,4,50.78,18 / 20,691314,2019-11-06 12:53:53:022,-1.4192,0.6466,7.6981,0.018,-0.0402,9.8065,-0.1265,0.3308,-0.1957,-12.62,-44.06,-0.62,227.75,-79.59,168.76
53.05222,-1.780762,193.21,13.53,4,50.78,18 / 20,691414,2019-11-06 12:53:53:122,0.574,0.2327,8.8738,-0.0299,-0.0372,9.8064,-0.1687,0.0065,0.0555,-12.75,-43.31,-1.31,228.78,-79.7,169.3
53.05222,-1.780762,193.21,13.53,4,50.78,18 / 20,691514,2019-11-06 12:53:53:222,0.3422,-1.2122,9.9608,-0.0367,-0.0447,9.8064,-0.0351,-0.2129,0.1132,-13.31,-42.69,-1.37,230.96,-80.52,170.15
53.05222,-1.780762,193.21,13.53,4,50.78,18 / 20,691614,2019-11-06 12:53:53:322,-2.6204,-0.9449,9.5118,0.0041,0.0034,9.8066,0.123,-0.025,0.0086,-13.5,-43.56,-1.94,228,-80.52,170.7
53.05222,-1.780762,193.21,13.53,4,50.78,18 / 20,691714,2019-11-06 12:53:53:422,-1.4201,-1.1176,10.3004,0.0064,0.0083,9.8066,0.121,-0.0075,-0.0312,-13.06,-42.44,-0.56,231.48,-80.03,171.59
53.05222,-1.780762,193.21,13.53,4,50.78,18 / 20,691814,2019-11-06 12:53:53:522,0.8661,-1.362,9.8222,-0.0074,-0.0339,9.8065,0.0287,-0.0932,-0.0903,-13.94,-42.87,-0.5,235.69,-79.82,172.22
53.05222,-1.780762,193.21,13.53,4,50.78,18 / 20,691914,2019-11-06 12:53:53:622,1.471,-2.4848,11.1489,-0.0349,-0.0021,9.8066,0.1779,-0.2254,0.138,-13.75,-43.12,-0.37,234.74,-79.87,170.77
53.05222,-1.780762,193.21,13.53,4,50.78,18 / 20,692014,2019-11-06 12:53:53:722,-0.0844,-1.0471,8.4652,-0.0375,0.0021,9.8065,0.1013,0.0937,0.0941,-13.12,-43.31,-1.06,229.97,-79.65,171.16
53.05222,-1.780762,193.21,13.53,4,50.78,18 / 20,692115,2019-11-06 12:53:53:823,-0.6152,-1.1778,9.851,0.0233,0.0044,9.8066,-0.0532,0.0569,-0.0729,-13,-43.37,-0.5,232.59,-79.78,170.23
53.05222,-1.780762,193.21,13.53,4,50.78,18 / 20,692216,2019-11-06 12:53:53:924,-1.8486,-2.5363,9.7922,0.0111,0.0235,9.8066,0.0244,-0.0336,-0.0644,-13,-43.37,-0.62,229.45,-79.77,170.07
53.05222,-1.780762,193.21,13.53,4,50.78,18 / 20,692314,2019-11-06 12:53:54:022,-2.1369,-2.5087,9.693,0.0203,0.0347,9.8065,0.0251,-0.0698,-0.0019,-13.56,-43.31,-0.5,233.16,-79.6,169.36
53.05222,-1.780762,193.21,13.53,4,50.78,18 / 20,692415,2019-11-06 12:53:54:123,-0.5645,-0.2168,9.6637,-0.0177,-0.0296,9.8065,0.0412,0.0575,-0.0314,-13.19,-43.25,-0.62,228.04,-79.55,168.65
53.05222,-1.780762,193.21,13.53,4,50.78,18 / 20,692514,2019-11-06 12:53:54:222,-1.6597,-1.5621,9.4298,-0.0295,-0.0107,9.8066,-0.0263,-0.0118,0.107,-12.87,-43,-1.12,228.45,-79.89,168.32
53.05222,-1.780762,193.21,13.53,4,50.78,18 / 20,692614,2019-11-06 12:53:54:322,-1.0037,0.8891,8.7723,0.0146,-0.0278,9.8066,-0.0836,0.11,-0.0529,-12.56,-43.31,-1.62,226.7,-80.06,169.48
53.05222,-1.780762,193.21,13.53,4,50.78,18 / 20,692715,2019-11-06 12:53:54:423,-2.1147,-2.526,8.7176,0.0011,-0.071,9.8063,-0.0702,0.0316,-0.0701,-13.19,-43,-1.25,230.25,-80.25,169.9
53.05222,-1.780762,193.21,13.53,4,50.78,18 / 20,692815,2019-11-06 12:53:54:523,-2.9155,-0.0041,8.3063,-0.0014,-0.012,9.8066,-0.0781,0.1731,0.1382,-13.69,-43.19,-1.75,232.06,-80.76,172.67
53.05222,-1.780762,193.21,13.53,4,50.78,18 / 20,692915,2019-11-06 12:53:54:623,0.0135,-1.4524,9.7491,-0.0184,-0.0037,9.8066,-0.0564,-0.1244,0.2578,-13,-43.06,-2.12,232.8,-81.08,175.22
53.05222,-1.780762,193.21,13.53,4,50.78,18 / 20,693014,2019-11-06 12:53:54:722,-0.0581,-1.5353,9.5547,0.0435,-0.0199,9.8065,-0.0167,0.1772,-0.1309,-13.69,-43.31,-2.56,233.84,-81.2,177.55
53.05222,-1.780762,193.21,13.53,4,50.78,18 / 20,693114,2019-11-06 12:53:54:822,-2.5051,0.06,8.8476,0.0239,-0.0211,9.8065,0.0283,-0.1585,0.073,-13.62,-42.87,-2,236.59,-81.14,177.62
53.05222,-1.780762,193.21,13.53,4,50.78,18 / 20,693215,2019-11-06 12:53:54:923,-2.8607,-2.3513,8.7866,-0.0207,-0.0152,9.8065,0.0298,-0.1003,0.0018,-13.75,-43.31,-2.12,236.22,-81.38,176.5
53.05222,-1.780762,193.21,13.53,4,50.78,18 / 20,693315,2019-11-06 12:53:55:023,-1.211,-1.9898,10.7291,-0.0456,-0.0231,9.8065,0.0479,-0.2184,0.1126,-14.25,-42.81,-2.75,234.14,-81.72,176.61
53.05222,-1.780762,193.21,13.53,4,50.78,18 / 20,693415,2019-11-06 12:53:55:123,-1.211,-1.9898,10.7291,0.0123,0.012,9.8066,-0.1236,0.074,0.0377,-14.44,-42.81,-2.62,234.14,-81.72,176.61
53.05222,-1.780762,193.21,13.53,4,50.78,18 / 20,693515,2019-11-06 12:53:55:223,-1.211,-1.9898,10.7291,0.0123,0.012,9.8066,-0.1236,0.074,0.0377,-14.44,-42.81,-2.62,234.14,-81.72,176.61
53.05222,-1.780762,193.21,13.53,4,50.78,18 / 20,693615,2019-11-06 12:53:55:323,-2.6503,-1.8446,8.6905,-0.0156,-0.0199,9.8066,0.0653,-0.3129,0.1271,-14.37,-42.87,-2.44,236.75,-81.62,176.51
53.05222,-1.780762,193.21,13.53,4,50.78,18 / 20,693714,2019-11-06 12:53:55:422,-2.6503,-1.8446,8.6905,-0.0156,-0.0199,9.8066,0.0653,-0.3129,0.1271,-14.37,-42.87,-2.44,236.75,-81.62,176.51
53.05222,-1.780762,193.21,13.53,4,50.78,19 / 21,693814,2019-11-06 12:53:55:522,-3.632,1.2884,9.2254,0.0866,0.0661,9.806,-0.0101,0.4781,-0.3559,-15.25,-43,-0.75,243.54,-81.85,178.61
53.05222,-1.780762,193.21,13.53,4,50.78,19 / 21,693914,2019-11-06 12:53:55:622,-0.0884,-1.5123,9.8197,-0.0153,0.0239,9.8065,0.0449,-0.1224,0.014,-14.81,-43.44,-0.75,240.17,-81.16,176.32
53.05222,-1.780762,193.21,13.53,4,50.78,19 / 21,694014,2019-11-06 12:53:55:722,-0.8447,-6.5244,9.9097,0.0048,-0.0225,9.8066,-0.0895,0.1945,-0.1729,-14.69,-43.19,0.25,242.91,-81.24,175.74
53.05222,-1.780762,193.21,13.53,4,50.78,19 / 21,694114,2019-11-06 12:53:55:822,-2.5125,-0.6483,8.7123,-0.0127,-0.0017,9.8066,-0.0922,0.0676,-0.1687,-14.44,-42.37,0.19,242.03,-81.55,174.91
53.05222,-1.780762,193.21,13.53,4,50.78,19 / 21,694214,2019-11-06 12:53:55:922,-0.7837,-1.9862,9.4938,0.0057,-0.0361,9.8065,-0.0632,0.2064,-0.3247,-14.69,-42.81,0.38,241.95,-81.8,173.02
53.05222,-1.780762,193.21,13.53,4,50.78,19 / 21,694314,2019-11-06 12:53:56:022,-1.1536,1.3101,8.5195,-0.0013,-0.0006,9.8066,-0.1496,0.2632,-0.2044,-14.69,-42.94,0.63,243.04,-81.9,170.21
53.05222,-1.780762,193.21,13.53,4,50.78,19 / 21,694414,2019-11-06 12:53:56:122,-1.1036,-2.9061,10.1248,0.0084,-0.0116,9.8066,-0.0751,-0.0459,-0.005,-14.75,-42.19,0.88,242.02,-82.15,167.84
53.052845,-1.779166,198.65,12.43,8,66.38,18 / 20,694515,2019-11-06 12:53:56:223,0.1057,-1.4303,10.2937,0.0004,-0.0309,9.8065,0.0925,-0.0533,-0.1821,-13.56,-42.87,0.94,241.28,-82.26,168.34
53.052845,-1.779166,198.65,12.43,8,66.38,18 / 20,694614,2019-11-06 12:53:56:322,-2.5846,-3.9846,9.2193,0.014,-0.0278,9.8065,0.073,-0.1081,-0.0719,-14.56,-42.56,1.44,240.83,-82.03,167.19
53.052845,-1.779166,198.65,12.43,8,66.38,18 / 20,694714,2019-11-06 12:53:56:422,0.3196,-1.9973,9.5201,0.0171,0.0029,9.8066,-0.0196,-0.0343,0.0266,-14.62,-42.75,1.63,244.79,-81.86,168.5
53.052845,-1.779166,198.65,12.43,8,66.38,18 / 20,694814,2019-11-06 12:53:56:522,-0.9537,-2.0222,9.8092,-0.0048,0.0197,9.8066,-0.0134,-0.156,0.0581,-14.87,-42.75,1.81,244.45,-81.86,168.1
53.052845,-1.779166,198.65,12.43,8,66.38,18 / 20,694915,2019-11-06 12:53:56:623,-1.3732,-1.0476,9.5136,0.0044,-0.0081,9.8066,-0.0208,-0.0345,-0.1211,-14.25,-42.87,2,243.41,-81.86,167.89
53.052845,-1.779166,198.65,12.43,8,66.38,18 / 20,695014,2019-11-06 12:53:56:722,-1.2888,0.9545,9.6386,0.0108,0.0331,9.8065,0.068,-0.2436,0.1319,-14.5,-42.69,2.56,245.64,-81.79,166.52
53.052845,-1.779166,198.65,12.43,8,66.38,18 / 20,695114,2019-11-06 12:53:56:822,-1.5072,-0.7438,10.0759,0.0044,-0.0039,9.8066,0.052,-0.1896,0.0206,-14.44,-42.31,2.38,241.95,-81.56,166.39
53.052845,-1.779166,198.65,12.43,8,66.38,18 / 20,695214,2019-11-06 12:53:56:922,1.115,-1.8597,9.3493,0.0108,-0.0115,9.8066,0.0147,-0.1273,0.002,-14.62,-43,2.81,245.91,-81.52,166.81
53.052845,-1.779166,198.65,12.43,8,66.38,18 / 20,695314,2019-11-06 12:53:57:022,-0.6938,-2.5724,10.4969,-0.0034,-0.0131,9.8066,0.0835,-0.2013,0.0838,-14.44,-41.94,3.63,249.89,-81.46,167.7
53.052845,-1.779166,198.65,12.43,8,66.38,18 / 20,695414,2019-11-06 12:53:57:122,-0.6463,0.9245,9.9772,-0.0022,0.0306,9.8065,0.0035,-0.3242,0.1987,-14.62,-42.94,4.13,249.47,-81.31,167.65
53.052845,-1.779166,198.65,12.43,8,66.38,18 / 20,695514,2019-11-06 12:53:57:222,-0.7569,-3.3861,10.7036,-0.0402,0.0088,9.8065,0.1044,-0.5131,0.1905,-15.19,-42.44,3.5,250.9,-81.51,168.17
53.052845,-1.779166,198.65,12.43,8,66.38,18 / 20,695614,2019-11-06 12:53:57:322,-2.0923,1.337,9.2958,-0.0062,0.0116,9.8066,0.0633,-0.0724,-0.0402,-14.62,-42.5,3.56,251.36,-81.6,168.46
53.052845,-1.779166,198.65,12.43,8,66.38,18 / 20,695714,2019-11-06 12:53:57:422,-1.3407,-0.0048,10.5475,0.0042,0.0391,9.8065,0.0661,-0.3888,0.0901,-14.81,-42.69,4.63,252.87,-81.36,167.49
53.052845,-1.779166,198.65,12.43,8,66.38,18 / 20,695814,2019-11-06 12:53:57:522,-1.1996,2.4535,9.2735,0.0211,-0.043,9.8064,-0.0592,0.2352,-0.2959,-15.06,-42.62,4.38,249.11,-81.34,167.13
53.052845,-1.779166,198.65,12.43,8,66.38,18 / 20,695914,2019-11-06 12:53:57:622,1.3913,-0.8482,10.199,-0.0243,0.0341,9.8065,0.0468,-0.2083,0.0641,-14.12,-43.12,4.94,252.22,-81.34,167.16
53.052845,-1.779166,198.65,12.43,8,66.38,18 / 20,696014,2019-11-06 12:53:57:722,-0.5128,-6.8191,10.6042,0.0101,-0.0579,9.8064,-0.1664,0.527,-0.3139,-14.87,-42.56,5.06,254.33,-81.44,168.93
53.052845,-1.779166,198.65,12.43,8,66.38,18 / 20,696114,2019-11-06 12:53:57:822,-0.3568,3.942,9.3401,-0.0027,-0.0069,9.8066,0.0158,0.117,-0.2144,-14.75,-42.31,5.94,257.22,-81.54,167.42
53.052845,-1.779166,198.65,12.43,8,66.38,18 / 20,696214,2019-11-06 12:53:57:922,-0.4657,0.1936,9.8156,0.0276,-0.0745,9.8063,-0.0657,0.4908,-0.425,-15.19,-42,5.75,255.13,-81.39,165.5
53.052845,-1.779166,198.65,12.43,8,66.38,18 / 20,696314,2019-11-06 12:53:58:022,0.6496,-0.6126,10.3338,0.0068,-0.0133,9.8066,0.017,0.3396,-0.1905,-14.75,-42.62,6.06,255.67,-81.31,166.89
53.052845,-1.779166,198.65,12.43,8,66.38,18 / 20,696414,2019-11-06 12:53:58:122,-0.2109,-4.6095,9.8247,0.0167,-0.0624,9.8064,0.0299,0.188,-0.2926,-14.87,-42.81,6.69,257.64,-81.06,165.99
53.052845,-1.779166,198.65,12.43,8,66.38,18 / 19,696514,2019-11-06 12:53:58:222,1.2135,-0.16,10.2366,-0.0021,-0.0198,9.8066,0.0567,0.3379,-0.1478,-14.5,-42.44,7.56,262.51,-80.86,167.23
53.052845,-1.779166,198.65,12.43,8,66.38,18 / 19,696614,2019-11-06 12:53:58:322,0.2996,-2.2806,10.6848,0.0112,-0.001,9.8066,-0.0579,0.0504,-0.0084,-14.62,-43,6.88,258.14,-80.68,167.61
53.052845,-1.779166,198.65,12.43,8,66.38,18 / 19,696714,2019-11-06 12:53:58:422,0.1665,1.5272,9.8573,0.0106,-0.0471,9.8065,-0.0136,0.2065,-0.2562,-14.94,-42,7.44,259.35,-80.72,168.25
53.052845,-1.779166,198.65,12.43,8,66.38,18 / 19,696816,2019-11-06 12:53:58:524,0.1744,-2.6537,11.2072,0.0136,-0.0335,9.8065,0.0303,-0.0772,0.0619,-15.5,-42.37,8,262.26,-80.65,167.86
53.052845,-1.779166,198.65,12.43,8,66.38,18 / 19,696914,2019-11-06 12:53:58:622,0.9934,-0.428,9.044,0.0305,-0.0104,9.8066,-0.1418,0.0847,-0.0937,-15,-42.75,8.19,263.35,-80.55,169.9
53.052845,-1.779166,198.65,12.43,8,66.38,18 / 19,697015,2019-11-06 12:53:58:723,0.3267,-2.8009,9.7028,0.0258,0.0419,9.8065,-0.1464,-0.1445,0.1874,-14.87,-42.75,8.44,262.59,-80.77,168.46
53.052845,-1.779166,198.65,12.43,8,66.38,18 / 19,697114,2019-11-06 12:53:58:822,0.3944,3.8106,11.1234,-0.026,-0.0543,9.8064,0.0578,0.4646,-0.3674,-14.62,-42.19,8.06,263.38,-80.93,168.28
53.052845,-1.779166,198.65,12.43,8,66.38,18 / 19,697214,2019-11-06 12:53:58:922,-0.265,2.3766,9.5971,-0.0127,-0.0135,9.8066,0.028,-0.3182,0.0293,-14.5,-42.62,7.81,261.21,-80.91,166.28
53.052845,-1.779166,198.65,12.43,8,66.38,18 / 19,697314,2019-11-06 12:53:59:022,0.0442,3.757,9.9838,-0.0151,0.004,9.8065,-0.0268,0.199,0.1105,-15.12,-42.19,7.69,260.26,-80.78,165.34
53.052845,-1.779166,198.65,12.43,8,66.38,18 / 19,697415,2019-11-06 12:53:59:123,-0.1537,-0.4282,10.1389,-0.0009,0.0086,9.8066,-0.0248,-0.1333,0.3189,-14.94,-42,8.06,263.02,-80.94,167.86
53.052845,-1.779166,198.65,12.43,8,66.38,18 / 19,697515,2019-11-06 12:53:59:223,-1.3018,-1.7395,8.9688,-0.0096,-0.1002,9.8061,0.0201,-0.0172,-0.0519,-15.31,-42.81,8,266.93,-81.15,171.97
53.052845,-1.779166,198.65,12.43,8,66.38,18 / 19,697615,2019-11-06 12:53:59:323,-0.3333,0.6585,9.8753,-0.0333,-0.0325,9.8065,0.0309,0.1032,-0.0064,-15.75,-41.69,7.38,266.03,-81.34,173.78
53.052845,-1.779166,198.65,12.43,8,66.38,18 / 19,697715,2019-11-06 12:53:59:423,0.235,0.0762,9.1968,-0.0186,0.0086,9.8066,-0.0723,0.0117,-0.0053,-15.25,-41.81,7.5,272.5,-81.68,175.63
53.052845,-1.779166,198.65,12.43,8,66.38,18 / 19,697814,2019-11-06 12:53:59:522,-1.3218,-2.8564,9.8868,-0.0196,-0.0472,9.8065,-0.1025,0.4952,-0.3729,-15.06,-43.06,7.38,270.82,-81.98,177.27
53.052845,-1.779166,198.65,12.43,8,66.38,18 / 19,697915,2019-11-06 12:53:59:623,-2.01,-2.2282,9.2975,-0.0121,0.0066,9.8065,-0.1567,0.2774,-0.0938,-15.44,-42.37,7,270.05,-82.28,175.15
53.052845,-1.779166,198.65,12.43,8,66.38,18 / 19,698014,2019-11-06 12:53:59:722,1.0204,-1.6171,10.2154,-0.0138,-0.0633,9.8064,-0.1785,0.5729,-0.2729,-15.81,-42.44,6.13,266.64,-82.73,174.3
53.052845,-1.779166,198.65,12.43,8,66.38,18 / 19,698114,2019-11-06 12:53:59:822,-3.0059,5.3601,9.1186,-0.0187,-0.0329,9.8066,-0.135,0.4207,-0.2412,-16.62,-42.12,6,270.37,-83.24,176.96
53.052845,-1.779166,198.65,12.43,8,66.38,18 / 19,698214,2019-11-06 12:53:59:922,-1.2207,-0.8162,10.3243,0.0096,-0.0673,9.8063,-0.048,0.2868,-0.1634,-15.5,-42.19,6.5,275,-83.47,176.83
53.052845,-1.779166,198.65,12.43,8,66.38,18 / 19,698314,2019-11-06 12:54:00:022,-0.763,2.5925,9.2936,0.0187,-0.0126,9.8065,-0.0655,0.461,-0.0882,-16,-42.19,5.94,273.67,-83.41,179.61
53.052845,-1.779166,198.65,12.43,8,66.38,18 / 19,698414,2019-11-06 12:54:00:122,-1.4887,1.6423,10.0863,-0.0039,0.009,9.8066,-0.0304,-0.1846,0.0805,-15.75,-42.19,5.81,272.48,-83.37,178.52
53.052845,-1.779166,198.65,12.43,8,66.38,18 / 20,698514,2019-11-06 12:54:00:222,1.6498,2.9186,9.8847,0.0114,-0.0322,9.8065,0.0381,-0.0499,0.1948,-15.75,-42.69,6.13,273.45,-83.22,-179.71
53.052845,-1.779166,198.65,12.43,8,66.38,18 / 20,698614,2019-11-06 12:54:00:322,0.2505,1.5711,8.9009,0.0234,-0.0112,9.8066,0.0851,-0.4892,0.4916,-15.31,-41.87,6.31,271.11,-83.09,177.67
53.052845,-1.779166,198.65,12.43,8,66.38,18 / 20,698715,2019-11-06 12:54:00:423,-1.4691,-2.8353,10.5719,-0.002,-0.0539,9.8065,0.0166,-0.2957,-0.0105,-16.19,-42.37,6.38,270.38,-83.43,176.26
53.052845,-1.779166,198.65,12.43,8,66.38,18 / 20,698814,2019-11-06 12:54:00:522,-0.7136,1.6036,10.2375,-0.0047,-0.007,9.8066,0.0902,-0.1184,-0.0286,-15.62,-42.5,6.19,274.01,-83.67,179.27
53.052845,-1.779166,198.65,12.43,8,66.38,18 / 20,698914,2019-11-06 12:54:00:622,-1.5945,-1.4417,9.5427,0.0079,-0.0096,9.8066,-0.0074,-0.0961,0.1618,-16,-42.31,5.56,274.58,-83.84,179.38
53.052845,-1.779166,198.65,12.43,8,66.38,18 / 20,699014,2019-11-06 12:54:00:722,0.2904,-0.6246,9.9311,-0.0066,-0.005,9.8066,-0.0419,0.1166,-0.0604,-15.75,-42.5,5.25,270.79,-83.87,179.05
53.052845,-1.779166,198.65,12.43,8,66.38,18 / 20,699114,2019-11-06 12:54:00:822,-0.7694,-2.3113,10.3393,-0.0025,0.0115,9.8066,0.0014,-0.0051,-0.0179,-15.5,-42.31,4.94,271,-83.94,178.95
53.052845,-1.779166,198.65,12.43,8,66.38,18 / 20,699214,2019-11-06 12:54:00:922,-1.6003,-1.5395,9.5495,-0.0171,0.0305,9.8065,-0.0231,0.1932,-0.0998,-15.19,-42.94,5.5,273.53,-84.02,177.91
53.052845,-1.779166,198.65,12.43,8,66.38,18 / 20,699314,2019-11-06 12:54:01:022,-0.1967,1.0735,9.0359,-0.0255,-0.0005,9.8065,-0.0275,0.2116,-0.0811,-15.56,-43,5.63,272.43,-83.96,177.33
53.052845,-1.779166,198.65,12.43,8,66.38,18 / 20,699414,2019-11-06 12:54:01:122,-2.2907,-2.2159,9.1545,-0.0049,-0.0108,9.8066,-0.0836,-0.1654,0.0956,-15.56,-41.62,4.75,272.22,-84.25,179.48
53.052845,-1.779166,198.65,12.43,8,66.38,19 / 19,699514,2019-11-06 12:54:01:222,-1.133,-1.7559,10.3141,-0.0139,-0.0224,9.8066,0.0476,-0.1751,0.0705,-15.37,-42.75,4.81,273.22,-84.62,179.61
53.052845,-1.779166,198.65,12.43,8,66.38,19 / 19,699615,2019-11-06 12:54:01:323,-1.4791,-0.1562,9.5098,-0.0053,-0.0022,9.8066,0.0247,0.0894,-0.011,-16.25,-41.62,4.19,270.95,-84.96,179.91
53.052845,-1.779166,198.65,12.43,8,66.38,19 / 19,699714,2019-11-06 12:54:01:422,-2.2903,2.5618,9.555,0.0108,-0.0076,9.8066,-0.0214,0.3188,-0.1358,-14.94,-42.44,4.5,276.09,-85.02,-179.01
53.052845,-1.779166,198.65,12.43,8,66.38,19 / 19,699814,2019-11-06 12:54:01:522,-0.9576,-0.8652,10.5997,-0.001,0.0338,9.8066,0.0074,-0.158,0.0028,-16.31,-42.56,4.75,274.33,-84.82,-179.61
53.052845,-1.779166,198.65,12.43,8,66.38,19 / 19,699914,2019-11-06 12:54:01:622,-1.0715,-1.3911,9.2225,-0.0091,-0.0184,9.8065,-0.0549,0.0032,0.1446,-15.75,-42.75,4.63,273.73,-84.7,-179.88
53.052845,-1.779166,198.65,12.43,8,66.38,19 / 19,700014,2019-11-06 12:54:01:722,0.4394,-0.3841,9.1935,-0.0076,-0.005,9.8066,-0.0122,-0.0634,0.1636,-15.31,-42.25,4,270,-84.75,179.45
53.052845,-1.779166,198.65,12.43,8,66.38,19 / 19,700114,2019-11-06 12:54:01:822,-1.2138,-0.4747,9.6456,-0.0189,-0.0107,9.8066,-0.0731,-0.0568,-0.0653,-16.5,-42.87,4.25,269.98,-84.88,179.46
53.052845,-1.779166,198.65,12.43,8,66.38,19 / 19,700215,2019-11-06 12:54:01:923,-1.9286,1.4095,9.8567,-0.0139,-0.015,9.8066,-0.0529,-0.1496,0.0848,-15.62,-43,4.13,272.3,-85.16,-178.99
53.052845,-1.779166,198.65,12.43,8,66.38,19 / 19,700315,2019-11-06 12:54:02:023,-1.4127,-1.7847,10.2724,-0.001,-0.0329,9.8066,0.0105,-0.0238,0.0798,-15.56,-42,3.5,274.57,-85.32,-177.47
53.052845,-1.779166,198.65,12.43,8,66.38,19 / 19,700415,2019-11-06 12:54:02:123,-1.3904,-0.2525,9.7798,0.0152,0.0037,9.8066,0.045,-0.1565,0.0305,-15.44,-42.94,3.69,272.05,-85.3,-179.71
53.052845,-1.779166,198.65,12.43,8,66.38,20 / 22,700515,2019-11-06 12:54:02:223,-1.6241,-1.6402,9.3415,-0.0051,-0.0008,9.8065,0.0171,-0.2089,0.1146,-15.56,-42.87,4.25,270.4,-85.28,178.8
53.052845,-1.779166,198.65,12.43,8,66.38,20 / 22,700615,2019-11-06 12:54:02:323,-1.4108,2.0182,9.334,-0.0074,-0.0196,9.8065,0.0053,0.0725,-0.0224,-15.37,-43,3.75,269.44,-85.36,177.5
53.052845,-1.779166,198.65,12.43,8,66.38,20 / 22,700714,2019-11-06 12:54:02:422,-1.6253,-2.7853,9.5618,-0.0117,0.0131,9.8066,-0.0144,-0.2503,0.1308,-15.5,-43.06,3.81,267.59,-85.48,175.3
53.052845,-1.779166,198.65,12.43,8,66.38,20 / 22,700814,2019-11-06 12:54:02:522,-2.9314,1.3143,9.5404,-0.0184,-0.0442,9.8065,-0.0907,0.4372,-0.2187,-15.37,-42.81,3.19,266.94,-85.63,178.01
53.052845,-1.779166,198.65,12.43,8,66.38,20 / 22,700915,2019-11-06 12:54:02:623,-3.3539,3.6914,8.9164,-0.0259,0.0453,9.8065,-0.0262,0.0713,-0.0187,-14.94,-42.62,3.19,267.31,-85.8,177.89
53.052845,-1.779166,198.65,12.43,8,66.38,20 / 22,701015,2019-11-06 12:54:02:723,-3.3212,2.7556,9.5141,-0.0152,0.0039,9.8066,-0.0881,0.5016,-0.2213,-14.94,-42.75,3.81,269.24,-86.01,175.46
53.052845,-1.779166,198.65,12.43,8,66.38,20 / 22,701114,2019-11-06 12:54:02:822,-4.1094,3.3875,9.2568,-0.027,0.0481,9.8064,-0.0401,0.3471,-0.149,-15,-43.19,2.94,266.35,-86.03,176.25
53.052845,-1.779166,198.65,12.43,8,66.38,20 / 22,701215,2019-11-06 12:54:02:923,-3.2845,-1.2582,9.3653,0.0008,0.0229,9.8066,0.0192,0.3113,-0.0786,-15.19,-42.75,2.63,264.57,-86.14,174.12
53.052845,-1.779166,198.65,12.43,8,66.38,20 / 22,701316,2019-11-06 12:54:03:024,-3.8783,1.6278,9.3827,0.0067,0.0075,9.8066,0.0188,0.3909,-0.1296,-15.12,-43.5,2.19,264.18,-86.14,177.56
53.052845,-1.779166,198.65,12.43,8,66.38,20 / 22,701415,2019-11-06 12:54:03:123,-3.738,-1.9532,9.9048,-0.0212,0.0017,9.8066,0.011,0.0709,0.0418,-14.5,-43,1.38,263.77,-86.26,-178.84
53.052845,-1.779166,198.65,12.43,8,66.38,20 / 20,701515,2019-11-06 12:54:03:223,-2.4737,-0.359,9.8375,0.0029,-0.0194,9.8066,0.0034,0.1996,-0.029,-15.37,-42.56,1.69,272.14,-86.3,-174.88
53.052845,-1.779166,198.65,12.43,8,66.38,20 / 20,701614,2019-11-06 12:54:03:322,-2.5262,-1.0857,10.0233,-0.0043,0.0029,9.8066,0.0467,-0.016,0.0287,-15.37,-42.44,2.31,275.79,-86.31,-171.53
53.052845,-1.779166,198.65,12.43,8,66.38,20 / 20,701714,2019-11-06 12:54:03:422,-1.8615,0.398,9.372,0.0043,-0.0043,9.8066,-0.0235,0.1215,-0.0354,-15.87,-43.56,1.63,275.93,-86.29,-171.05
53.052845,-1.779166,198.65,12.43,8,66.38,20 / 20,701814,2019-11-06 12:54:03:522,-1.5603,1.1491,9.4132,-0.0177,-0.001,9.8066,-0.0087,-0.0602,0.0844,-15,-42.69,1.63,276.39,-86.37,-170.87
53.052845,-1.779166,198.65,12.43,8,66.38,20 / 20,701914,2019-11-06 12:54:03:622,-2.1723,0.6958,9.8137,-0.0072,-0.0247,9.8066,-0.0032,0.0714,0.0053,-16.19,-43.19,1.06,276.76,-86.35,-167.02
53.052845,-1.779166,198.65,12.43,8,66.38,20 / 20,702014,2019-11-06 12:54:03:722,-2.2164,0.2286,9.7719,0.0015,-0.0085,9.8066,0.0538,0.0147,0.0285,-15.5,-42.81,1.81,282.43,-86.36,-164.97
53.052845,-1.779166,198.65,12.43,8,66.38,20 / 20,702115,2019-11-06 12:54:03:823,-0.999,-0.8971,9.4785,0.0073,-0.0171,9.8066,-0.0193,-0.0749,0.0982,-15.56,-42.25,1.44,281.36,-86.3,-162.64
53.052845,-1.779166,198.65,12.43,8,66.38,20 / 20,702215,2019-11-06 12:54:03:923,-1.1589,0.7318,10.0638,0.0063,-0.0323,9.8066,0.0389,-0.0133,0.0028,-15.37,-42.69,1.75,287.67,-86.15,-159.4
53.052845,-1.779166,198.65,12.43,8,66.38,20 / 20,702315,2019-11-06 12:54:04:023,-0.5404,-1.9646,9.8026,0.0062,-0.0024,9.8066,0.0025,-0.1416,0.1081,-15.44,-42.44,1.25,283.54,-86.26,-160.02
53.052845,-1.779166,198.65,12.43,8,66.38,20 / 20,702415,2019-11-06 12:54:04:123,-0.6207,-0.2281,9.5397,0,-0.0126,9.8066,-0.032,0.1628,-0.1141,-15.75,-42.5,2.56,291.07,-86.3,-160.55
53.052845,-1.779166,198.65,12.43,8,66.38,19 / 20,702514,2019-11-06 12:54:04:222,-0.6584,-1.355,9.9436,-0.0158,0.0203,9.8066,0.0008,-0.0329,0.0416,-15.94,-42.69,2.25,286.31,-86.5,-161.77
53.052845,-1.779166,198.65,12.43,8,66.38,19 / 20,702615,2019-11-06 12:54:04:323,-1.0292,-0.338,9.8762,-0.0042,-0.0167,9.8066,-0.0319,0.1416,-0.0244,-16.25,-42.69,2.56,292.31,-86.48,-159.63
53.052845,-1.779166,198.65,12.43,8,66.38,19 / 20,702714,2019-11-06 12:54:04:422,-1.1608,0.9762,9.7069,-0.0123,0.0087,9.8066,-0.0063,0.0637,-0.0399,-15.94,-42.69,2.88,294.59,-86.49,-157.52
53.052845,-1.779166,198.65,12.43,8,66.38,19 / 20,702814,2019-11-06 12:54:04:522,-0.545,0.1048,9.8941,-0.0006,0.006,9.8066,0.0248,0.124,-0.1393,-16.25,-42.56,1.88,292.61,-86.54,-155.92
53.052845,-1.779166,198.65,12.43,8,66.38,19 / 20,702914,2019-11-06 12:54:04:622,-0.5788,0.8418,9.5032,-0.0026,0.0235,9.8065,-0.0161,0.1224,-0.0522,-16.75,-42.94,2.38,291.79,-86.66,-157.06
53.052845,-1.779166,198.65,12.43,8,66.38,19 / 20,703014,2019-11-06 12:54:04:722,-0.3254,-0.3053,9.8199,-0.012,0.0221,9.8066,-0.0027,-0.0048,-0.0254,-15.75,-42.94,1.94,290.69,-86.75,-158.25
53.052845,-1.779166,198.65,12.43,8,66.38,19 / 20,703114,2019-11-06 12:54:04:822,-0.5052,0.7871,9.8361,-0.0008,0.0074,9.8066,0.0143,0.0439,-0.0594,-16.12,-42.81,1.56,289.78,-86.75,-159.14
53.052845,-1.779166,198.65,12.43,8,66.38,19 / 20,703215,2019-11-06 12:54:04:923,-0.4571,-0.4069,9.763,-0.0025,0.0055,9.8066,0.0044,-0.0655,0.0236,-16.25,-42.75,2.13,289.99,-86.79,-159.02
53.052845,-1.779166,198.65,12.43,8,66.38,19 / 20,703314,2019-11-06 12:54:05:022,-0.4768,-0.5165,9.919,-0.0007,-0.0063,9.8066,0.0031,-0.0256,0.0027,-16.56,-42.25,2.25,290.99,-86.84,-158.43
53.052845,-1.779166,198.65,12.43,8,66.38,19 / 20,703415,2019-11-06 12:54:05:123,-0.711,-0.3143,9.8264,-0.0033,-0.0022,9.8066,-0.0031,-0.0709,0.0464,-16.06,-42.69,2.19,291.73,-86.9,-157.65
53.052956,-1.778318,203.98,0,4,69.25,19 / 19,703514,2019-11-06 12:54:05:222,-0.6122,0.1148,9.8279,-0.0035,0.0097,9.8066,-0.0073,-0.0507,0.0144,-16.75,-43,2.25,291.6,-86.95,-157.93
53.052956,-1.778318,203.98,0,4,69.25,19 / 19,703614,2019-11-06 12:54:05:322,-0.6067,0.6472,9.6112,-0.0062,0.0114,9.8066,0.0019,-0.0517,0.0173,-15.87,-42.56,2.06,292.06,-87.01,-157.64
53.052956,-1.778318,203.98,0,4,69.25,19 / 19,703714,2019-11-06 12:54:05:422,-0.4777,-0.1709,9.8417,-0.0099,0.0112,9.8066,0.0122,-0.0646,0.0323,-16.25,-42.37,1.69,291.5,-87.15,-158.68
53.052956,-1.778318,203.98,0,4,69.25,19 / 19,703815,2019-11-06 12:54:05:523,-0.0499,0.4546,9.7069,0.0013,0.0027,9.8066,-0.0102,0.0066,0.0111,-16.44,-43,2.38,291.39,-87.19,-158.71
53.052956,-1.778318,203.98,0,4,69.25,19 / 19,703915,2019-11-06 12:54:05:623,0.3083,-0.4425,9.8241,-0.0035,0.0098,9.8066,0.0193,-0.0526,0.0326,-17,-42.19,1.88,291.8,-87.22,-158.54
53.052956,-1.778318,203.98,0,4,69.25,19 / 19,704014,2019-11-06 12:54:05:722,0.1759,-0.1734,9.8782,-0.0032,0.0005,9.8066,-0.0175,0.054,-0.0224,-16.06,-42.5,2.69,295.93,-87.26,-158.28
53.052956,-1.778318,203.98,0,4,69.25,19 / 19,704114,2019-11-06 12:54:05:822,0.4054,-0.607,9.9045,-0.0098,0.0072,9.8066,-0.0008,-0.0092,0.0131,-16.44,-42.31,1.81,292.57,-87.38,-158.22
53.052956,-1.778318,203.98,0,4,69.25,19 / 19,704214,2019-11-06 12:54:05:922,0.5894,0.0073,9.9483,-0.003,-0.0034,9.8066,-0.0033,0.0762,-0.0422,-16.25,-42.69,2.06,293.09,-87.48,-157.82
53.052956,-1.778318,203.98,0,4,69.25,19 / 19,704315,2019-11-06 12:54:06:023,0.8518,0.3622,9.7119,-0.0012,0.0062,9.8066,-0.0003,0.0105,-0.0043,-16.06,-42.31,1.94,292.57,-87.54,-158.61
53.052956,-1.778318,203.98,0,4,69.25,19 / 19,704415,2019-11-06 12:54:06:123,1.3464,0.1019,9.8442,0.0006,-0.0037,9.8066,-0.0035,0.0771,-0.0323,-16.56,-42.37,1.88,291.93,-87.6,-159.28
53.052956,-1.778318,203.98,0,4,69.25,18 / 19,704514,2019-11-06 12:54:06:222,1.5754,0.0254,9.8126,0.0002,-0.0002,9.8066,0.0027,0.0485,-0.0142,-15.75,-42.25,1.75,291.7,-87.62,-159.63
53.052956,-1.778318,203.98,0,4,69.25,18 / 19,704614,2019-11-06 12:54:06:322,1.667,-0.675,9.8627,-0.0001,-0.0064,9.8066,-0.0025,0.0485,-0.0316,-15.75,-42.19,1.81,290.97,-87.62,-160.33
53.052956,-1.778318,203.98,0,4,69.25,18 / 19,704714,2019-11-06 12:54:06:422,0.0079,-0.0238,9.5899,-0.003,-0.0015,9.8066,-0.0205,0.0742,-0.0488,-15.56,-42.75,2,291.37,-87.68,-159.96
53.052956,-1.778318,203.98,0,4,69.25,18 / 19,704814,2019-11-06 12:54:06:522,0.7477,-0.5083,10.0231,-0.0025,-0.004,9.8066,-0.0098,0.0333,-0.0368,-16,-42.44,2.13,290.71,-87.78,-160.98
53.052956,-1.778318,203.98,0,4,69.25,18 / 19,704915,2019-11-06 12:54:06:623,0.852,0.3477,10.144,-0.002,-0.0052,9.8066,0.003,0.0604,-0.0356,-16,-42.81,1.94,290.16,-87.82,-161.48
53.052956,-1.778318,203.98,0,4,69.25,18 / 19,705015,2019-11-06 12:54:06:723,0.5611,-0.3953,9.7795,-0.0037,-0.0032,9.8066,-0.0071,0.0135,-0.0003,-16.19,-42.25,1.5,289.76,-87.87,-162.12
53.052956,-1.778318,203.98,0,4,69.25,18 / 19,705115,2019-11-06 12:54:06:823,0.7162,0.1991,9.7936,0.0005,-0.0084,9.8066,-0.0066,0.0389,-0.0234,-16,-42,0.88,287.42,-87.9,-160.9
53.052956,-1.778318,203.98,0,4,69.25,18 / 19,705215,2019-11-06 12:54:06:923,0.6657,-0.1714,9.8055,-0.0041,0.0006,9.8066,0.0071,-0.0165,0.0056,-15.94,-42.19,1.31,287.23,-87.92,-161.12
53.052956,-1.778318,203.98,0,4,69.25,18 / 19,705315,2019-11-06 12:54:07:023,0.5867,0.3234,9.7677,-0.0031,-0.0032,9.8066,0.0001,0.0365,-0.0219,-15.69,-41.94,1.69,290.96,-87.98,-161.22
53.052956,-1.778318,203.98,0,4,69.25,18 / 19,705414,2019-11-06 12:54:07:122,0.6818,-0.2075,9.8171,-0.0035,0.0041,9.8066,0.0112,-0.0495,0.0182,-15.69,-41.5,1.06,286.46,-88.03,-162.28
53.052956,-1.778318,203.98,0,4,69.25,18 / 19,705515,2019-11-06 12:54:07:223,0.7668,-0.3485,9.9203,-0.0023,-0.0039,9.8066,0.009,-0.0038,-0.0104,-16,-41.69,1.06,286.85,-88.04,-161.81
53.052956,-1.778318,203.98,0,4,69.25,18 / 19,705615,2019-11-06 12:54:07:323,0.6816,-0.417,9.8001,-0.0031,0.0065,9.8066,-0.0035,-0.0342,0.0326,-16.37,-41.62,0.75,286.9,-88.06,-161.81
53.052956,-1.778318,203.98,0,4,69.25,18 / 19,705715,2019-11-06 12:54:07:423,0.7323,-0.2855,9.9581,-0.0035,0.0017,9.8066,0.0151,-0.0277,0.0073,-15.12,-41.75,1.06,286.54,-88.12,-162.22
53.052956,-1.778318,203.98,0,4,69.25,18 / 19,705815,2019-11-06 12:54:07:523,0.8008,0.2779,9.8408,-0.0042,0.0073,9.8066,-0.0036,-0.0298,0.0209,-14.81,-41.37,0.56,286.59,-88.14,-162.35
53.052956,-1.778318,203.98,0,4,69.25,18 / 19,705915,2019-11-06 12:54:07:623,0.6775,-0.3017,9.7967,-0.0003,0.0032,9.8066,-0.0049,-0.035,0.0154,-13.87,-40.25,1.25,285.64,-88.2,-163.48
53.052956,-1.778318,203.98,0,4,69.25,18 / 19,706015,2019-11-06 12:54:07:723,0.7689,0.119,9.8116,-0.003,0.0066,9.8066,-0.005,0.0086,0.0069,-13.87,-39.37,2.25,289.43,-88.28,-164.22
53.052956,-1.778318,203.98,0,4,69.25,18 / 19,706115,2019-11-06 12:54:07:823,0.8758,-0.2689,9.9206,-0.0065,0.0071,9.8066,0.0138,-0.0272,0.0118,-13.81,-39.06,3.06,293.52,-88.35,-164.44
53.052956,-1.778318,203.98,0,4,69.25,18 / 19,706215,2019-11-06 12:54:07:923,0.7167,0.0048,9.8019,-0.0056,0.0008,9.8066,-0.0043,0.015,-0.0261,-13.19,-38.75,3.5,298.25,-88.41,-164.82
53.052956,-1.778318,203.98,0,4,69.25,18 / 19,706315,2019-11-06 12:54:08:023,0.8403,-0.3956,9.8611,-0.003,0.0059,9.8066,-0.0082,0,0.0113,-14.37,-38.06,5.94,304.73,-88.5,-165.38
53.052956,-1.778318,203.98,0,4,69.25,18 / 19,706415,2019-11-06 12:54:08:123,0.6607,-0.7208,9.9062,-0.0049,-0.0001,9.8066,-0.004,0.029,-0.0167,-16.56,-38,7.19,305.15,-88.57,-164.79
53.052956,-1.778318,203.98,0,4,69.25,19 / 19,706514,2019-11-06 12:54:08:222,0.6561,-0.6757,9.9158,-0.0012,0.0037,9.8066,-0.0177,0.0269,0,-18.5,-38.44,7.13,303.55,-88.64,-165.46
53.052956,-1.778318,203.98,0,4,69.25,19 / 19,706615,2019-11-06 12:54:08:323,0.5513,-0.3449,9.8433,-0.0028,0.0012,9.8066,0.0005,0.0332,-0.0062,-21.44,-37.62,6.19,298.66,-88.72,-165.32
53.052956,-1.778318,203.98,0,4,69.25,19 / 19,706715,2019-11-06 12:54:08:423,0.9422,-0.0613,9.8572,-0.0031,-0.0008,9.8066,-0.0004,0.0113,-0.0228,-23.5,-38,4.69,295.14,-88.76,-165.3
53.052956,-1.778318,203.98,0,4,69.25,19 / 19,706814,2019-11-06 12:54:08:522,0.7201,-0.2202,9.8212,-0.0027,-0.0048,9.8066,-0.0103,0.008,-0.0166,-24.31,-37.81,3.44,289.16,-88.81,-166.2
53.052956,-1.778318,203.98,0,4,69.25,19 / 19,706914,2019-11-06 12:54:08:622,0.4455,0.1068,9.9143,-0.0044,-0.0001,9.8066,0.0236,0.048,-0.0193,-23.62,-38.5,1.19,286.21,-88.88,-164.46
53.052956,-1.778318,203.98,0,4,69.25,19 / 19,707014,2019-11-06 12:54:08:722,1.8251,-0.2146,9.7968,0.0001,-0.002,9.8066,0.029,0.0069,-0.0142,-22.5,-39.19,0.5,285.01,-88.89,-165.69
53.052956,-1.778318,203.98,0,4,69.25,19 / 19,707114,2019-11-06 12:54:08:822,1.87,-0.0093,10.1425,-0.0075,-0.0071,9.8066,-0.0043,0.0201,-0.0035,-21.12,-39.37,0.38,282.46,-88.92,-165.58
53.052956,-1.778318,203.98,0,4,69.25,19 / 19,707214,2019-11-06 12:54:08:922,1.3631,-0.8281,9.9821,0.0203,-0.0009,9.8065,0.074,-0.071,0.0338,-18.31,-40.25,1.31,286.77,-88.8,-163.85
53.052956,-1.778318,203.98,0,4,69.25,19 / 19,707314,2019-11-06 12:54:09:022,4.4596,-1.3866,10.0966,0.0289,-0.0095,9.8066,0.104,-0.0382,0.0196,-17.75,-41,1.63,288.32,-88.44,-164.66
53.052956,-1.778318,203.98,0,4,69.25,19 / 19,707414,2019-11-06 12:54:09:122,3.5332,-2.0501,9.8325,0.0155,0,9.8066,0.0122,-0.2463,0.0568,-17.25,-41.75,2.25,286.91,-88.08,-165.28
53.052956,-1.778318,203.98,0,4,69.25,18 / 19,707514,2019-11-06 12:54:09:222,5.1087,-2.0488,9.4127,0.0037,-0.0057,9.8066,-0.0216,-0.228,0.0462,-16.31,-41.87,2.81,291.46,-87.93,-164.16
53.052956,-1.778318,203.98,0,4,69.25,18 / 19,707614,2019-11-06 12:54:09:322,4.7405,-0.6769,9.1282,-0.0173,0.0155,9.8066,0.0838,-0.2873,0.0134,-15.31,-41.87,3.25,294.32,-88,-161.96
53.052956,-1.778318,203.98,0,4,69.25,18 / 19,707714,2019-11-06 12:54:09:422,1.9702,-1.649,9.5408,0.0188,0.0143,9.8066,-0.0341,-0.351,0.1022,-15.75,-41.56,3.25,289.37,-88.02,-166.42
53.052956,-1.778318,203.98,0,4,69.25,18 / 19,707814,2019-11-06 12:54:09:522,2.2323,-0.5015,10.0855,0.0047,0.016,9.8066,0.0279,-0.4058,0.0146,-15.5,-41.69,4.31,293.03,-88.07,-167.06
53.052956,-1.778318,203.98,0,4,69.25,18 / 19,707914,2019-11-06 12:54:09:622,2.7879,-2.9723,10.6582,-0.0049,0.0427,9.8065,0.0813,-0.4913,0.1203,-15.19,-42.25,6.13,295.51,-88.09,-171.8
53.052956,-1.778318,203.98,0,4,69.25,18 / 19,708015,2019-11-06 12:54:09:723,3.3741,-0.0239,9.4992,0.0081,0.024,9.8066,0.006,-0.2486,-0.0131,-15.37,-42.06,5.69,292.99,-88.05,-174.13
53.052956,-1.778318,203.98,0,4,69.25,18 / 19,708115,2019-11-06 12:54:09:823,2.487,-2.1232,9.9702,0.0107,0.0243,9.8065,-0.0479,-0.4092,0.0155,-16.06,-41.87,6.63,286.39,-88,177.38
53.052956,-1.778318,203.98,0,4,69.25,18 / 19,708214,2019-11-06 12:54:09:922,2.1337,0.0358,9.5612,0.0053,-0.0125,9.8066,-0.0125,-0.0992,-0.1499,-15.69,-42.19,7.06,281.67,-88.04,172.66
53.052956,-1.778318,203.98,0,4,69.25,18 / 19,708314,2019-11-06 12:54:10:022,2.9054,0.2107,9.7854,0.0076,0.0392,9.8065,0.0242,-0.2667,0.0331,-15.62,-42.12,7.06,276.12,-87.94,167.44
53.052956,-1.778318,203.98,0,4,69.25,18 / 19,708414,2019-11-06 12:54:10:122,3.7896,0.2672,9.7353,0.0022,-0.0026,9.8066,-0.0272,0.0248,-0.1384,-14.19,-42.19,8.38,278.77,-87.88,164.5
53.052956,-1.778318,203.98,0,4,69.25,18 / 19,708514,2019-11-06 12:54:10:222,2.5219,-0.1906,10.1989,0.0013,0.0062,9.8066,0.0275,-0.046,-0.0365,-14.69,-41.94,8.69,275.51,-87.82,159.78
53.052956,-1.778318,203.98,0,4,69.25,18 / 19,708614,2019-11-06 12:54:10:322,2.6982,-1.0637,9.7082,0.0131,0.0028,9.8066,0.0154,-0.0115,-0.0296,-14.44,-42.69,8.5,275,-87.7,158.2
53.052956,-1.778318,203.98,0,4,69.25,18 / 19,708714,2019-11-06 12:54:10:422,3.9219,-0.0298,9.6587,0.0038,-0.011,9.8066,-0.012,0.1408,-0.0986,-15.06,-42.37,8.5,272.02,-87.53,157.01
53.052956,-1.778318,203.98,0,4,69.25,18 / 19,708814,2019-11-06 12:54:10:522,4.0458,-0.911,10.0278,0.012,-0.0123,9.8066,0.0235,0.0668,-0.0975,-14.5,-42.44,9.25,269.89,-87.4,153.73
53.052956,-1.778318,203.98,0,4,69.25,18 / 19,708914,2019-11-06 12:54:10:622,3.0971,-0.36,9.8878,0.016,-0.0052,9.8066,0.0408,0.1189,0.1071,-14.25,-42.69,8.31,265.79,-87.13,153.7
53.052956,-1.778318,203.98,0,4,69.25,18 / 19,709014,2019-11-06 12:54:10:722,3.5002,-0.2606,9.706,0.0082,0.0072,9.8066,-0.0024,0.1225,0.0861,-13.5,-42.37,8.75,274.07,-87.01,157.32
53.052956,-1.778318,203.98,0,4,69.25,18 / 19,709114,2019-11-06 12:54:10:822,1.3345,0.369,9.4197,-0.0201,-0.0075,9.8065,-0.0924,0.1445,-0.0553,-14.75,-42.56,7.56,269.79,-87.19,158.84
53.052956,-1.778318,203.98,0,4,69.25,18 / 19,709214,2019-11-06 12:54:10:922,-0.2225,0.7155,10.4729,-0.0198,0.0195,9.8065,-0.0548,-0.052,0.0422,-14.25,-43,7.19,265.7,-87.63,155.64
53.052956,-1.778318,203.98,0,4,69.25,18 / 19,709314,2019-11-06 12:54:11:022,0.3216,-1.5598,9.857,0.0128,0.0122,9.8066,-0.0346,0.1169,0.0536,-14.56,-42.75,6.81,260.64,-87.81,151.23
53.052956,-1.778318,203.98,0,4,69.25,18 / 19,709414,2019-11-06 12:54:11:122,1.1108,1.2874,9.6957,0.0275,0.019,9.8066,0.0438,-0.0248,0.0505,-14.12,-42.25,6.25,257.96,-87.63,151.16
53.052956,-1.778318,203.98,0,4,69.25,18 / 19,709515,2019-11-06 12:54:11:223,1.7559,-1.6635,9.7062,0.0185,0.02,9.8066,0.0428,-0.1028,0.1647,-14.62,-42.31,6.25,256.98,-87.31,152.01
53.052956,-1.778318,203.98,0,4,69.25,18 / 19,709614,2019-11-06 12:54:11:322,1.6895,1.8,10.1698,0.0153,0.0086,9.8066,-0.0461,0.1079,0.0867,-15.5,-42.75,6.44,262.09,-87.17,157.78
53.052956,-1.778318,203.98,0,4,69.25,18 / 19,709714,2019-11-06 12:54:11:422,2.5235,-3.0023,10.2734,-0.0006,0.0382,9.8066,0.0767,-0.2193,0.2414,-14.81,-42.5,6,265.32,-87.22,160.74
53.052956,-1.778318,203.98,0,4,69.25,18 / 19,709814,2019-11-06 12:54:11:522,3.1225,2.8755,9.7958,0.007,0.0022,9.8066,0.0064,0.1886,-0.0566,-14.81,-42.44,5.94,270.24,-87.14,165.9
53.052956,-1.778318,203.98,0,4,69.25,18 / 19,709914,2019-11-06 12:54:11:622,2.2934,-0.9545,9.5999,0.0147,0.0593,9.8064,-0.0246,-0.2101,0.2958,-15.62,-42.37,5.94,267.55,-87.04,164.28
53.052956,-1.778318,203.98,0,4,69.25,18 / 19,710014,2019-11-06 12:54:11:722,2.3838,2.0549,9.6933,0.0016,-0.0094,9.8066,-0.0274,0.3066,-0.0587,-15.56,-42.62,5.25,269.65,-87.15,169.63
53.052956,-1.778318,203.98,0,4,69.25,18 / 19,710114,2019-11-06 12:54:11:822,2.051,-1.764,9.7714,0.005,0.0056,9.8066,-0.0152,-0.0604,0.0071,-14.62,-42.12,5.88,276.23,-87.11,171.94
53.052956,-1.778318,203.98,0,4,69.25,18 / 19,710214,2019-11-06 12:54:11:922,1.6785,-2.5778,10.3472,0.0117,-0.0317,9.8065,-0.0601,0.2532,-0.1154,-15.62,-42.62,5.56,279.39,-86.95,176.44
