GPS LATITUDE (degrees), GPS LONGITUDE (degrees), GPS ALTITUDE (m), GPS SPEED (Kmh), GPS ACCURACY (m), GPS ORIENTATION (Â°),GPS SATELLITES IN RANGE, TIME SINCE START (ms), DATE (YYYY-MO-DD HH-MI-SS_SSS), ACCELEROMETER X (m/s²) , ACCELEROMETER Y (m/s²), ACCELEROMETER Z (m/s²), GRAVITY X (m/s²), GRAVITY Y (m/s²), GRAVITY Z (m/s²), GYROSCOPE Yaw (rad/s), GYROSCOPE Pitch (rad/s), GYROSCOPE Roll (rad/s), MAGNETIC FIELD X (Î¼T), MAGNETIC FIELD Y (Î¼T), MAGNETIC FIELD Z (Î¼T), ORIENTATION (Yaw) (Â°), ORIENTATION (Pitch) (Â°), ORIENTATION (Roll ) (Â°)
53.040535,-1.817358,341.45,4.95,4,47.15,22 / 24,310314,2019-11-06 12:47:32:022,-0.8319,2.3525,10.0381,0.0585,-0.0519,9.8063,-0.0331,0.3962,-0.2659,-11.94,-41.37,-14.56,74.46,-86.38,28.29
53.040535,-1.817358,341.45,4.95,4,47.15,22 / 24,310414,2019-11-06 12:47:32:122,3.0268,-1.966,9.2447,0.0327,-0.033,9.8065,0.0194,-0.0713,-0.0235,-12.06,-40.94,-15.75,75.01,-86.31,30.76
53.041153,-1.816181,348.03,16.77,4,49.9,20 / 22,310514,2019-11-06 12:47:32:222,3.9356,-1.9798,8.5346,0.0451,-0.0574,9.8063,-0.1412,0.5313,-0.1859,-11.94,-40.94,-15.06,77.67,-86.25,31.14
53.041153,-1.816181,348.03,16.77,4,49.9,20 / 22,310614,2019-11-06 12:47:32:322,3.399,-3.5633,8.5055,-0.0892,0.0501,9.806,-0.0091,-0.5568,0.2693,-12.81,-40.94,-15.75,78.78,-85.83,31.48
53.041153,-1.816181,348.03,16.77,4,49.9,20 / 22,310714,2019-11-06 12:47:32:422,4.0924,-3.6456,9.1598,0.0422,-0.0651,9.8063,-0.1342,0.8637,-0.4285,-11.25,-41.19,-15.75,73.02,-85.71,29.75
53.041153,-1.816181,348.03,16.77,4,49.9,20 / 22,310814,2019-11-06 12:47:32:522,2.9794,-2.66,10.8263,0.003,0.0008,9.8066,-0.1025,0.2234,-0.2083,-12.5,-41,-15.56,70.81,-85.55,25.22
53.041153,-1.816181,348.03,16.77,4,49.9,20 / 22,310914,2019-11-06 12:47:32:622,1.0648,-3.0766,9.0622,0.0783,-0.0505,9.8061,-0.0229,0.3707,-0.3459,-11.37,-40.81,-15.87,72.47,-85.22,28.23
53.041153,-1.816181,348.03,16.77,4,49.9,20 / 22,311014,2019-11-06 12:47:32:722,-1.5492,2.2126,10.3308,-0.0254,-0.0068,9.8065,-0.0237,-0.0479,-0.0137,-12.25,-41.25,-16.12,74.69,-85.27,28.36
53.041153,-1.816181,348.03,16.77,4,49.9,20 / 22,311114,2019-11-06 12:47:32:822,-2.1347,2.7922,9.4834,0.0563,-0.0521,9.8063,-0.1396,0.7314,-0.3485,-11.31,-41.12,-16.06,68.06,-85.24,24.1
53.041153,-1.816181,348.03,16.77,4,49.9,20 / 22,311214,2019-11-06 12:47:32:922,-2.5529,4.7272,9.6012,0.0477,-0.0235,9.8065,-0.0542,0.49,-0.3671,-11.69,-41.5,-16.25,72.32,-85.13,25.81
53.041153,-1.816181,348.03,16.77,4,49.9,20 / 22,311314,2019-11-06 12:47:33:022,3.3288,-2.6707,9.2796,0.0708,-0.0776,9.806,0.1298,0.3076,-0.2469,-11.75,-41.19,-15.75,76.02,-85.05,29.17
53.041153,-1.816181,348.03,16.77,4,49.9,20 / 22,311414,2019-11-06 12:47:33:122,-0.6989,2.9744,9.2933,0.0635,-0.0387,9.8063,-0.0825,0.5445,-0.222,-11.75,-40.81,-16.37,69.98,-85.45,24.23
53.041153,-1.816181,348.03,16.77,4,49.9,20 / 21,311514,2019-11-06 12:47:33:222,3.0764,-4.2691,9.9489,0.0273,-0.0116,9.8066,-0.0264,0.0853,-0.0509,-12.25,-41.62,-15.31,72.94,-85.35,24.44
53.041153,-1.816181,348.03,16.77,4,49.9,20 / 21,311614,2019-11-06 12:47:33:322,-0.6224,1.8286,9.6721,0.058,-0.0599,9.8062,-0.0431,0.4985,-0.2453,-11.12,-40.94,-16.06,66.98,-85.42,23.46
53.041153,-1.816181,348.03,16.77,4,49.9,20 / 21,311714,2019-11-06 12:47:33:422,2.5772,-4.2083,9.8874,-0.0199,0.0088,9.8065,-0.015,-0.1195,0.2224,-11.94,-41.12,-15.56,71.15,-85.31,25.07
53.041153,-1.816181,348.03,16.77,4,49.9,20 / 21,311814,2019-11-06 12:47:33:522,-1.0904,2.5107,10.9595,0.0553,-0.0826,9.8061,0.1043,0.1935,-0.3426,-11.44,-41.25,-16.25,64.34,-85.38,20.92
53.041153,-1.816181,348.03,16.77,4,49.9,20 / 21,311914,2019-11-06 12:47:33:622,-1.7859,2.2315,11.2806,-0.0176,0.0376,9.8065,-0.0985,-0.3445,0.281,-11.25,-40.87,-15.94,69,-85.34,25.19
53.041153,-1.816181,348.03,16.77,4,49.9,20 / 21,312014,2019-11-06 12:47:33:722,-2.642,3.0124,9.9588,0.0159,0.0296,9.8065,0.0125,0.0005,0.0881,-11.44,-41.25,-16.19,70.08,-85.42,26.35
53.041153,-1.816181,348.03,16.77,4,49.9,20 / 21,312114,2019-11-06 12:47:33:822,-2.7664,0.28,10.7534,-0.039,0.0392,9.8064,0.2027,-0.5338,0.2704,-11.06,-41.25,-15.81,67,-85.79,24.21
53.041153,-1.816181,348.03,16.77,4,49.9,20 / 21,312214,2019-11-06 12:47:33:922,4.7966,-1.3309,11.1052,0.0044,0.0304,9.8065,0.1433,-0.3973,0.2334,-12.12,-41.5,-15.19,72.57,-86.2,26.1
53.041153,-1.816181,348.03,16.77,4,49.9,20 / 21,312315,2019-11-06 12:47:34:023,-2.1816,2.1665,10.18,-0.0272,0.0064,9.8066,0.1399,-0.154,0.0064,-11.37,-41.44,-14.87,68.89,-86.49,25.35
53.041153,-1.816181,348.03,16.77,4,49.9,20 / 21,312415,2019-11-06 12:47:34:123,3.6364,-1.3662,11.0778,-0.0532,0.0444,9.8063,0.1194,-0.4535,0.253,-11.81,-41,-15.19,73.47,-86.78,28.19
53.041153,-1.816181,348.03,16.77,4,49.9,20 / 22,312515,2019-11-06 12:47:34:223,1.6158,-0.1477,12.1936,0.0544,0.0378,9.8064,-0.0401,0.2301,-0.0606,-11.75,-41.62,-14.94,72.88,-87.14,28.2
53.041153,-1.816181,348.03,16.77,4,49.9,20 / 22,312615,2019-11-06 12:47:34:323,1.8398,0.707,10.4765,0,0.032,9.8065,-0.0665,-0.0687,0.1729,-12.25,-41.31,-14.37,79.24,-87.61,33.41
53.041153,-1.816181,348.03,16.77,4,49.9,20 / 22,312715,2019-11-06 12:47:34:423,0.3013,0.4759,9.8502,-0.0043,0.0496,9.8065,-0.0739,-0.1806,0.2356,-12.44,-41,-14.37,75.51,-87.74,30.03
53.041153,-1.816181,348.03,16.77,4,49.9,20 / 22,312815,2019-11-06 12:47:34:523,0.7237,-2.4803,10.121,0.0227,-0.0005,9.8065,-0.0338,0.1426,-0.0016,-11.81,-41.5,-15.12,75.58,-87.99,32.74
53.041153,-1.816181,348.03,16.77,4,49.9,20 / 22,312915,2019-11-06 12:47:34:623,2.6272,-1.4589,11.4252,0.0008,0.0178,9.8066,0.1408,-0.2204,0.1376,-12.19,-41.56,-13.81,79.8,-88.14,35.01
53.041153,-1.816181,348.03,16.77,4,49.9,20 / 22,313014,2019-11-06 12:47:34:722,-0.0958,0.5717,11.6098,0.0367,-0.0253,9.8065,0.1492,0.0328,-0.0882,-11.75,-41.44,-14.25,78.44,-88.46,34.49
53.041153,-1.816181,348.03,16.77,4,49.9,20 / 22,313115,2019-11-06 12:47:34:823,0.5574,-0.4307,10.3558,0.0217,-0.0026,9.8066,0.0639,0.0674,-0.0209,-12.62,-41.56,-14.19,90.73,-88.72,45.04
53.041153,-1.816181,348.03,16.77,4,49.9,20 / 22,313215,2019-11-06 12:47:34:923,-1.2681,1.8578,9.6621,0.0315,-0.0164,9.8065,0.0535,-0.1127,0.003,-12.94,-42.06,-14,91.53,-89.07,46.61
53.041153,-1.816181,348.03,16.77,4,49.9,20 / 22,313315,2019-11-06 12:47:35:023,2.7276,-1.9524,8.2656,0.0167,-0.0454,9.8065,-0.1019,-0.3199,0.3331,-12.44,-41.31,-13.94,77.04,-89.1,34.48
53.041153,-1.816181,348.03,16.77,4,49.9,20 / 22,313415,2019-11-06 12:47:35:123,0.0884,0.5789,8.4222,0.0285,-0.0802,9.8062,-0.0978,0.0392,0.1085,-12.69,-40.81,-14.19,47.55,-88.71,2.62
53.041153,-1.816181,348.03,16.77,4,49.9,19 / 19,313515,2019-11-06 12:47:35:223,-0.0066,0.5939,10.5653,-0.0217,-0.0357,9.8065,-0.0491,0.0701,-0.0342,-13,-41.25,-14,52.43,-88.55,7.08
53.041153,-1.816181,348.03,16.77,4,49.9,19 / 19,313615,2019-11-06 12:47:35:323,0.3308,-3.0095,9.666,-0.0169,0.0464,9.8065,0.0691,0.015,-0.0635,-12.56,-41.37,-14.5,64.11,-88.3,17.94
53.041153,-1.816181,348.03,16.77,4,49.9,19 / 19,313715,2019-11-06 12:47:35:423,0.4876,0.3424,11.9083,0.0056,0.0385,9.8065,0.0873,0.0674,-0.1116,-11.94,-41.31,-14.31,67.3,-88.28,23.16
53.041153,-1.816181,348.03,16.77,4,49.9,19 / 19,313815,2019-11-06 12:47:35:523,-0.6294,0.9158,11.5919,0.0128,-0.0018,9.8066,0.0321,-0.1783,0.0609,-12.19,-41.37,-13.94,76.37,-88.52,32.57
53.041153,-1.816181,348.03,16.77,4,49.9,19 / 19,313915,2019-11-06 12:47:35:623,2.8451,-3.4978,11.2628,0.0548,-0.0424,9.8064,0.08,-0.3944,0.3383,-13,-41.31,-13.5,77.19,-89.25,30.55
53.041153,-1.816181,348.03,16.77,4,49.9,19 / 19,314014,2019-11-06 12:47:35:722,-3.0217,2.2808,10.3487,0.0613,-0.036,9.8064,0.0733,-0.2961,0.182,-12.56,-41.25,-14.06,80.7,-89.39,36.54
53.041153,-1.816181,348.03,16.77,4,49.9,19 / 19,314114,2019-11-06 12:47:35:822,3.1925,-5.2837,10.305,0.0449,0.0058,9.8065,0.1391,-0.8002,0.4138,-13.31,-41.12,-12.94,77.65,-89.51,31.59
53.041153,-1.816181,348.03,16.77,4,49.9,19 / 19,314214,2019-11-06 12:47:35:922,-5.3348,6.3536,11.1099,0.1075,-0.112,9.8053,-0.0827,0.164,-0.1551,-12.06,-41.69,-12.69,327,-89.8,-75.45
53.041153,-1.816181,348.03,16.77,4,49.9,19 / 19,314314,2019-11-06 12:47:36:022,0.5681,-1.7711,8.4252,-0.0364,-0.0015,9.8066,-0.0754,-0.9774,0.6049,-12.75,-41.62,-12.44,166.49,-89.54,118.94
53.041153,-1.816181,348.03,16.77,4,49.9,19 / 19,314414,2019-11-06 12:47:36:122,-8.1985,5.708,8.2094,0.069,-0.1142,9.8057,-0.2609,0.8227,-0.5049,-12.12,-42.12,-12.06,143.82,-89.48,98.06
53.041153,-1.816181,348.03,16.77,4,49.9,20 / 22,314514,2019-11-06 12:47:36:222,0.7538,-1.877,9.1742,-0.1183,0.078,9.8056,-0.0133,-0.1911,0.0513,-12.5,-42.06,-12.62,128.69,-88.22,82.7
53.041153,-1.816181,348.03,16.77,4,49.9,20 / 22,314615,2019-11-06 12:47:36:323,7.953,-6.3793,8.7428,0.0084,-0.0205,9.8066,-0.1149,1.1272,-0.7665,-11.94,-41.62,-13.06,126.51,-88.55,81.04
53.041153,-1.816181,348.03,16.77,4,49.9,20 / 22,314714,2019-11-06 12:47:36:422,2.0856,-1.9626,6.2887,-0.1624,0.0843,9.8049,-0.2429,0.5611,-0.335,-12,-41.81,-13.5,112.39,-88.69,66.81
53.041153,-1.816181,348.03,16.77,4,49.9,20 / 22,314814,2019-11-06 12:47:36:522,4.5731,-5.2325,9.1691,-0.0949,-0.0242,9.8062,-0.0253,0.5373,-0.3486,-12.44,-41.75,-13.5,95.86,-87.61,47.5
53.041153,-1.816181,348.03,16.77,4,49.9,20 / 22,314914,2019-11-06 12:47:36:622,-3.5946,1.9887,9.0685,-0.0418,0.0381,9.8065,-0.1065,0.7023,-0.3207,-12.31,-41.87,-13.69,79.67,-87.67,33.83
53.041153,-1.816181,348.03,16.77,4,49.9,20 / 22,315014,2019-11-06 12:47:36:722,3.4768,-5.9983,11.2246,-0.0913,0.0606,9.806,-0.021,-0.0755,0.1122,-13,-40.87,-14.06,87.65,-87.51,39.42
53.041153,-1.816181,348.03,16.77,4,49.9,20 / 22,315114,2019-11-06 12:47:36:822,-2.7188,3.8492,9.9009,-0.0305,-0.0144,9.8066,-0.1456,0.656,-0.4473,-11.44,-41.56,-13.87,79.77,-87.45,35.66
53.041153,-1.816181,348.03,16.77,4,49.9,20 / 22,315214,2019-11-06 12:47:36:922,-0.1598,0.4008,10.2934,-0.1154,0.0845,9.8056,0.0136,-0.3319,0.1238,-12.75,-41,-13.56,92.7,-86.93,43.22
53.041153,-1.816181,348.03,16.77,4,49.9,20 / 22,315314,2019-11-06 12:47:37:022,-4.0371,4.1513,9.5629,0.0145,-0.0404,9.8065,0.0016,0.3535,-0.2226,-11.87,-41.87,-14.37,92.95,-86.99,45.47
53.041153,-1.816181,348.03,16.77,4,49.9,20 / 22,315415,2019-11-06 12:47:37:123,1.8485,-1.5133,8.1389,-0.0657,0.0155,9.8064,-0.0404,-0.6212,0.4698,-12.5,-40.87,-14.25,87.19,-86.68,39.17
53.041153,-1.816181,348.03,16.77,4,49.9,21 / 22,315514,2019-11-06 12:47:37:222,3.8692,-4.7908,7.6722,0.0392,-0.1002,9.806,-0.1719,-0.084,0.023,-12.44,-41.94,-14.75,80.45,-86.46,34.1
53.041153,-1.816181,348.03,16.77,4,49.9,21 / 22,315614,2019-11-06 12:47:37:322,1.383,-2.2446,8.6059,-0.0341,-0.0213,9.8065,0.0297,-0.5757,0.2526,-12.87,-41.44,-15,74.44,-85.88,25.26
53.041153,-1.816181,348.03,16.77,4,49.9,21 / 22,315714,2019-11-06 12:47:37:422,2.315,-3.539,9.8465,0.045,-0.0166,9.8064,0.074,-0.4864,0.1995,-12.12,-41.12,-15.12,70.48,-85.83,23.34
53.041153,-1.816181,348.03,16.77,4,49.9,21 / 22,315814,2019-11-06 12:47:37:522,0.4032,1.2312,9.5515,0.0571,-0.0404,9.8064,0.0966,0.0369,-0.1338,-11.94,-40.87,-15.19,69.78,-85.88,22.78
53.041153,-1.816181,348.03,16.77,4,49.9,21 / 22,315914,2019-11-06 12:47:37:622,7.1287,-3.5223,9.9729,-0.0073,0.0477,9.8064,0.2405,-0.4896,0.1912,-12.19,-41.69,-15.69,70.71,-85.94,25.72
53.041153,-1.816181,348.03,16.77,4,49.9,21 / 22,316014,2019-11-06 12:47:37:722,-0.9795,-0.0075,8.1027,0.0523,0.004,9.8064,-0.1854,0.7419,-0.4976,-11.81,-41.31,-14.81,71.6,-86.06,24.89
53.041153,-1.816181,348.03,16.77,4,49.9,21 / 22,316114,2019-11-06 12:47:37:822,-3.0701,4.0482,9.3901,-0.0905,0.0819,9.8058,0.0863,-0.1116,0.0491,-12.75,-40.56,-14.75,62.79,-85.71,13.89
53.041153,-1.816181,348.03,16.77,4,49.9,21 / 22,316214,2019-11-06 12:47:37:922,-1.2879,-0.0205,9.1526,-0.0056,-0.0256,9.8066,-0.2122,0.9142,-0.383,-13.19,-41.12,-14.56,64.22,-85.44,14.72
53.041153,-1.816181,348.03,16.77,4,49.9,21 / 22,316314,2019-11-06 12:47:38:022,-4.3805,6.6531,8.7215,-0.1444,0.0795,9.8052,-0.1555,0.9049,-0.5993,-12.5,-41.25,-14.62,70.94,-85.06,22.17
53.041153,-1.816181,348.03,16.77,4,49.9,21 / 22,316414,2019-11-06 12:47:38:122,3.5278,-4.2644,8.5868,-0.1101,0.1349,9.805,0.0808,0.1752,-0.2145,-13,-40.94,-14.31,74.91,-85.19,21.94
53.041153,-1.816181,348.03,16.77,4,49.9,19 / 21,316514,2019-11-06 12:47:38:222,-3.2911,4.6045,9.3835,-0.0111,0.0618,9.8063,0.0134,0.8372,-0.4871,-13,-40.81,-14.62,65.68,-85.2,15.61
53.041153,-1.816181,348.03,16.77,4,49.9,19 / 21,316614,2019-11-06 12:47:38:322,2.6767,-2.9163,12.2286,-0.066,0.0599,9.8062,0.0635,-0.0596,-0.0128,-13.56,-41.19,-14.62,70.34,-85.4,18.54
53.041153,-1.816181,348.03,16.77,4,49.9,19 / 21,316714,2019-11-06 12:47:38:422,0.9824,-0.8123,9.3052,-0.0039,0.0058,9.8066,-0.1146,0.0612,-0.0782,-13.69,-40.56,-14.5,65.38,-86,12.77
53.041153,-1.816181,348.03,16.77,4,49.9,19 / 21,316814,2019-11-06 12:47:38:522,-1.7238,-1.3446,8.4865,-0.0048,-0.0194,9.8066,-0.1439,0.566,-0.1889,-13.94,-41.25,-14.56,60.89,-85.96,10.72
53.041153,-1.816181,348.03,16.77,4,49.9,19 / 21,316914,2019-11-06 12:47:38:622,-0.9032,5.4213,11.6532,-0.0752,0.1307,9.8054,0.1996,0.5352,-0.7361,-13.87,-40.94,-14.81,71.81,-85.55,20.24
53.041153,-1.816181,348.03,16.77,4,49.9,19 / 21,317014,2019-11-06 12:47:38:722,4.936,-9.2583,7.7755,-0.0195,0.1204,9.8058,0.3407,0.7389,-0.7254,-13.87,-40.87,-13.81,70.39,-85.71,16.93
53.041153,-1.816181,348.03,16.77,4,49.9,19 / 21,317114,2019-11-06 12:47:38:822,-1.4171,-0.5217,7.3861,-0.085,0.1402,9.8053,-0.1679,0.9473,-0.5933,-12.94,-41.37,-13.75,62.63,-85.86,11.77
53.041153,-1.816181,348.03,16.77,4,49.9,19 / 21,317214,2019-11-06 12:47:38:922,3.7549,-8.1132,9.2897,-0.1437,0.0931,9.8051,0.0372,-0.2059,-0.0265,-13.87,-40.31,-14.31,76.72,-85.43,22.64
53.041153,-1.816181,348.03,16.77,4,49.9,19 / 21,317314,2019-11-06 12:47:39:022,3.1248,-1.7392,9.7143,0.0228,-0.0143,9.8066,-0.0173,0.5753,-0.2494,-13.37,-40.81,-15.06,69.16,-85.27,18.99
53.041153,-1.816181,348.03,16.77,4,49.9,19 / 21,317415,2019-11-06 12:47:39:123,7.6056,-5.2545,8.927,-0.054,0.0643,9.8063,0.0309,-0.9915,0.6315,-13.19,-40.87,-14.56,73.82,-85.2,23.27
53.041153,-1.816181,348.03,16.77,4,49.9,23 / 24,317517,2019-11-06 12:47:39:225,2.109,-1.7437,11.2731,0.069,-0.1251,9.8055,0.0963,-0.2835,-0.0281,-12.81,-41.62,-14.44,70.42,-85.36,17.82
53.041153,-1.816181,348.03,16.77,4,49.9,23 / 24,317614,2019-11-06 12:47:39:322,-4.9262,6.2506,9.5176,0.0109,0.0655,9.8064,0.0689,-0.8656,0.3895,-12.94,-41.19,-13.75,81.32,-85.17,28.08
53.041153,-1.816181,348.03,16.77,4,49.9,23 / 24,317714,2019-11-06 12:47:39:422,2.0968,-0.596,9.6968,0.0806,-0.0262,9.8063,0.2411,-0.7646,0.3,-11.94,-40.75,-13.87,86.28,-84.81,34.04
53.041153,-1.816181,348.03,16.77,4,49.9,23 / 24,317814,2019-11-06 12:47:39:522,-2.9249,4.318,10.4833,0.0485,-0.0733,9.8062,0.0807,-0.155,0.1125,-12.25,-41.62,-13.5,89.55,-85.08,35.04
53.041153,-1.816181,348.03,16.77,4,49.9,23 / 24,317914,2019-11-06 12:47:39:622,1.3513,0.7066,8.9956,0.0047,-0.0205,9.8066,-0.1143,-0.2626,0.2316,-12.5,-41.19,-14,88.22,-85.12,36.68
53.041153,-1.816181,348.03,16.77,4,49.9,23 / 24,318014,2019-11-06 12:47:39:722,-2.2283,3.1849,8.1233,0.0453,-0.0758,9.8062,-0.1689,0.4998,-0.1968,-12.94,-41.25,-14,85.19,-85.33,32.23
53.041153,-1.816181,348.03,16.77,4,49.9,23 / 24,318116,2019-11-06 12:47:39:824,-0.8243,2.4949,10.962,-0.0695,0.0757,9.806,0.0276,0.3075,-0.261,-12.81,-41.19,-14,82.67,-85.42,29.94
53.041153,-1.816181,348.03,16.77,4,49.9,23 / 24,318214,2019-11-06 12:47:39:922,4.3613,-5.631,9.7552,-0.002,0.1014,9.8061,0.1847,0.8097,-0.5933,-12.56,-41.19,-13.31,91.2,-85.4,35.87
53.041153,-1.816181,348.03,16.77,4,49.9,23 / 24,318314,2019-11-06 12:47:40:022,1.0767,-3.4164,14.5595,-0.0551,0.1736,9.8049,0.2602,0.5473,-0.5074,-13.5,-41.25,-12.75,84.5,-86.09,30.76
53.041153,-1.816181,348.03,16.77,4,49.9,23 / 24,318414,2019-11-06 12:47:40:122,4.418,-7.7312,12.3909,0.0209,0.1018,9.8061,0.1588,0.574,-0.5049,-13.06,-41.87,-11.62,101.56,-86.81,46.83
53.041153,-1.816181,348.03,16.77,4,49.9,21 / 22,318514,2019-11-06 12:47:40:222,-0.2402,4.7945,13.9493,0.0229,0.1045,9.806,0.2088,1.0537,-0.617,-12.69,-41.75,-11.25,124.46,-86.97,68.56
53.041153,-1.816181,348.03,16.77,4,49.9,21 / 22,318614,2019-11-06 12:47:40:322,4.6915,-6.3747,11.4349,-0.1315,0.1794,9.8041,0.2907,-0.0611,-0.2936,-13.75,-41.25,-10.81,125.35,-86.5,66.96
53.041153,-1.816181,348.03,16.77,4,49.9,21 / 22,318715,2019-11-06 12:47:40:423,-6.4676,4.178,9.7684,0.0363,0.0634,9.8063,-0.0837,0.9211,-0.4821,-12.5,-41.69,-11.06,115.24,-87.3,61.46
53.041153,-1.816181,348.03,16.77,4,49.9,21 / 22,318815,2019-11-06 12:47:40:523,-2.5307,3.5285,11.4958,-0.0602,0.0898,9.806,0.2239,-1.0143,0.6478,-12.87,-42,-9.37,137.48,-87.19,77.16
53.041153,-1.816181,348.03,16.77,4,49.9,21 / 22,318915,2019-11-06 12:47:40:623,-4.8952,7.1445,11.5695,0.1438,-0.114,9.8049,0.0745,-0.0593,0.1296,-12.94,-42.19,-10.12,145.06,-87.03,88.3
53.041153,-1.816181,348.03,16.77,4,49.9,21 / 22,319015,2019-11-06 12:47:40:723,-2.3514,4.4358,11.1692,0.0251,-0.0135,9.8066,0.065,-1.2711,0.7685,-12.31,-42.5,-9.87,157.37,-87.48,104.59
53.041153,-1.816181,348.03,16.77,4,49.9,21 / 22,319114,2019-11-06 12:47:40:822,4.3633,-11.0507,9.3997,0.0925,-0.1784,9.8045,0.0209,-1.0918,0.7595,-13.19,-42.06,-9.19,167.63,-87.08,110.68
53.041153,-1.816181,348.03,16.77,4,49.9,21 / 22,319214,2019-11-06 12:47:40:922,-3.3328,1.4167,6.3976,0.1039,-0.1091,9.8054,-0.192,-0.5107,0.5487,-13,-42.62,-9.56,172.79,-87.79,119.64
53.041153,-1.816181,348.03,16.77,4,49.9,21 / 22,319315,2019-11-06 12:47:41:023,3.091,-6.0845,8.4586,-0.0314,-0.0534,9.8064,0.0768,-1.0461,0.3382,-12.94,-42.19,-9.94,157.87,-87.41,102.96
53.041153,-1.816181,348.03,16.77,4,49.9,21 / 22,319415,2019-11-06 12:47:41:123,-3.2309,-0.1926,8.9768,0.0858,-0.1265,9.8054,-0.0462,0.5076,-0.3397,-11.62,-42.12,-10.31,141.81,-87.88,88.11
53.042046,-1.814101,342.63,21.98,4,59.44,21 / 23,319515,2019-11-06 12:47:41:223,-8.2295,6.5643,9.2093,-0.0798,0.0999,9.8058,-0.016,-0.4102,0.3809,-12.19,-42.75,-9.69,143.97,-87.31,89.45
53.042046,-1.814101,342.63,21.98,4,59.44,21 / 23,319615,2019-11-06 12:47:41:323,-4.1822,3.3723,9.8268,0.0786,-0.0604,9.8061,-0.1022,0.8289,-0.3008,-12.62,-42.5,-10.31,151.16,-87.35,95.48
53.042046,-1.814101,342.63,21.98,4,59.44,21 / 23,319715,2019-11-06 12:47:41:423,-3.8019,1.6752,9.1625,-0.0134,-0.0475,9.8064,0.0045,0.3302,-0.1919,-12.62,-42.5,-10.44,147.26,-87.34,91.17
53.042046,-1.814101,342.63,21.98,4,59.44,21 / 23,319815,2019-11-06 12:47:41:523,-3.1415,-3.196,7.216,-0.0402,-0.0769,9.8062,-0.0178,-0.0577,0.0659,-12.62,-42.25,-10.44,143.7,-87.4,87.35
53.042046,-1.814101,342.63,21.98,4,59.44,21 / 23,319915,2019-11-06 12:47:41:623,-5.741,4.4081,8.9365,0.0367,-0.068,9.8063,0.0149,0.338,-0.2205,-11.81,-42.25,-11.06,121.19,-87.76,68.78
53.042046,-1.814101,342.63,21.98,4,59.44,21 / 23,320014,2019-11-06 12:47:41:722,-2.2406,-1.7109,10.0044,-0.0509,0.0752,9.8062,0.1412,-0.6382,0.4373,-12.44,-41.81,-11.69,119.96,-87.6,69.83
53.042046,-1.814101,342.63,21.98,4,59.44,21 / 23,320114,2019-11-06 12:47:41:822,0.3135,-3.536,13.1549,0.0289,0.0024,9.8065,0.2498,-0.373,0.1774,-12.12,-42,-10.81,135.04,-87.35,82.74
53.042046,-1.814101,342.63,21.98,4,59.44,21 / 23,320214,2019-11-06 12:47:41:922,-2.4912,0.8497,9.3858,0.0118,0.0037,9.8066,-0.0258,-0.0135,0.2158,-12.5,-41.94,-10.87,146.08,-87.79,95.43
53.042046,-1.814101,342.63,21.98,4,59.44,21 / 23,320314,2019-11-06 12:47:42:022,-0.0263,-0.8623,12.0552,-0.0436,-0.0536,9.8063,0.2094,-0.2327,-0.0328,-13.25,-42.12,-10.37,146.44,-88.17,91.43
53.042046,-1.814101,342.63,21.98,4,59.44,21 / 23,320414,2019-11-06 12:47:42:122,2.1575,-7.1657,8.5706,0.0467,-0.0811,9.8061,0.0987,0.7735,-0.6102,-12.69,-42.37,-10.62,145.27,-88.19,92.98
53.042046,-1.814101,342.63,21.98,4,59.44,21 / 21,320514,2019-11-06 12:47:42:222,0.8955,-4.1052,6.7404,-0.029,0.028,9.8065,-0.2472,0.393,-0.2329,-12.62,-42.37,-10.94,142.21,-87.99,89.43
53.042046,-1.814101,342.63,21.98,4,59.44,21 / 21,320614,2019-11-06 12:47:42:322,1.4948,-4.9154,8.9686,0.0374,-0.0492,9.8064,-0.0941,0.5005,-0.3605,-12.12,-42.06,-10.87,136.07,-87.3,83.76
53.042046,-1.814101,342.63,21.98,4,59.44,21 / 21,320714,2019-11-06 12:47:42:422,-3.6598,0.0651,6.672,0.0213,-0.0708,9.8063,-0.1884,0.5704,-0.3428,-10.94,-42.44,-12.12,123.2,-87.29,74.85
53.042046,-1.814101,342.63,21.98,4,59.44,21 / 21,320815,2019-11-06 12:47:42:523,-2.2995,1.3853,6.9055,-0.0161,-0.0322,9.8065,-0.1699,-0.0142,-0.0844,-11.81,-41.81,-12,111.03,-86.73,58.48
53.042046,-1.814101,342.63,21.98,4,59.44,21 / 21,320915,2019-11-06 12:47:42:623,-3.2665,-4.4067,5.4012,-0.0454,-0.0237,9.8065,-0.3667,-0.1464,0.0987,-12.12,-41.81,-13.25,99.69,-86.39,48.5
53.042046,-1.814101,342.63,21.98,4,59.44,21 / 21,321015,2019-11-06 12:47:42:723,2.4724,-6.7984,10.5917,0.1113,-0.0998,9.8054,-0.1645,0.9138,-0.2954,-12.56,-41.44,-12.62,94.08,-86.11,40.38
53.042046,-1.814101,342.63,21.98,4,59.44,21 / 21,321115,2019-11-06 12:47:42:823,-1.5137,-2.6413,11.5865,0.0744,-0.0039,9.8063,-0.1976,0.4173,-0.2257,-12.69,-41.44,-13.37,83.09,-86.9,31.2
53.042046,-1.814101,342.63,21.98,4,59.44,21 / 21,321214,2019-11-06 12:47:42:922,2.8177,-1.2083,11.6933,0.0448,0.0131,9.8065,-0.221,-0.2557,0.2697,-12.56,-41.81,-12,83.09,-87.02,28.74
53.042046,-1.814101,342.63,21.98,4,59.44,21 / 21,321315,2019-11-06 12:47:43:023,1.89,-5.678,10.88,0.0338,-0.0257,9.8065,-0.078,0.142,0.0097,-13.06,-41.69,-13.62,69.7,-87.22,21.05
53.042046,-1.814101,342.63,21.98,4,59.44,21 / 21,321415,2019-11-06 12:47:43:123,0.2008,-5.0829,7.432,-0.1693,0.1122,9.8045,-0.1068,-1.2799,0.65,-13.12,-41.75,-13.62,84.21,-86.22,33
53.042046,-1.814101,342.63,21.98,4,59.44,19 / 22,321514,2019-11-06 12:47:43:222,4.2061,-4.5758,8.943,-0.0799,0.0149,9.8062,0.1007,-0.7957,0.5379,-12.37,-41.44,-13.25,76.99,-86.18,25.59
53.042046,-1.814101,342.63,21.98,4,59.44,19 / 22,321614,2019-11-06 12:47:43:322,-8.0668,4.5514,9.1524,-0.1203,0.111,9.8052,-0.0179,-0.7889,0.4487,-11.94,-40.94,-14.12,67.06,-86.22,18.63
53.042046,-1.814101,342.63,21.98,4,59.44,19 / 22,321714,2019-11-06 12:47:43:422,0.7821,-3.9716,9.5877,-0.0842,0.0561,9.8061,0.252,-0.9307,0.5739,-12.69,-40.5,-14.12,76.5,-85.75,24.88
53.042046,-1.814101,342.63,21.98,4,59.44,19 / 22,321814,2019-11-06 12:47:43:522,-4.8508,7.536,7.7016,-0.0425,0.0533,9.8064,-0.3093,0.1196,0.0798,-12.31,-41.44,-13.94,69.94,-86,20.9
53.042046,-1.814101,342.63,21.98,4,59.44,19 / 22,321914,2019-11-06 12:47:43:622,-3.238,-0.6978,9.7662,-0.1086,0.0776,9.8057,0.1101,-0.4465,0.3293,-12.81,-41.19,-13.94,77.74,-85.66,25.67
53.042046,-1.814101,342.63,21.98,4,59.44,19 / 22,322014,2019-11-06 12:47:43:722,-2.411,3.5528,12.6668,0.089,-0.1037,9.8056,0.0396,1.1389,-0.4789,-11.69,-41.06,-14.12,62.6,-86.01,14.03
53.042046,-1.814101,342.63,21.98,4,59.44,19 / 22,322114,2019-11-06 12:47:43:822,-9.7701,5.0402,8.4711,0.0987,-0.017,9.8061,-0.3613,1.173,-0.4915,-11.81,-41.37,-13.56,67.55,-85.99,18.61
53.042046,-1.814101,342.63,21.98,4,59.44,19 / 22,322214,2019-11-06 12:47:43:922,6.2723,-9.9808,10.7909,0.0706,-0.1343,9.8054,0.0993,0.4656,-0.2017,-12.81,-41.5,-13.62,71.88,-85.56,19.83
53.042046,-1.814101,342.63,21.98,4,59.44,19 / 22,322314,2019-11-06 12:47:44:022,-4.2384,0.0427,9.7124,0.1712,-0.1893,9.8033,-0.1585,1.3119,-0.7465,-12.31,-41.25,-13.06,56.55,-85.72,5.44
53.042046,-1.814101,342.63,21.98,4,59.44,19 / 22,322415,2019-11-06 12:47:44:123,4.8625,-10.7315,12.7699,-0.0547,0.0533,9.8063,0.3384,-0.948,0.5053,-12.62,-41.5,-13.37,64.44,-85.73,10.75
53.042046,-1.814101,342.63,21.98,4,59.44,19 / 21,322515,2019-11-06 12:47:44:223,-2.1237,1.3391,10.6256,0.0621,-0.0318,9.8064,0.1229,0.156,-0.2574,-12.19,-41.44,-13.44,69.18,-86.2,18.15
53.042046,-1.814101,342.63,21.98,4,59.44,19 / 21,322614,2019-11-06 12:47:44:322,-2.1923,2.9931,12.7369,-0.0325,0.0899,9.8061,-0.113,-0.5084,0.2469,-12.06,-42.12,-12.69,77.09,-86.29,25.73
53.042046,-1.814101,342.63,21.98,4,59.44,19 / 21,322716,2019-11-06 12:47:44:424,-4.4272,6.8629,12.0736,0.0052,-0.0235,9.8066,0.3901,0.1194,-0.0394,-11,-41.87,-12.69,83.02,-86.27,33.58
53.042046,-1.814101,342.63,21.98,4,59.44,19 / 21,322815,2019-11-06 12:47:44:523,-0.8712,0.3379,10.2069,-0.1002,0.0686,9.8059,0.5112,-0.9278,0.5017,-11.44,-42.44,-12.31,93.75,-87.11,43.76
53.042046,-1.814101,342.63,21.98,4,59.44,19 / 21,322915,2019-11-06 12:47:44:623,5.2459,-7.7127,10.0233,0.0128,0.0061,9.8066,0.0534,-0.595,0.4109,-11.81,-42,-11.5,109.87,-87.07,55.29
53.042046,-1.814101,342.63,21.98,4,59.44,19 / 21,323015,2019-11-06 12:47:44:723,-3.8847,3.0577,9.2422,-0.0885,0.1412,9.8052,-0.1351,-0.4553,0.4154,-12,-42.25,-11.56,112.86,-86.76,60.49
53.042046,-1.814101,342.63,21.98,4,59.44,19 / 21,323114,2019-11-06 12:47:44:822,4.2192,-4.5145,11.2134,-0.0568,0.1058,9.8059,0.2201,-0.7251,0.6337,-12.06,-42.5,-11.69,110.05,-87.14,58.41
53.042046,-1.814101,342.63,21.98,4,59.44,19 / 21,323214,2019-11-06 12:47:44:922,-4.3201,4.4055,11.7315,-0.0637,0.0746,9.8061,0.1322,-0.5483,0.3662,-11.44,-42.44,-11.81,100.07,-87.95,52.35
53.042046,-1.814101,342.63,21.98,4,59.44,19 / 21,323314,2019-11-06 12:47:45:022,6.2056,-8.1637,11.6985,-0.0853,0.1665,9.8049,0.1175,-1.398,0.7829,-12,-42.12,-10.94,117.75,-87.33,64.18
53.042046,-1.814101,342.63,21.98,4,59.44,19 / 21,323415,2019-11-06 12:47:45:123,-7.9328,6.3175,9.1967,0.031,0.0155,9.8066,0.115,0.6356,-0.1879,-11.37,-43.12,-10.62,122.15,-88.13,72.77
53.042046,-1.814101,342.63,21.98,4,59.44,17 / 20,323515,2019-11-06 12:47:45:223,-4.7413,6.3543,9.1568,-0.0949,0.069,9.8059,0.2483,-1.4266,0.766,-11.5,-42.62,-10,144.27,-88.29,93.66
53.042046,-1.814101,342.63,21.98,4,59.44,17 / 20,323616,2019-11-06 12:47:45:324,-3.7266,2.6141,7.6541,0.113,-0.1723,9.8044,-0.0837,-0.3939,0.2111,-12.69,-42.37,-10.06,149.79,-88.25,95.11
53.042046,-1.814101,342.63,21.98,4,59.44,17 / 20,323714,2019-11-06 12:47:45:422,-3.3638,-0.5161,6.2953,-0.0461,-0.1634,9.8051,-0.0165,-0.7868,0.3326,-13.06,-42.44,-10.44,133.06,-88.71,78.22
53.042046,-1.814101,342.63,21.98,4,59.44,17 / 20,323814,2019-11-06 12:47:45:522,3.0057,-8.3397,11.2066,-0.0413,0.0257,9.8065,0.1716,-0.8054,0.3455,-13.37,-42.25,-10,76.8,-88.95,21.75
53.042046,-1.814101,342.63,21.98,4,59.44,17 / 20,323914,2019-11-06 12:47:45:622,-0.1708,-1.8078,11.2521,-0.0306,0.1724,9.8051,0.0927,-0.6801,0.3587,-12.87,-42.31,-9.12,146.32,-88.42,88.69
53.042046,-1.814101,342.63,21.98,4,59.44,17 / 20,324014,2019-11-06 12:47:45:722,6.4091,-4.1908,9.5325,-0.0518,0.0507,9.8064,0.0616,-0.75,0.1739,-12.44,-42,-9.25,149.81,-88.63,94.76
53.042046,-1.814101,342.63,21.98,4,59.44,17 / 20,324115,2019-11-06 12:47:45:823,-2.1479,1.4795,9.5156,-0.0672,-0.013,9.8063,-0.0641,-0.1773,-0.0269,-12.81,-42.69,-10.06,132.48,-88.41,76.98
53.042046,-1.814101,342.63,21.98,4,59.44,17 / 20,324215,2019-11-06 12:47:45:923,4.529,-7.7409,10.4604,-0.0668,0.1013,9.8059,0.0941,-0.6832,0.5333,-13.81,-42.37,-9.06,120.02,-88.22,58.87
53.042046,-1.814101,342.63,21.98,4,59.44,17 / 20,324314,2019-11-06 12:47:46:022,2.5935,1.2428,11.2041,0.1213,-0.0185,9.8058,-0.2321,0.3715,-0.2048,-13.81,-42.5,-8.56,122.95,-88.82,63.18
53.042046,-1.814101,342.63,21.98,4,59.44,17 / 20,324414,2019-11-06 12:47:46:122,-4.4627,0.8332,10.5451,-0.0218,0.0515,9.8064,0.177,0.0803,-0.2313,-13.69,-42.12,-8.25,163.04,-89.12,102.12
53.042046,-1.814101,342.63,21.98,4,59.44,18 / 19,324514,2019-11-06 12:47:46:222,4.3032,-3.9954,12.3685,0.1403,-0.0156,9.8056,0.1215,0.6175,-0.387,-12.81,-43.06,-7.12,206.18,-88.05,146.98
53.042046,-1.814101,342.63,21.98,4,59.44,18 / 19,324614,2019-11-06 12:47:46:322,-2.8288,5.3851,7.8626,0.0312,-0.0914,9.8061,-0.1567,0.8338,-0.6406,-12.56,-42.25,-7.69,192.36,-87.8,135.25
53.042046,-1.814101,342.63,21.98,4,59.44,18 / 19,324714,2019-11-06 12:47:46:422,-0.245,-0.2582,8.0448,-0.0695,0.0212,9.8063,0.0321,-0.6833,0.2901,-12.62,-43.12,-7.62,178.02,-87.62,119.4
53.042046,-1.814101,342.63,21.98,4,59.44,18 / 19,324814,2019-11-06 12:47:46:522,-3.3478,1.3589,9.9727,-0.0136,-0.0285,9.8065,-0.1548,0.0554,-0.1088,-11.87,-42.75,-7,163.76,-87.55,101.91
53.042046,-1.814101,342.63,21.98,4,59.44,18 / 19,324914,2019-11-06 12:47:46:622,-0.5297,-1.3195,8.6296,-0.0405,0.1037,9.8059,0.0493,-0.7301,0.3801,-12.62,-42.75,-7.25,161.42,-87.42,97.35
53.042046,-1.814101,342.63,21.98,4,59.44,18 / 19,325014,2019-11-06 12:47:46:722,4.0036,-6.1086,12.0798,0.0056,-0.0376,9.8065,0.1611,-0.3549,0.0972,-12.31,-42.37,-6.81,161.91,-87.13,99.49
53.042046,-1.814101,342.63,21.98,4,59.44,18 / 19,325114,2019-11-06 12:47:46:822,-1.2021,-1.9007,11.7286,-0.0304,0.0734,9.8063,0.1752,-0.7164,0.3622,-12.81,-42.87,-5.87,170.71,-86.74,103.92
53.042046,-1.814101,342.63,21.98,4,59.44,18 / 19,325214,2019-11-06 12:47:46:922,4.3259,-6.5669,10.608,-0.0193,0.0549,9.8065,0.1289,-0.7241,0.4794,-13,-42.5,-5.87,176.23,-87.02,110.43
53.042046,-1.814101,342.63,21.98,4,59.44,18 / 19,325314,2019-11-06 12:47:47:022,-0.4125,0.0266,8.8692,-0.0345,0.0266,9.8065,0.0235,-0.1597,0.1468,-13.19,-42.81,-5.75,179.2,-87.32,113.87
53.042046,-1.814101,342.63,21.98,4,59.44,18 / 19,325414,2019-11-06 12:47:47:122,1.1095,-2.9913,9.0645,-0.0115,0.0118,9.8066,-0.1397,-0.2836,0.0503,-12.94,-42.69,-6.5,173.24,-87.37,107.09
53.042046,-1.814101,342.63,21.98,4,59.44,20 / 21,325514,2019-11-06 12:47:47:222,-1.795,-0.1544,8.8208,-0.0122,0.0166,9.8066,-0.1054,0.2173,-0.2031,-12.56,-42.69,-6.5,164.51,-87.27,97.11
53.042046,-1.814101,342.63,21.98,4,59.44,20 / 21,325614,2019-11-06 12:47:47:322,2.0877,-3.5709,9.5253,-0.0445,0.0487,9.8064,-0.1271,-0.0872,0.0504,-13,-42.37,-5.94,161.8,-87.04,93.88
53.042046,-1.814101,342.63,21.98,4,59.44,20 / 21,325714,2019-11-06 12:47:47:422,-0.4793,-2.423,10.6737,-0.0066,-0.0148,9.8066,0.0694,0.3863,-0.3224,-12.62,-42.56,-6.69,160.5,-86.73,95.65
53.042046,-1.814101,342.63,21.98,4,59.44,20 / 21,325814,2019-11-06 12:47:47:522,3.5476,-4.8506,10.4487,-0.0159,0.1094,9.806,0.2699,-0.9036,0.2896,-13.31,-43.12,-6.56,161.15,-86.21,95.92
53.042046,-1.814101,342.63,21.98,4,59.44,20 / 21,325914,2019-11-06 12:47:47:622,0.7825,-3.5523,10.5369,0.0685,-0.0501,9.8062,0.1393,-0.3652,0.1969,-13,-42.56,-6.06,164.9,-86.26,96.78
53.042046,-1.814101,342.63,21.98,4,59.44,20 / 21,326014,2019-11-06 12:47:47:722,-0.752,4.7297,9.7017,0.04,-0.0663,9.8063,0.0022,-0.6448,0.4794,-12.69,-42.37,-6.87,165.13,-86.68,101.03
53.042046,-1.814101,342.63,21.98,4,59.44,20 / 21,326114,2019-11-06 12:47:47:822,0.9092,-2.493,9.6458,0.0262,-0.1174,9.8059,0.0532,-0.7812,0.3446,-13.19,-42.69,-5.62,167.37,-86.49,99.87
53.042046,-1.814101,342.63,21.98,4,59.44,20 / 21,326214,2019-11-06 12:47:47:922,-2.2652,5.634,8.5969,0.0557,-0.104,9.8059,0.0365,-0.2014,0.038,-13.44,-42.75,-6.19,165.55,-87.47,98.44
53.042046,-1.814101,342.63,21.98,4,59.44,20 / 21,326314,2019-11-06 12:47:48:022,0.1671,-2.6184,10.5847,0.0164,-0.0142,9.8066,-0.0028,-0.6109,0.3656,-13.69,-42.37,-5.62,161.7,-87.28,92.56
53.042046,-1.814101,342.63,21.98,4,59.44,20 / 21,326415,2019-11-06 12:47:48:123,-2.1185,4.6009,10.1934,0.0147,-0.0696,9.8063,-0.0479,0.3029,-0.2987,-13.56,-42.69,-5.75,161.67,-87.48,92.65
53.042046,-1.814101,342.63,21.98,4,59.44,17 / 19,326515,2019-11-06 12:47:48:223,1.4125,-5.9143,10.5651,-0.0459,0.0134,9.8065,-0.0745,-0.1918,0.2874,-13.44,-42.12,-5.31,161.91,-87.43,90.56
53.042046,-1.814101,342.63,21.98,4,59.44,17 / 19,326615,2019-11-06 12:47:48:323,1.142,-1.6353,10.6192,0.0072,-0.0248,9.8065,-0.1604,0.6908,-0.37,-14.06,-42.19,-5.62,160.45,-87.59,91.45
53.042046,-1.814101,342.63,21.98,4,59.44,17 / 19,326714,2019-11-06 12:47:48:422,-0.5585,3.0008,10.1724,-0.012,0.0569,9.8065,0.0755,0.2642,0.028,-13.5,-42.44,-5.5,165.01,-88.05,94.54
53.042046,-1.814101,342.63,21.98,4,59.44,17 / 19,326814,2019-11-06 12:47:48:522,0.3586,-0.8508,10.868,0.0154,0.0059,9.8066,0.1095,0.2656,-0.0289,-14.12,-42.62,-4.94,172.26,-87.88,101.09
53.042046,-1.814101,342.63,21.98,4,59.44,17 / 19,326915,2019-11-06 12:47:48:623,1.5076,1.5014,10.7723,-0.005,0.0714,9.8063,0.0838,0.1084,-0.2535,-14.31,-42.87,-4.75,180.93,-88.22,110.67
53.042046,-1.814101,342.63,21.98,4,59.44,17 / 19,327014,2019-11-06 12:47:48:722,0.8251,-5.38,9.1917,-0.0041,0.0009,9.8066,0.0719,0.5331,-0.4022,-14.31,-41.94,-4.37,184.04,-88.25,110.34
53.042046,-1.814101,342.63,21.98,4,59.44,17 / 19,327114,2019-11-06 12:47:48:822,-1.6767,-1.0702,9.2816,-0.0564,0.0543,9.8063,-0.2863,0.4418,-0.1303,-13.56,-42.62,-4.62,175.46,-88.42,104.75
53.042046,-1.814101,342.63,21.98,4,59.44,17 / 19,327214,2019-11-06 12:47:48:922,2.8851,-3.5407,9.6899,-0.0479,0.0644,9.8063,-0.0815,0.1559,-0.1246,-13.94,-42.06,-5.19,166.48,-87.74,94.66
53.042046,-1.814101,342.63,21.98,4,59.44,17 / 19,327314,2019-11-06 12:47:49:022,-0.8005,1.3042,10.5609,-0.0265,0.0613,9.8064,0.0155,0.3708,-0.3265,-13,-42.69,-4.69,163.93,-87.56,92.9
53.042046,-1.814101,342.63,21.98,4,59.44,17 / 19,327414,2019-11-06 12:47:49:122,0.8515,-1.9797,10.5084,-0.0383,0.0612,9.8063,0.048,-0.0706,-0.0498,-13.19,-42.75,-5.06,159.83,-86.88,87.58
53.042046,-1.814101,342.63,21.98,4,59.44,17 / 20,327514,2019-11-06 12:47:49:222,-0.3815,2.4283,10.3065,-0.008,-0.0089,9.8066,-0.0772,0.1815,-0.1258,-12.81,-43.19,-5.56,153.88,-86.8,84.46
53.042046,-1.814101,342.63,21.98,4,59.44,17 / 20,327614,2019-11-06 12:47:49:322,-0.1871,0.052,9.8753,0.0021,0.0099,9.8066,-0.0451,-0.3034,0.1824,-12.94,-42.5,-5.19,158.97,-86.77,86.54
53.042046,-1.814101,342.63,21.98,4,59.44,17 / 20,327714,2019-11-06 12:47:49:422,2.1819,-2.0757,10.1951,0.0284,-0.0532,9.8064,0.1452,-0.1067,0.0722,-12.81,-42.69,-4.69,160.39,-86.62,87.95
53.042046,-1.814101,342.63,21.98,4,59.44,17 / 20,327814,2019-11-06 12:47:49:522,0.3478,-0.9709,10.1115,0.0138,0.0075,9.8066,0.0133,-0.2529,0.0753,-13.62,-42.62,-4.56,162.42,-86.82,89.33
53.042046,-1.814101,342.63,21.98,4,59.44,17 / 20,327914,2019-11-06 12:47:49:622,0.8664,-1.9363,9.2164,-0.0042,-0.0415,9.8065,-0.0694,-0.1935,0.1922,-13.12,-42.56,-4.69,156.52,-87.05,83.95
53.042046,-1.814101,342.63,21.98,4,59.44,17 / 20,328014,2019-11-06 12:47:49:722,1.1,2.1539,9.6246,0.0002,-0.0344,9.8065,-0.1161,-0.0876,0.1585,-13.12,-42.75,-5.31,155.26,-87.02,82.47
53.042046,-1.814101,342.63,21.98,4,59.44,17 / 20,328114,2019-11-06 12:47:49:822,-1.4109,-2.0152,9.6884,-0.0119,-0.0026,9.8066,-0.029,-0.1623,-0.0357,-13.06,-42.94,-5.5,152.81,-86.91,79.51
53.042046,-1.814101,342.63,21.98,4,59.44,17 / 20,328215,2019-11-06 12:47:49:923,1.8493,0.7489,9.0458,0.0086,-0.021,9.8066,0.1423,0.2051,-0.2068,-12.62,-42.37,-4.31,153.59,-86.83,76.37
53.042046,-1.814101,342.63,21.98,4,59.44,17 / 20,328315,2019-11-06 12:47:50:023,-0.8093,2.8496,11.0222,0.0007,0.0681,9.8064,-0.0139,0.1364,-0.1905,-12.5,-42.56,-4.69,147.8,-86.59,74.44
53.042046,-1.814101,342.63,21.98,4,59.44,17 / 20,328415,2019-11-06 12:47:50:123,1.6346,0.0568,9.1516,-0.028,0.0118,9.8066,-0.2256,0.1911,-0.0998,-12.62,-42.94,-4.25,154.34,-86.39,76.55
53.042686,-1.812107,335.6,16.58,6,71.71,17 / 19,328515,2019-11-06 12:47:50:223,0.87,-0.7467,9.9932,0.0261,0.0142,9.8066,-0.2113,0.0049,0.1721,-12.44,-42.87,-4.81,150.6,-86.35,77.33
53.042686,-1.812107,335.6,16.58,6,71.71,17 / 19,328615,2019-11-06 12:47:50:323,1.6975,-2.4695,8.9945,-0.0419,-0.0648,9.8063,0.1296,-0.1539,-0.0078,-12.69,-42.75,-5,139.32,-86.84,64.03
53.042686,-1.812107,335.6,16.58,6,71.71,17 / 19,328715,2019-11-06 12:47:50:423,-1.4871,-0.6744,9.4943,0.0009,-0.0708,9.8063,0.0171,0.0194,-0.0415,-13.37,-42.94,-4.81,137.41,-87.06,62.33
53.042686,-1.812107,335.6,16.58,6,71.71,17 / 19,328815,2019-11-06 12:47:50:523,1.9714,0.3537,10.5857,0.0332,0.0044,9.8066,-0.0693,-0.0468,0.1288,-13.44,-42.37,-4.87,135.54,-87.26,60.81
53.042686,-1.812107,335.6,16.58,6,71.71,17 / 19,328915,2019-11-06 12:47:50:623,0.7004,0.7478,10.735,0.0154,-0.0165,9.8066,-0.0284,0.0484,-0.0419,-13.75,-42.69,-4.44,139.06,-87.62,60.42
53.042686,-1.812107,335.6,16.58,6,71.71,17 / 19,329015,2019-11-06 12:47:50:723,1.2908,-0.8438,8.2639,-0.0319,0.0015,9.8065,-0.0421,-0.0598,0.0321,-13.5,-42.56,-5.19,133.22,-87.61,58.9
53.042686,-1.812107,335.6,16.58,6,71.71,17 / 19,329115,2019-11-06 12:47:50:823,0.5529,0.1341,9.9017,-0.0324,-0.0446,9.8064,-0.0158,0.1713,-0.1977,-13.25,-42.87,-5.12,125.27,-87.37,49.68
53.042686,-1.812107,335.6,16.58,6,71.71,17 / 19,329215,2019-11-06 12:47:50:923,0.8014,-3.9734,8.7762,-0.0383,-0.0076,9.8065,0.0199,-0.1232,0.0303,-13.69,-42.25,-5.25,123.41,-86.82,45.57
53.042686,-1.812107,335.6,16.58,6,71.71,17 / 19,329315,2019-11-06 12:47:51:023,1.0787,2.4261,8.8695,0.0116,-0.0805,9.8063,-0.0502,0.2874,-0.1948,-12.94,-42.69,-5.19,120.99,-86.83,43.63
53.042686,-1.812107,335.6,16.58,6,71.71,17 / 19,329415,2019-11-06 12:47:51:123,-1.2018,4.5417,7.2438,-0.0743,0.0445,9.8062,0.1555,-0.7084,0.2364,-13.25,-42.31,-5.56,119.41,-86.62,45.55
53.042686,-1.812107,335.6,16.58,6,71.71,15 / 20,329515,2019-11-06 12:47:51:223,-1.2228,1.4985,9.8132,0.001,-0.072,9.8064,-0.0595,-0.1322,0.1507,-13.5,-43.06,-6.12,114.53,-86.27,39.1
53.042686,-1.812107,335.6,16.58,6,71.71,15 / 20,329614,2019-11-06 12:47:51:322,1.9176,-1.9211,10.8142,-0.0095,-0.0092,9.8066,-0.1461,-0.2433,0.2686,-13.87,-42.87,-5.62,115.08,-86.1,38.29
53.042686,-1.812107,335.6,16.58,6,71.71,15 / 20,329714,2019-11-06 12:47:51:422,1.1042,-4.52,11.5984,0.0395,-0.0718,9.8063,0.1932,-0.1457,0.1181,-13.69,-42.06,-5.19,114.39,-86.28,34.48
53.042686,-1.812107,335.6,16.58,6,71.71,15 / 20,329814,2019-11-06 12:47:51:522,1.5989,0.1918,10.206,0.0353,0.0056,9.8066,0.1122,-0.4169,0.2454,-14.69,-42.37,-5.12,114.08,-86.65,34.4
53.042686,-1.812107,335.6,16.58,6,71.71,15 / 20,329915,2019-11-06 12:47:51:623,1.3749,-2.9978,8.6023,-0.034,-0.0408,9.8065,-0.1083,-0.3717,0.1999,-13.5,-42.5,-4.81,111.17,-86.75,33.04
53.042686,-1.812107,335.6,16.58,6,71.71,15 / 20,330014,2019-11-06 12:47:51:722,-2.8451,-0.098,9.3625,0.0067,-0.0674,9.8063,0.0113,0.1286,0.0525,-13.87,-42.94,-5.81,101.14,-86.6,24.89
53.042686,-1.812107,335.6,16.58,6,71.71,15 / 20,330114,2019-11-06 12:47:51:822,0.7502,1.2879,8.5476,0.005,0.018,9.8066,-0.0797,0.0319,-0.0773,-14.56,-42.25,-6.12,104.35,-86.47,27.24
53.042686,-1.812107,335.6,16.58,6,71.71,15 / 20,330214,2019-11-06 12:47:51:922,0.1735,1.1042,9.8971,0.0124,-0.0123,9.8066,0.0754,-0.1001,0.0039,-14,-42.12,-5.12,107.82,-86.74,28.69
53.042686,-1.812107,335.6,16.58,6,71.71,15 / 20,330314,2019-11-06 12:47:52:022,1.3342,0.0203,11.2882,0.0407,-0.0316,9.8064,0.1075,-0.1707,0.0889,-13.81,-42.19,-5,113.18,-86.82,34.58
53.042686,-1.812107,335.6,16.58,6,71.71,15 / 20,330414,2019-11-06 12:47:52:122,-0.4754,-0.2912,11.4185,0.0084,-0.0136,9.8066,-0.0759,0.163,-0.1671,-13.62,-41.31,-5.12,109.67,-87.16,31.95
53.042686,-1.812107,335.6,16.58,6,71.71,17 / 18,330514,2019-11-06 12:47:52:222,0.858,-3.3401,10.8637,-0.0031,0.034,9.8066,0.022,-0.0782,0.1428,-14.12,-42.56,-5.12,106.92,-87.44,29.48
53.042686,-1.812107,335.6,16.58,6,71.71,17 / 18,330614,2019-11-06 12:47:52:322,-0.9671,-1.0936,10.7644,0.0331,-0.0028,9.8066,-0.0429,0.5534,-0.2076,-14.37,-42,-5.19,110.64,-87.74,34.31
53.042686,-1.812107,335.6,16.58,6,71.71,17 / 18,330714,2019-11-06 12:47:52:422,-1.6394,4.6834,9.8048,-0.0059,0.0557,9.8064,0.0002,0.4997,-0.1881,-14.19,-42.44,-4.44,120.96,-87.9,41.72
53.042686,-1.812107,335.6,16.58,6,71.71,17 / 18,330814,2019-11-06 12:47:52:522,0.2176,0.9603,10.3873,-0.021,0.0292,9.8065,0.0151,0.2599,-0.1429,-14.5,-42.37,-5,116.1,-88.08,40.89
53.042686,-1.812107,335.6,16.58,6,71.71,17 / 18,330914,2019-11-06 12:47:52:622,-0.3245,3.0269,9.0656,-0.0247,0.0095,9.8065,-0.1377,0.3135,-0.0493,-14.44,-42.62,-5.25,112.92,-88.26,37.94
53.042686,-1.812107,335.6,16.58,6,71.71,17 / 18,331014,2019-11-06 12:47:52:722,-1.3958,2.289,9.1674,-0.0217,0.0082,9.8065,-0.0269,0.1098,0.0675,-14.37,-42.56,-4.81,110.84,-88.07,35.28
53.042686,-1.812107,335.6,16.58,6,71.71,17 / 18,331114,2019-11-06 12:47:52:822,-1.071,1.1872,9.2955,0.0136,0.0311,9.8065,0.0453,0.1119,-0.0757,-14.12,-42.37,-5.5,104.65,-88.04,28.95
53.042686,-1.812107,335.6,16.58,6,71.71,17 / 18,331214,2019-11-06 12:47:52:922,-0.0094,0.1044,10.2514,0.0019,-0.0112,9.8066,0.004,0.1115,0.0497,-13.75,-42.06,-5.69,103.52,-88.03,31.44
53.042686,-1.812107,335.6,16.58,6,71.71,17 / 18,331314,2019-11-06 12:47:53:022,-0.5051,2.1011,9.2869,-0.0146,-0.0155,9.8066,-0.083,0.1375,-0.065,-14.44,-42,-6.31,98,-87.95,25.59
53.042686,-1.812107,335.6,16.58,6,71.71,17 / 18,331415,2019-11-06 12:47:53:123,-1.1735,2.4018,9.774,-0.0136,-0.005,9.8066,0.0012,0.0549,0.0669,-14.06,-42.19,-6.62,89.19,-87.85,19.98
53.042686,-1.812107,335.6,16.58,6,71.71,16 / 20,331515,2019-11-06 12:47:53:223,-1.0063,2.1745,9.7625,-0.0018,-0.0198,9.8066,-0.0295,0.1273,-0.0258,-13.87,-42.19,-6.81,85.27,-87.76,15.84
53.042686,-1.812107,335.6,16.58,6,71.71,16 / 20,331614,2019-11-06 12:47:53:322,-0.1569,0.0723,9.3645,0.001,0.0196,9.8066,-0.0368,0.1391,0.0291,-14.37,-41.94,-6.62,77.32,-87.86,8.27
53.042686,-1.812107,335.6,16.58,6,71.71,16 / 20,331715,2019-11-06 12:47:53:423,-1.4071,0.8554,10.957,0.0134,-0.0173,9.8066,0.0376,0.3753,-0.1114,-13.87,-42.19,-7.75,70.2,-87.84,4.63
53.042686,-1.812107,335.6,16.58,6,71.71,16 / 20,331815,2019-11-06 12:47:53:523,-0.4002,-0.7149,9.9133,-0.014,0.0475,9.8064,0.065,-0.1554,0.0827,-14.06,-42.75,-8,69.4,-87.77,3.54
53.042686,-1.812107,335.6,16.58,6,71.71,16 / 20,331916,2019-11-06 12:47:53:624,0.4603,1.3453,8.8303,0.0253,-0.0323,9.8065,0.0274,0.0574,0.0448,-14.12,-42.12,-8,61.06,-87.73,-4.41
53.042686,-1.812107,335.6,16.58,6,71.71,16 / 20,332014,2019-11-06 12:47:53:722,-1.9811,4.664,7.1947,-0.0096,-0.0331,9.8066,0.0051,-0.1848,0.1561,-13.5,-42.31,-8,62.28,-87.38,-2.53
53.042686,-1.812107,335.6,16.58,6,71.71,16 / 20,332114,2019-11-06 12:47:53:822,0.4911,-0.7062,8.7001,0.0027,-0.0273,9.8065,-0.0255,-0.3042,0.1285,-14.19,-42,-9,63.71,-86.87,-0.69
53.042686,-1.812107,335.6,16.58,6,71.71,16 / 20,332214,2019-11-06 12:47:53:922,-1.2364,2.6934,9.061,0.0257,-0.0387,9.8064,-0.0522,0.2368,-0.0446,-13.87,-41.5,-9.25,59.01,-86.63,-5.44
53.042686,-1.812107,335.6,16.58,6,71.71,16 / 20,332314,2019-11-06 12:47:54:022,1.1493,-0.1278,10.7483,0.0246,-0.011,9.8066,0.1144,-0.1166,0.14,-13.81,-41.31,-8.81,62.16,-86.59,-2.6
53.042686,-1.812107,335.6,16.58,6,71.71,16 / 20,332415,2019-11-06 12:47:54:123,-0.5367,0.6833,9.2109,-0.0039,0.0111,9.8066,0.1118,0.1304,-0.1302,-14.44,-41.94,-9.69,61.82,-86.63,0.04
53.042686,-1.812107,335.6,16.58,6,71.71,15 / 17,332515,2019-11-06 12:47:54:223,1.549,1.9031,10.6135,-0.0246,0.0653,9.8064,0.0046,0.1604,-0.0671,-13.37,-42.19,-8.56,69.76,-86.73,6.25
53.042686,-1.812107,335.6,16.58,6,71.71,15 / 17,332615,2019-11-06 12:47:54:323,0.1996,-0.7866,9.7335,0.0202,0.0454,9.8065,0.027,0.0192,-0.0611,-13.94,-42.25,-9.19,74.96,-86.91,10.13
53.042686,-1.812107,335.6,16.58,6,71.71,15 / 17,332715,2019-11-06 12:47:54:423,2.2815,1.3799,9.8217,0.0326,0.0482,9.8064,0.1133,0.0588,-0.1619,-13.44,-42.19,-9.31,78.26,-86.83,14.65
53.042686,-1.812107,335.6,16.58,6,71.71,15 / 17,332815,2019-11-06 12:47:54:523,-1.2882,2.3349,8.8302,-0.0165,0.0278,9.8066,-0.0493,0.0005,0.0022,-12.37,-42.25,-9.62,85.62,-86.97,27.26
53.042686,-1.812107,335.6,16.58,6,71.71,15 / 17,332915,2019-11-06 12:47:54:623,-0.811,1.6629,10.4257,0.0041,0.0191,9.8066,0.0868,0.0912,-0.0111,-12.19,-42.19,-9.31,94.39,-86.96,32.75
53.042686,-1.812107,335.6,16.58,6,71.71,15 / 17,333015,2019-11-06 12:47:54:723,1.3373,1.8222,8.9187,0.0154,0.0012,9.8066,-0.0038,0.0528,-0.0476,-12.37,-42.12,-10.06,92.33,-87.09,34.3
53.042686,-1.812107,335.6,16.58,6,71.71,15 / 17,333115,2019-11-06 12:47:54:823,-0.2403,1.4941,10.2633,0.0154,-0.0142,9.8065,0.0676,0.0173,0.1167,-13.06,-41.94,-10.19,86.3,-87.39,27.18
53.042686,-1.812107,335.6,16.58,6,71.71,15 / 17,333215,2019-11-06 12:47:54:923,1.1399,0.8626,10.7563,0.0386,-0.0246,9.8065,0.0109,-0.094,0.1258,-12.75,-42,-10,82.66,-87.57,24.03
53.042686,-1.812107,335.6,16.58,6,71.71,15 / 17,333315,2019-11-06 12:47:55:023,-0.6,-0.4936,9.9842,0.0032,0.0006,9.8066,0.0188,-0.0309,0.011,-12.87,-41.81,-9.56,86.48,-87.68,28.1
53.042686,-1.812107,335.6,16.58,6,71.71,15 / 17,333415,2019-11-06 12:47:55:123,2.7723,1.5934,10.6457,0.0182,-0.0174,9.8065,-0.0915,0.0428,0.0244,-12.19,-41.44,-9.94,86.35,-87.73,30.2
53.042686,-1.812107,335.6,16.58,6,71.71,15 / 19,333514,2019-11-06 12:47:55:222,0.3203,0.7587,10.0919,0.0051,-0.0367,9.8065,0.0256,-0.0583,0.0626,-12.06,-42.31,-9.75,90.66,-87.29,33.15
53.042686,-1.812107,335.6,16.58,6,71.71,15 / 19,333614,2019-11-06 12:47:55:322,-1.5302,2.4837,9.1682,-0.017,0.0048,9.8066,0.0215,-0.1079,0.0381,-12.5,-41.69,-10.19,83.97,-87.29,26.51
53.042686,-1.812107,335.6,16.58,6,71.71,15 / 19,333714,2019-11-06 12:47:55:422,-1.3005,2.2343,10.1668,0.011,-0.0339,9.8065,0.0397,0.2878,-0.056,-13.12,-41.81,-10.06,77.67,-87.28,18.39
53.042686,-1.812107,335.6,16.58,6,71.71,15 / 19,333814,2019-11-06 12:47:55:522,1.639,-1.3132,10.314,0.0302,-0.0336,9.8065,0.1485,-0.0065,0.0089,-13.44,-41.62,-9.62,76.75,-87.35,17.68
53.042686,-1.812107,335.6,16.58,6,71.71,15 / 19,333914,2019-11-06 12:47:55:622,-1.2995,3.4063,9.2308,0.0762,-0.0203,9.8063,-0.0799,0.3746,-0.152,-12.81,-41.87,-9.56,73.77,-87.77,15.83
53.042686,-1.812107,335.6,16.58,6,71.71,15 / 19,334014,2019-11-06 12:47:55:722,1.2988,1.5114,10.4138,-0.0268,0.0654,9.8063,-0.0267,-0.4556,0.2766,-12.56,-42.06,-9.81,74.85,-87.99,17.45
53.042686,-1.812107,335.6,16.58,6,71.71,15 / 19,334114,2019-11-06 12:47:55:822,1.6661,-1.8952,8.7493,0.0167,0.0041,9.8065,-0.1405,0.0523,0.0106,-13.25,-42.37,-10,80.79,-87.94,23.13
53.042686,-1.812107,335.6,16.58,6,71.71,15 / 19,334214,2019-11-06 12:47:55:922,2.4146,-1.3558,9.5245,-0.0675,0.0451,9.8063,-0.0138,-0.5388,0.2345,-12.62,-42,-10.31,87.4,-87.26,27.94
53.042686,-1.812107,335.6,16.58,6,71.71,15 / 19,334314,2019-11-06 12:47:56:022,1.5385,-0.625,8.3902,-0.0138,0.0429,9.8065,-0.0744,-0.2316,0.1801,-13.06,-42.12,-10.56,84.38,-87.17,27.63
53.042686,-1.812107,335.6,16.58,6,71.71,15 / 19,334414,2019-11-06 12:47:56:122,-4.0243,4.6235,9.4526,-0.0757,0.0726,9.8061,0.0692,-0.5604,0.2492,-12.69,-42.19,-10.37,82.59,-87.19,22.98
53.042686,-1.812107,335.6,16.58,6,71.71,15 / 19,334514,2019-11-06 12:47:56:222,2.0806,0.4308,10.5144,-0.0452,0.0608,9.8063,0.24,-0.745,0.4175,-12.37,-42.19,-10.37,90.16,-86.94,31.7
53.042686,-1.812107,335.6,16.58,6,71.71,15 / 19,334614,2019-11-06 12:47:56:322,-5.7782,7.7072,10.3977,-0.0683,0.0712,9.8061,0.1272,-0.2519,0.1063,-11.87,-42.19,-10.62,85.76,-87.43,31.63
53.042686,-1.812107,335.6,16.58,6,71.71,15 / 19,334714,2019-11-06 12:47:56:422,-0.0062,-0.0057,11.6467,-0.1134,0.1132,9.8053,0.1106,-0.8677,0.4378,-12.75,-42,-10.44,102.25,-87,42.3
53.042686,-1.812107,335.6,16.58,6,71.71,15 / 19,334814,2019-11-06 12:47:56:522,-3.3442,6.6686,9.2114,0.0435,-0.0494,9.8064,-0.0068,0.6117,-0.3397,-12.62,-42.12,-10.25,92.72,-87.52,33.93
53.042686,-1.812107,335.6,16.58,6,71.71,15 / 19,334914,2019-11-06 12:47:56:622,-0.257,-0.517,10.1449,-0.0487,0.058,9.8063,0.107,-0.0585,0.0559,-12.5,-42.81,-9.44,101.87,-87.54,41.82
53.042686,-1.812107,335.6,16.58,6,71.71,15 / 19,335014,2019-11-06 12:47:56:722,2.5022,-2.5491,9.8238,0.0443,-0.0468,9.8064,-0.141,0.5943,-0.4134,-12.5,-42.5,-10.44,100.36,-87.54,43.65
53.042686,-1.812107,335.6,16.58,6,71.71,15 / 19,335114,2019-11-06 12:47:56:822,0.9317,-2.6103,9.4123,-0.0199,0.0088,9.8066,-0.0043,0.2651,-0.1195,-12.37,-42.12,-9.56,100.2,-87.53,43.47
53.042686,-1.812107,335.6,16.58,6,71.71,15 / 19,335214,2019-11-06 12:47:56:922,2.6807,-1.6333,9.6656,0.0803,-0.0962,9.8058,-0.1491,0.7974,-0.4248,-11.87,-41.87,-10.62,98.26,-87.42,44.17
53.042686,-1.812107,335.6,16.58,6,71.71,15 / 19,335315,2019-11-06 12:47:57:023,-5.4291,5.132,8.5766,0.0436,-0.0566,9.8064,-0.1884,0.7895,-0.2814,-12,-42.06,-10.25,86.08,-87.71,29.72
53.042686,-1.812107,335.6,16.58,6,71.71,15 / 19,335415,2019-11-06 12:47:57:123,0.9743,1.4766,8.4927,0.0576,-0.1026,9.8059,0.1102,-0.8288,0.5647,-13,-41.81,-10.62,64.23,-87.69,9.3
53.042686,-1.812107,335.6,16.58,6,71.71,16 / 18,335516,2019-11-06 12:47:57:224,-2.7094,4.5582,9.4874,0.0919,-0.1074,9.8056,0.0259,0.0509,-0.0248,-13.19,-42.06,-10.69,57.99,-87.59,3.16
53.042686,-1.812107,335.6,16.58,6,71.71,16 / 18,335614,2019-11-06 12:47:57:322,2.3312,-3.7766,10.8647,-0.0093,0.0153,9.8065,0.0656,-0.5044,0.2802,-13.25,-41.62,-10.44,64.77,-87.58,6.69
53.042686,-1.812107,335.6,16.58,6,71.71,16 / 18,335714,2019-11-06 12:47:57:422,3.7536,-2.8757,11.6967,0.0482,-0.0347,9.8064,-0.0627,0.8415,-0.5067,-12.62,-42.12,-10.25,68.08,-87.81,10.41
53.042686,-1.812107,335.6,16.58,6,71.71,16 / 18,335814,2019-11-06 12:47:57:522,2.7076,-1.8673,10.6942,-0.0886,0.1063,9.8056,-0.0667,0.3145,-0.1691,-13.31,-41.94,-10.37,76.93,-88.04,19.59
53.042686,-1.812107,335.6,16.58,6,71.71,16 / 18,335914,2019-11-06 12:47:57:622,2.0447,-2.8501,10.5784,-0.0284,0.0334,9.8065,-0.052,0.4698,-0.3559,-12.75,-42,-9.56,95.85,-87.77,37.74
53.042686,-1.812107,335.6,16.58,6,71.71,16 / 18,336014,2019-11-06 12:47:57:722,-0.2003,1.4,10.7298,-0.0335,0.0381,9.8065,-0.0694,0.4138,-0.2138,-12.31,-42.06,-10.44,100.83,-87.62,44.35
53.042686,-1.812107,335.6,16.58,6,71.71,16 / 18,336115,2019-11-06 12:47:57:823,2.0323,-1.2766,11.5596,-0.011,0.0366,9.8065,0.1859,-0.3007,0.1886,-12.06,-41.56,-10.25,107.18,-87.69,51.04
53.042686,-1.812107,335.6,16.58,6,71.71,16 / 18,336215,2019-11-06 12:47:57:923,-0.7977,-1.1464,9.6029,0.0479,-0.0195,9.8064,-0.0262,-0.0543,0.03,-12.56,-42.31,-9.25,115.77,-87.82,55.26
53.042686,-1.812107,335.6,16.58,6,71.71,16 / 18,336314,2019-11-06 12:47:58:022,-0.1057,3.1729,8.5522,0.0159,-0.0226,9.8065,0.1014,-0.3064,0.188,-12.69,-42.69,-9.44,116.89,-88.2,57.22
53.042686,-1.812107,335.6,16.58,6,71.71,16 / 18,336414,2019-11-06 12:47:58:122,0.5416,0.179,9.8162,0.0566,-0.0291,9.8064,0.0815,-0.2991,0.1716,-12.75,-42.25,-9.44,114.48,-88.19,54.8
53.042686,-1.812107,335.6,16.58,6,71.71,16 / 19,336515,2019-11-06 12:47:58:223,0.1711,0.4051,9.793,0.0529,-0.0178,9.8065,0.06,-0.1149,0.1322,-13.06,-42.12,-10.31,122.62,-88.65,67.29
53.042686,-1.812107,335.6,16.58,6,71.71,16 / 19,336615,2019-11-06 12:47:58:323,1.4942,-1.3628,9.8163,0.0094,-0.019,9.8066,0.0209,-0.2421,0.0934,-12.62,-42.69,-9.25,136.49,-88.58,78.54
53.042686,-1.812107,335.6,16.58,6,71.71,16 / 19,336714,2019-11-06 12:47:58:422,1.1083,-0.0043,9.1811,-0.0023,-0.0311,9.8065,-0.009,0.0436,-0.0017,-12.94,-42.37,-9.75,123.02,-88.66,67.72
53.042686,-1.812107,335.6,16.58,6,71.71,16 / 19,336814,2019-11-06 12:47:58:522,-1.4478,-0.9429,9.9321,-0.0001,-0.0053,9.8066,-0.0439,0.0077,0.0003,-13.62,-42,-9.94,115.39,-88.71,58.09
53.042686,-1.812107,335.6,16.58,6,71.71,16 / 19,336914,2019-11-06 12:47:58:622,-0.3711,-2.438,9.7845,0.0123,0.0037,9.8066,-0.0225,-0.0534,0.1084,-13.25,-42.5,-9.94,109.8,-88.88,54.67
53.042686,-1.812107,335.6,16.58,6,71.71,16 / 19,337014,2019-11-06 12:47:58:722,-0.465,-1.1769,10.8244,0.0247,0.0032,9.8065,0.1351,0.0504,-0.0455,-13,-42.31,-9.56,118.28,-89.12,63.86
53.042686,-1.812107,335.6,16.58,6,71.71,16 / 19,337115,2019-11-06 12:47:58:823,2.512,-0.4189,10.8771,0.0301,0.0593,9.8063,0.1872,-0.0367,-0.0786,-13.75,-42.06,-9.19,135.99,-89.15,77.24
53.042686,-1.812107,335.6,16.58,6,71.71,16 / 19,337215,2019-11-06 12:47:58:923,3.6833,-1.2737,10.5145,0.0245,0.0171,9.8065,0.1086,-0.3399,0.055,-13.25,-42.44,-9.06,122.98,-89.15,65.78
53.042686,-1.812107,335.6,16.58,6,71.71,16 / 19,337314,2019-11-06 12:47:59:022,-3.1344,0.3747,9.1261,0.0384,-0.0508,9.8064,0.0826,-0.2123,0.0451,-12.69,-42.81,-8.31,115.61,-89.22,55.23
53.042686,-1.812107,335.6,16.58,6,71.71,16 / 19,337414,2019-11-06 12:47:59:122,2.6409,-2.4576,10.0584,0.0392,-0.0618,9.8063,-0.0215,-0.607,0.4103,-14.06,-42.19,-8.94,124.7,-88.74,64.82
53.043255,-1.810069,330.76,18.05,6,60.19,18 / 19,337514,2019-11-06 12:47:59:222,1.4703,-5.0647,9.6647,0.0232,-0.0849,9.8062,-0.1813,-0.0848,0.1543,-14.25,-41.62,-9,127.16,-88.9,67.7
53.043255,-1.810069,330.76,18.05,6,60.19,18 / 19,337614,2019-11-06 12:47:59:322,3.1623,-4.1723,10.5673,0.0048,-0.0215,9.8066,0.1137,-0.507,0.265,-13.94,-41.5,-8.75,79.56,-89.23,20.44
53.043255,-1.810069,330.76,18.05,6,60.19,18 / 19,337714,2019-11-06 12:47:59:422,0.5048,-0.3658,10.6726,0.0669,-0.0682,9.8061,-0.0841,0.6228,-0.351,-14.06,-42,-8.62,41.19,-89.37,-17.13
53.043255,-1.810069,330.76,18.05,6,60.19,18 / 19,337814,2019-11-06 12:47:59:522,3.2739,-3.7105,10.7583,0.0706,-0.0627,9.8062,0.0178,0.0633,-0.1119,-14.19,-42.25,-8.56,39.25,-89.36,-19.03
53.043255,-1.810069,330.76,18.05,6,60.19,18 / 19,337914,2019-11-06 12:47:59:622,3.9702,-5.5194,10.0769,0.0441,-0.1008,9.806,0.0341,-0.2789,0.1382,-14.12,-41.87,-8.62,106.58,-89.39,47.85
53.043255,-1.810069,330.76,18.05,6,60.19,18 / 19,338014,2019-11-06 12:47:59:722,0.4195,-0.8547,8.4413,-0.0045,-0.0236,9.8066,-0.0791,-0.5673,0.3297,-14.31,-41.87,-8.12,69.03,-89.25,6.96
53.043255,-1.810069,330.76,18.05,6,60.19,18 / 19,338114,2019-11-06 12:47:59:822,3.6751,-7.665,10.2977,0.041,-0.1051,9.8059,-0.0013,-0.7923,0.3854,-14.75,-41.5,-8.12,39.54,-88.82,-24.2
53.043255,-1.810069,330.76,18.05,6,60.19,18 / 19,338214,2019-11-06 12:47:59:922,1.3133,-2.5233,11.2836,0.0761,-0.1008,9.8058,0.0638,0.3449,-0.1273,-14.31,-41.56,-8.06,30.17,-88.77,-31.7
53.043255,-1.810069,330.76,18.05,6,60.19,18 / 19,338314,2019-11-06 12:48:00:022,2.9247,-8.3478,11.489,-0.0028,0.0408,9.8066,-0.0805,-0.3288,0.054,-15.06,-41.81,-7.37,36.8,-89.3,-29.25
53.043255,-1.810069,330.76,18.05,6,60.19,18 / 19,338414,2019-11-06 12:48:00:122,2.7495,-3.4027,9.6006,-0.0159,0.0018,9.8066,-0.223,0.5641,-0.3601,-14.19,-41.37,-7.75,43.36,-89.57,-17.65
53.043255,-1.810069,330.76,18.05,6,60.19,18 / 19,338514,2019-11-06 12:48:00:222,-3.6341,3.321,7.8927,-0.106,0.0707,9.8057,-0.1764,0.2706,-0.3076,-15.25,-41.44,-7.75,85.69,-88.91,21.14
53.043255,-1.810069,330.76,18.05,6,60.19,18 / 19,338615,2019-11-06 12:48:00:323,-0.3538,-4.3314,8.7332,-0.0454,0.0469,9.8064,-0.1462,0.4217,-0.2966,-14.69,-41.87,-6.75,75.4,-88.9,7.71
53.043255,-1.810069,330.76,18.05,6,60.19,18 / 19,338715,2019-11-06 12:48:00:423,-0.1294,4.5718,9.16,-0.0552,0.0837,9.8061,-0.0106,0.6125,-0.5624,-13.87,-41.94,-7.5,76.59,-88.82,10.06
53.043255,-1.810069,330.76,18.05,6,60.19,18 / 19,338814,2019-11-06 12:48:00:522,0.8853,-3.2856,10.2761,-0.0612,0.1061,9.8058,-0.0632,-0.1759,-0.0712,-13.94,-42.25,-7.25,106.21,-88.17,38.07
53.043255,-1.810069,330.76,18.05,6,60.19,18 / 19,338914,2019-11-06 12:48:00:622,-2.2919,3.2629,9.8906,0.0187,-0.0167,9.8065,-0.0172,0.245,-0.1602,-13.62,-41.69,-7.75,110.93,-87.79,45.29
53.043255,-1.810069,330.76,18.05,6,60.19,18 / 19,339015,2019-11-06 12:48:00:723,1.1872,-3.342,10.1648,-0.0366,0.0672,9.8063,-0.0612,-0.5027,0.3491,-13.44,-42.56,-6.69,121.52,-87.46,53.52
53.043255,-1.810069,330.76,18.05,6,60.19,18 / 19,339115,2019-11-06 12:48:00:823,2.397,-2.9781,9.8335,0.033,-0.0435,9.8064,0.0594,0.0993,-0.204,-14.06,-42.56,-6.62,121.76,-87.76,53.1
53.043255,-1.810069,330.76,18.05,6,60.19,18 / 19,339215,2019-11-06 12:48:00:923,1.2559,-3.1803,8.3991,-0.0196,0.0252,9.8065,-0.098,-0.353,0.1665,-13.69,-42.06,-7.12,122.39,-87.58,53.48
53.043255,-1.810069,330.76,18.05,6,60.19,18 / 19,339316,2019-11-06 12:48:01:024,-0.035,-2.5648,8.8596,-0.0253,-0.0459,9.8065,-0.0945,-0.083,0.0502,-14.87,-42.5,-6.19,123.65,-87.46,49.96
53.043255,-1.810069,330.76,18.05,6,60.19,18 / 19,339415,2019-11-06 12:48:01:123,-0.3417,-0.8719,9.885,-0.0247,0.0222,9.8065,-0.0168,-0.2057,0.0387,-13.44,-42.69,-6.81,117.03,-87.04,47.66
53.043255,-1.810069,330.76,18.05,6,60.19,18 / 20,339515,2019-11-06 12:48:01:223,1.208,-4.5151,10.2375,0.0453,-0.0116,9.8064,0.174,-0.0351,-0.0443,-12.56,-43,-6.75,124,-86.72,54.4
53.043255,-1.810069,330.76,18.05,6,60.19,18 / 20,339615,2019-11-06 12:48:01:323,1.8407,-1.7237,9.1467,0.0564,-0.0042,9.8065,0.0076,-0.7675,0.5121,-13.12,-42.75,-6.69,131.84,-86.92,63.49
53.043255,-1.810069,330.76,18.05,6,60.19,18 / 20,339714,2019-11-06 12:48:01:422,4.2288,-7.2218,9.559,0.033,-0.1619,9.8052,0.0301,-0.9114,0.5673,-12.94,-42.94,-6.69,120.82,-87.57,53.06
53.043255,-1.810069,330.76,18.05,6,60.19,18 / 20,339815,2019-11-06 12:48:01:523,0.4451,4.2517,9.4761,0.0412,-0.1509,9.8054,-0.1842,-0.171,0.19,-13.5,-42.75,-6.81,116.25,-87.48,47.97
53.043255,-1.810069,330.76,18.05,6,60.19,18 / 20,339915,2019-11-06 12:48:01:623,3.0199,-7.0497,9.7206,0.009,-0.0366,9.8065,0.1492,-0.8784,0.409,-13.81,-42.31,-7,119.79,-86.94,49.24
53.043255,-1.810069,330.76,18.05,6,60.19,18 / 20,340015,2019-11-06 12:48:01:723,-1.1717,3.6265,9.3039,0.0661,-0.0881,9.806,-0.0685,0.5885,-0.3826,-13.25,-42.56,-7.19,115.6,-87.23,46.62
53.043255,-1.810069,330.76,18.05,6,60.19,18 / 20,340114,2019-11-06 12:48:01:822,-1.4943,2.8995,10.7327,-0.0172,0.0678,9.8064,0.0498,-0.1743,0.1044,-13.56,-42.69,-6.37,122.2,-87.18,48.67
53.043255,-1.810069,330.76,18.05,6,60.19,18 / 20,340214,2019-11-06 12:48:01:922,-0.0853,2.268,8.7211,0.0088,-0.0001,9.8066,-0.2129,0.8891,-0.3904,-13.25,-42.81,-6.12,125.87,-86.98,53.31
53.043255,-1.810069,330.76,18.05,6,60.19,18 / 20,340315,2019-11-06 12:48:02:023,-4.272,6.8882,10.3422,-0.045,0.111,9.8059,-0.0413,0.9499,-0.5548,-13,-42.87,-7,127.99,-86.56,58.41
53.043255,-1.810069,330.76,18.05,6,60.19,18 / 20,340415,2019-11-06 12:48:02:123,2.1391,-9.4763,10.6647,-0.0738,0.1623,9.805,0.1,0.5857,-0.3903,-13.81,-42.81,-5.87,134.86,-86.58,61.25
53.043255,-1.810069,330.76,18.05,6,60.19,16 / 19,340514,2019-11-06 12:48:02:222,-1.2801,8.0365,9.9324,0.0106,0.0788,9.8063,-0.0343,1.2803,-0.6343,-12.94,-42.62,-5.69,134.63,-87.25,63.54
53.043255,-1.810069,330.76,18.05,6,60.19,16 / 19,340614,2019-11-06 12:48:02:322,2.8713,-7.0989,11.4192,-0.06,0.1689,9.8049,-0.0131,-0.6186,0.3143,-13.37,-42.56,-5.06,149.59,-86.71,75.51
53.043255,-1.810069,330.76,18.05,6,60.19,16 / 19,340715,2019-11-06 12:48:02:423,1.4564,-4.0728,10.691,0.0517,-0.066,9.8063,0.0039,0.5064,-0.249,-12.94,-42.87,-5.87,145.8,-86.93,75.43
53.043255,-1.810069,330.76,18.05,6,60.19,16 / 19,340815,2019-11-06 12:48:02:523,1.9914,-6.113,10.7066,-0.0092,0.0477,9.8065,0.1743,-0.8334,0.5044,-13.5,-42.62,-5.56,149.72,-87.17,80.24
53.043255,-1.810069,330.76,18.05,6,60.19,16 / 19,340915,2019-11-06 12:48:02:623,1.5609,0.0018,10.1022,0.0616,-0.0938,9.806,0.0544,-0.0444,0.0199,-13.12,-42.44,-5.56,152.25,-88.04,84.37
53.043255,-1.810069,330.76,18.05,6,60.19,16 / 19,341015,2019-11-06 12:48:02:723,-2.1855,1.3759,9.2448,0.0095,0.0005,9.8066,0.1689,-0.6511,0.2877,-13.69,-42.94,-5.25,155.24,-87.93,82.4
53.043255,-1.810069,330.76,18.05,6,60.19,16 / 19,341115,2019-11-06 12:48:02:823,-1.6485,1.2548,9.7633,0.0576,-0.0663,9.8062,0.0054,-0.2778,0.141,-13.69,-42.19,-4.81,154.77,-87.76,81.74
53.043255,-1.810069,330.76,18.05,6,60.19,16 / 19,341215,2019-11-06 12:48:02:923,-0.6331,3.1386,10.23,0.0243,-0.0257,9.8065,0.0737,-0.7262,0.3985,-13.62,-42.56,-4.5,165.87,-87.84,90.26
53.043255,-1.810069,330.76,18.05,6,60.19,16 / 19,341315,2019-11-06 12:48:03:023,-0.1704,-7.4551,9.5607,0.0107,-0.1179,9.8059,-0.0415,-0.6954,0.4185,-14,-43,-4.5,169.55,-87.5,94.16
53.043255,-1.810069,330.76,18.05,6,60.19,16 / 19,341414,2019-11-06 12:48:03:122,-0.8403,2.7988,8.9523,0.0391,-0.1042,9.8059,-0.0036,-0.1579,0.1702,-13.69,-42.25,-4.94,163.28,-88.29,91.55
53.043255,-1.810069,330.76,18.05,6,60.19,18 / 20,341514,2019-11-06 12:48:03:222,-0.0539,-5.8014,10.3419,0.0006,-0.0433,9.8065,-0.0068,-0.5132,0.2871,-14.75,-42.12,-4.62,152.86,-88.7,79.72
53.043255,-1.810069,330.76,18.05,6,60.19,18 / 20,341614,2019-11-06 12:48:03:322,0.0547,-1.1768,9.9807,0.0481,-0.0874,9.8061,0.0281,-0.0468,0.0474,-14.37,-42.44,-4.06,156.42,-89.04,81.25
53.043255,-1.810069,330.76,18.05,6,60.19,18 / 20,341714,2019-11-06 12:48:03:422,1.6079,-5.0457,11.2915,0.0392,-0.0546,9.8064,0.1462,-0.6546,0.3566,-14.94,-42.37,-3.87,163.2,-89.05,87.39
53.043255,-1.810069,330.76,18.05,6,60.19,18 / 20,341814,2019-11-06 12:48:03:522,-1.9689,5.8227,8.984,0.0506,-0.0906,9.806,-0.0391,-0.0292,-0.0802,-14.62,-42.25,-4,192.83,-89.66,117.97
53.043255,-1.810069,330.76,18.05,6,60.19,18 / 20,341914,2019-11-06 12:48:03:622,0.3214,-2.4244,9.3729,-0.0203,0.0071,9.8066,0.0119,-0.8496,0.4608,-15.06,-42.25,-3.62,143.72,-89.61,68.02
53.043255,-1.810069,330.76,18.05,6,60.19,18 / 20,342014,2019-11-06 12:48:03:722,-3.1503,7.8297,8.7568,0.0579,-0.1048,9.8059,-0.0451,0.5304,-0.4312,-14.37,-42.44,-4.19,151.47,-89.71,77.01
53.043255,-1.810069,330.76,18.05,6,60.19,18 / 20,342114,2019-11-06 12:48:03:822,0.4759,-4.6475,10.4421,-0.0243,0.0645,9.8063,0.0041,-0.4511,0.2322,-14.94,-42.12,-3.12,167.54,-88.97,88.24
53.043255,-1.810069,330.76,18.05,6,60.19,18 / 20,342214,2019-11-06 12:48:03:922,2.8431,-5.3629,10.9696,0.0467,-0.0608,9.8063,-0.0593,0.8269,-0.5144,-14,-42.5,-4.06,183.74,-89.28,109.82
