GPS LATITUDE (degrees), GPS LONGITUDE (degrees), GPS ALTITUDE (m), GPS SPEED (Kmh), GPS ACCURACY (m), GPS ORIENTATION (Â°),GPS SATELLITES IN RANGE, TIME SINCE START (ms), DATE (YYYY-MO-DD HH-MI-SS_SSS), ACCELEROMETER X (m/s²) , ACCELEROMETER Y (m/s²), ACCELEROMETER Z (m/s²), GRAVITY X (m/s²), GRAVITY Y (m/s²), GRAVITY Z (m/s²), GYROSCOPE Yaw (rad/s), GYROSCOPE Pitch (rad/s), GYROSCOPE Roll (rad/s), MAGNETIC FIELD X (Î¼T), MAGNETIC FIELD Y (Î¼T), MAGNETIC FIELD Z (Î¼T), ORIENTATION (Yaw) (Â°), ORIENTATION (Pitch) (Â°), ORIENTATION (Roll ) (Â°)
52.55389,-1.466707,150.43,19.68,4,115.73,21 / 22,8251013,2019-11-06 18:23:51:475,0.8017,0.2532,10.2723,-0.0048,0.025,9.8065,0.0332,-0.0401,0.0612,-26.31,-36.44,22.88,351.85,-88.05,-139.36
52.55389,-1.466707,150.43,19.68,4,115.73,21 / 22,8251113,2019-11-06 18:23:51:575,-1.1254,-1.2887,10.3518,0.0218,0.0166,9.8066,0.0265,-0.1935,0.0822,-26,-35.12,23.06,350.74,-88.15,-140.45
52.55389,-1.466707,150.43,19.68,4,115.73,21 / 22,8251214,2019-11-06 18:23:51:676,0.3657,0.56,8.8247,-0.0091,0.0146,9.8066,0.0072,-0.0093,-0.027,-26.5,-35.37,22.75,347.76,-88.05,-143.31
52.55389,-1.466707,150.43,19.68,4,115.73,21 / 22,8251314,2019-11-06 18:23:51:776,-2.1565,-1.5174,9.3463,-0.0036,0.0348,9.8065,0.0605,-0.2324,0.0725,-26.37,-35.87,23.25,348.88,-88.25,-142.26
52.55389,-1.466707,150.43,19.68,4,115.73,21 / 22,8251413,2019-11-06 18:23:51:875,0.3412,1.9589,9.5019,-0.0169,-0.0072,9.8066,-0.0097,0.2117,-0.1882,-26.25,-36.12,22.31,350.42,-88.26,-139.51
52.55389,-1.466707,150.43,19.68,4,115.73,21 / 22,8251513,2019-11-06 18:23:51:975,0.7774,-0.2278,10.3287,0.0159,0.0352,9.8065,0.0792,-0.209,0.0903,-26.37,-36.44,22.56,346.8,-88.4,-144.31
52.55389,-1.466707,150.43,19.68,4,115.73,21 / 22,8251613,2019-11-06 18:23:52:075,0.7891,1.9097,9.8363,-0.0076,-0.0058,9.8066,0.0095,0.2146,-0.0933,-26,-36,23.13,345.72,-88.43,-145.37
52.55389,-1.466707,150.43,19.68,4,115.73,21 / 22,8251713,2019-11-06 18:23:52:175,1.0571,-0.1494,10.1678,-0.0131,0.0214,9.8066,0.0036,0.0075,-0.0522,-26,-35.87,22.75,345.5,-88.47,-145.6
52.55389,-1.466707,150.43,19.68,4,115.73,21 / 22,8251814,2019-11-06 18:23:52:276,-2.1279,-2.4756,11.1176,-0.0065,-0.0485,9.8064,-0.1343,0.4225,-0.1248,-25.62,-35.69,22.94,345.23,-88.54,-145.88
52.55389,-1.466707,150.43,19.68,4,115.73,20 / 22,8251913,2019-11-06 18:23:52:375,0.013,-0.5259,9.8306,-0.0207,-0.0239,9.8065,-0.0541,0.4268,-0.2101,-26.19,-36.06,23.25,350.93,-88.35,-140.29
52.55389,-1.466707,150.43,19.68,4,115.73,20 / 22,8252014,2019-11-06 18:23:52:476,-0.7268,-0.2007,9.3826,-0.0379,-0.0498,9.8064,-0.0707,0.4084,-0.243,-25.87,-35.62,23,348.55,-88.55,-142.65
52.55389,-1.466707,150.43,19.68,4,115.73,20 / 22,8252114,2019-11-06 18:23:52:576,2.4629,4.0382,9.0103,-0.0086,-0.0409,9.8065,-0.0561,0.5916,-0.2845,-25.87,-35.44,22.5,352.59,-88.42,-138.7
52.55389,-1.466707,150.43,19.68,4,115.73,20 / 22,8252214,2019-11-06 18:23:52:676,-2.2465,-3.5614,10.4338,-0.0144,-0.0405,9.8065,-0.0028,0.286,-0.1854,-26.06,-35.69,23.31,341.48,-88.56,-149.54
52.55389,-1.466707,150.43,19.68,4,115.73,20 / 22,8252313,2019-11-06 18:23:52:775,1.2754,2.5421,9.6215,-0.0246,-0.0623,9.8064,-0.1413,0.5557,-0.2735,-26.12,-35.62,22.25,342.33,-88.38,-147.38
52.55389,-1.466707,150.43,19.68,4,115.73,20 / 22,8252413,2019-11-06 18:23:52:875,-1.2647,-4.2489,10.231,-0.0187,-0.002,9.8066,-0.0337,0.0039,0.0458,-26.31,-36,23.44,348.7,-88.58,-142.5
52.55389,-1.466707,150.43,19.68,4,115.73,20 / 22,8252513,2019-11-06 18:23:52:975,0.055,0.6786,9.1166,-0.024,-0.0539,9.8064,-0.1025,0.521,-0.2369,-26.12,-35.87,22.75,351.87,-88.56,-139.41
52.55389,-1.466707,150.43,19.68,4,115.73,20 / 22,8252613,2019-11-06 18:23:53:075,-1.514,-2.7862,9.0513,0.0162,-0.0012,9.8066,-0.0392,-0.1143,0.0563,-25.75,-35.5,23.06,347.79,-88.76,-143.44
52.55389,-1.466707,150.43,19.68,4,115.73,20 / 22,8252714,2019-11-06 18:23:53:176,1.858,0.7623,10.1515,-0.0322,-0.0274,9.8065,0.036,0.2505,-0.1362,-25.56,-36,23.31,344.61,-88.71,-146.53
52.55389,-1.466707,150.43,19.68,4,115.73,20 / 22,8252814,2019-11-06 18:23:53:276,-1.6414,0.5547,9.8225,-0.0176,0.0123,9.8066,0.0485,-0.023,-0.0766,-25.62,-35.69,23.13,341.42,-88.83,-149.69
52.55389,-1.466707,150.43,19.68,4,115.73,22 / 22,8252914,2019-11-06 18:23:53:376,-0.7372,1.2414,9.3475,-0.0033,-0.0036,9.8066,-0.0679,0.1413,-0.0861,-25.37,-36,23.06,340.91,-89.03,-151.36
52.55389,-1.466707,150.43,19.68,4,115.73,22 / 22,8253013,2019-11-06 18:23:53:475,0.4642,-1.2942,10.7174,0.0157,-0.0067,9.8065,0.0266,-0.0567,-0.003,-25.25,-35.81,23.25,329.55,-89.12,-162.59
52.55389,-1.466707,150.43,19.68,4,115.73,22 / 22,8253114,2019-11-06 18:23:53:576,-0.3749,1.2986,9.3902,0.0193,-0.0208,9.8066,-0.0352,0.0811,-0.006,-25.81,-36.62,22.75,325.28,-88.99,-165.6
52.55389,-1.466707,150.43,19.68,4,115.73,22 / 22,8253214,2019-11-06 18:23:53:676,2.6316,0.7679,11.1789,0.0396,-0.0073,9.8065,-0.1093,-0.2576,0.2222,-25.37,-36.5,22.94,328.35,-88.96,-163.68
52.55389,-1.466707,150.43,19.68,4,115.73,22 / 22,8253313,2019-11-06 18:23:53:775,2.8801,1.0685,10.5503,-0.002,-0.0133,9.8066,-0.0814,0.0152,0.0512,-25.69,-36.37,23.44,334.83,-88.76,-156.11
52.55389,-1.466707,150.43,19.68,4,115.73,22 / 22,8253413,2019-11-06 18:23:53:875,0.1624,0.5035,8.7005,0.0071,0.032,9.8065,0.0092,-0.2267,0.0935,-26,-36.44,23.19,344.5,-88.75,-146.64
52.55389,-1.466707,150.43,19.68,4,115.73,22 / 22,8253514,2019-11-06 18:23:53:976,-0.4071,-1.8373,10.5386,-0.0171,0.0177,9.8065,0.0656,-0.1661,0.013,-25.56,-35.87,22.81,341.52,-88.95,-149.63
52.55389,-1.466707,150.43,19.68,4,115.73,22 / 22,8253614,2019-11-06 18:23:54:076,1.707,0.4886,10.249,0.0116,0.0216,9.8066,0.0527,-0.1491,-0.0101,-25.25,-35.69,22.69,331.42,-89.07,-160.72
52.55389,-1.466707,150.43,19.68,4,115.73,22 / 22,8253714,2019-11-06 18:23:54:176,-3.0402,0.4524,9.1351,0.0645,0.017,9.8063,-0.1346,-0.1293,0.2413,-25.5,-35.62,22.44,320.63,-88.95,-169.99
52.55389,-1.466707,150.43,19.68,4,115.73,22 / 22,8253815,2019-11-06 18:23:54:277,0.9973,1.3979,10.7358,0.0286,0.0111,9.8065,-0.0999,-0.1002,0.1271,-25.75,-36,22.75,335.74,-88.93,-155.29
52.55389,-1.466707,150.43,19.68,4,115.73,21 / 22,8253913,2019-11-06 18:23:54:375,-1.3345,0.0287,10.1466,-0.0086,0.0071,9.8066,0.0411,-0.192,0.0251,-25.44,-36.19,23.25,336.4,-88.95,-155.76
52.55389,-1.466707,150.43,19.68,4,115.73,21 / 22,8254013,2019-11-06 18:23:54:475,0.4342,1.2389,10.5241,-0.0162,0.019,9.8065,0.0741,-0.0371,0.0067,-25.94,-35.69,22.63,336.72,-88.91,-154.32
52.55389,-1.466707,150.43,19.68,4,115.73,21 / 22,8254114,2019-11-06 18:23:54:576,-2.1574,-1.7469,9.3915,0.0403,0.0183,9.8065,-0.0028,-0.3107,0.1787,-25.75,-35.37,23.25,332.43,-88.95,-158.58
52.55389,-1.466707,150.43,19.68,4,115.73,21 / 22,8254214,2019-11-06 18:23:54:676,1.4435,0.7218,9.8947,0.0144,0.0137,9.8066,-0.0221,-0.0225,0.0351,-25.5,-35.44,23.13,335.67,-88.96,-156.5
52.55389,-1.466707,150.43,19.68,4,115.73,21 / 22,8254314,2019-11-06 18:23:54:776,-1.1102,-2.5282,10.2145,0.0211,0.0415,9.8065,0.0473,-0.3716,0.1527,-25.31,-35.81,23.44,332.69,-89.02,-159.44
52.55389,-1.466707,150.43,19.68,4,115.73,21 / 22,8254413,2019-11-06 18:23:54:875,1.6257,1.9295,9.1923,0.0011,0.0178,9.8065,0.0081,0.057,-0.045,-25.19,-35.94,22.56,331.08,-88.96,-160.99
52.55389,-1.466707,150.43,19.68,4,115.73,21 / 22,8254514,2019-11-06 18:23:54:976,-0.6439,0.5385,9.8299,0.0206,0.0316,9.8066,0.0246,-0.2081,0.1193,-25.5,-36.5,23,319.77,-89.05,-172.19
52.55389,-1.466707,150.43,19.68,4,115.73,21 / 22,8254614,2019-11-06 18:23:55:076,0.7525,2.0419,9.4123,0.0127,-0.0092,9.8065,-0.0785,0.1161,-0.0298,-25.12,-36,22.75,320.5,-89,-171.44
52.55389,-1.466707,150.43,19.68,4,115.73,21 / 22,8254713,2019-11-06 18:23:55:175,0.2389,-1.142,10.2633,0.0018,0.0146,9.8066,0.0278,-0.1278,0.0692,-25.25,-35.69,22.69,320.91,-88.99,-171.02
52.55389,-1.466707,150.43,19.68,4,115.73,21 / 22,8254813,2019-11-06 18:23:55:275,-1.0636,-0.6536,9.7896,-0.0167,-0.0131,9.8065,-0.0266,0.1441,-0.073,-25.31,-35.94,22.88,336.5,-89.08,-155.72
52.55389,-1.466707,150.43,19.68,4,115.73,20 / 22,8254913,2019-11-06 18:23:55:375,0.1663,-0.3855,9.7176,-0.0028,0.0053,9.8066,0.0087,0.0416,-0.0271,-25.87,-36.5,22.88,332.86,-89.12,-158.22
52.55389,-1.466707,150.43,19.68,4,115.73,20 / 22,8255014,2019-11-06 18:23:55:476,-0.8637,0.0827,9.8012,0.008,-0.0149,9.8066,-0.0155,0.033,-0.0206,-25.69,-36.25,22.63,329.69,-89.12,-161.34
52.55389,-1.466707,150.43,19.68,4,115.73,20 / 22,8255114,2019-11-06 18:23:55:576,-0.7173,0.3957,9.9557,-0.011,-0.0011,9.8066,-0.0313,0.0385,-0.022,-25.94,-36.12,23,331.09,-89.03,-159.92
52.55389,-1.466707,150.43,19.68,4,115.73,20 / 22,8255214,2019-11-06 18:23:55:676,-0.7242,0.3643,10.0197,-0.0032,-0.0043,9.8066,-0.0042,-0.001,-0.0363,-25.31,-36.19,22.81,330.12,-89.07,-162
52.55389,-1.466707,150.43,19.68,4,115.73,20 / 22,8255314,2019-11-06 18:23:55:776,-0.8014,0.4801,9.5727,-0.0048,0.0097,9.8065,-0.0329,0.0255,-0.0024,-25.69,-36.31,23.25,330.33,-89.16,-160.73
52.55389,-1.466707,150.43,19.68,4,115.73,20 / 22,8255413,2019-11-06 18:23:55:875,-1.7201,-0.7108,10.3221,-0.0083,-0.0116,9.8066,-0.0635,0.153,-0.1381,-25.87,-36.06,22.56,331.1,-89.17,-159.98
52.55389,-1.466707,150.43,19.68,4,115.73,20 / 22,8255513,2019-11-06 18:23:55:975,-0.049,-0.4059,9.6053,-0.0013,0.005,9.8066,0.0088,0.1347,-0.0254,-25.81,-36.44,22.69,326.68,-89.34,-164.44
52.55389,-1.466707,150.43,19.68,4,115.73,20 / 22,8255613,2019-11-06 18:23:56:075,-1.2475,-1.6246,9.8111,-0.0089,-0.0274,9.8065,-0.1011,0.1721,-0.1279,-25.5,-36.25,23.06,321.93,-89.34,-170.25
52.55389,-1.466707,150.43,19.68,4,115.73,20 / 22,8255713,2019-11-06 18:23:56:175,0.9577,0.759,9.4553,-0.0079,-0.0246,9.8065,-0.021,0.2099,-0.0975,-26.19,-35.94,22.56,328.97,-89.29,-162.14
52.55389,-1.466707,150.43,19.68,4,115.73,20 / 22,8255814,2019-11-06 18:23:56:276,-0.6403,-0.3568,9.7522,-0.0162,-0.0282,9.8066,-0.016,0.1115,-0.0917,-25.94,-36.31,22.63,323.37,-89.35,-167.72
52.55389,-1.466707,150.43,19.68,4,115.73,20 / 21,8255914,2019-11-06 18:23:56:376,-0.2197,1.0518,9.3789,0.0033,-0.0287,9.8066,-0.0589,0.1978,-0.0849,-25.56,-36.5,22.63,333.48,-89.21,-157.65
52.55389,-1.466707,150.43,19.68,4,115.73,20 / 21,8256014,2019-11-06 18:23:56:476,-1.0391,-1.9614,9.8556,-0.0024,-0.0312,9.8065,0.0518,-0.2182,0.088,-25.5,-36.06,23.19,329.57,-89.4,-162.72
52.55389,-1.466707,150.43,19.68,4,115.73,20 / 21,8256114,2019-11-06 18:23:56:576,0.0441,0.8366,9.3726,-0.0068,-0.0109,9.8066,0.0088,-0.1029,-0.0166,-25.5,-35.75,23.13,334.62,-89.31,-157.68
52.55389,-1.466707,150.43,19.68,4,115.73,20 / 21,8256214,2019-11-06 18:23:56:676,-1.0226,-2.2136,10.1531,-0.0152,-0.0187,9.8065,0.0171,-0.2536,0.151,-25.81,-35.12,23.38,327.51,-89.39,-163.66
52.55389,-1.466707,150.43,19.68,4,115.73,20 / 21,8256314,2019-11-06 18:23:56:776,-0.4808,1.1742,9.5925,-0.011,-0.0208,9.8065,0.0305,-0.1144,0.0015,-25.25,-35.87,22.69,342.85,-89.39,-149.57
52.55389,-1.466707,150.43,19.68,4,115.73,20 / 21,8256415,2019-11-06 18:23:56:877,-1.0732,-1.0036,9.7929,-0.0167,-0.0129,9.8066,-0.0012,-0.2427,0.1688,-26.12,-36,21.88,356.39,-89.42,-133.81
52.55389,-1.466707,150.43,19.68,4,115.73,20 / 21,8256514,2019-11-06 18:23:56:976,-0.6869,0.8856,9.998,-0.0152,-0.0118,9.8066,-0.0494,0,-0.0188,-25.56,-36.25,22.31,359.95,-89.49,-130.28
52.55389,-1.466707,150.43,19.68,4,115.73,20 / 21,8256614,2019-11-06 18:23:57:076,-0.5304,-0.7192,9.8636,0.0062,-0.004,9.8066,0.0846,-0.1554,0.1021,-25.75,-36.06,23.06,348.48,-89.41,-142.89
52.55389,-1.466707,150.43,19.68,4,115.73,20 / 21,8256713,2019-11-06 18:23:57:175,2.3994,-0.2782,10.0223,0.0076,-0.0213,9.8066,0.0099,0.1426,-0.136,-25.37,-36,22.63,336.11,-89.26,-156.19
52.55389,-1.466707,150.43,19.68,4,115.73,20 / 21,8256813,2019-11-06 18:23:57:275,-1.7993,-1.2886,9.778,0.0006,0.016,9.8065,-0.0243,-0.1603,0.2057,-25.12,-35.56,22.88,326.19,-88.87,-165.75
52.55389,-1.466707,150.43,19.68,4,115.73,21 / 21,8256914,2019-11-06 18:23:57:376,1.7838,-0.0651,8.1527,-0.0121,-0.02,9.8066,0.0523,-0.0664,0.0997,-25.31,-36.44,22.69,321.24,-88.84,-170.6
52.55389,-1.466707,150.43,19.68,4,115.73,21 / 21,8257013,2019-11-06 18:23:57:475,-1.3982,-1.7426,9.7439,-0.0006,0.0066,9.8066,0,-0.1828,-0.0423,-24.69,-36,22.38,319.24,-88.98,-171.38
52.55389,-1.466707,150.43,19.68,4,115.73,21 / 21,8257113,2019-11-06 18:23:57:575,-0.8235,2.009,9.5366,-0.0159,-0.0241,9.8065,0,0.0437,0.032,-25.5,-36.81,22.56,329.12,-88.92,-162.88
52.55389,-1.466707,150.43,19.68,4,115.73,21 / 21,8257213,2019-11-06 18:23:57:675,-1.3271,1.916,9.5115,-0.023,0.0106,9.8066,-0.0986,-0.001,-0.0156,-25.44,-36.12,23.19,318.6,-88.85,-173.2
52.55389,-1.466707,150.43,19.68,4,115.73,21 / 21,8257314,2019-11-06 18:23:57:776,-2.2398,1.1831,10.1264,-0.0113,0.0152,9.8066,-0.0841,-0.0909,0.0115,-25.19,-36,23.31,328.12,-89.04,-163.95
52.55389,-1.466707,150.43,19.68,4,115.73,21 / 21,8257414,2019-11-06 18:23:57:876,-0.6044,-2.0613,9.828,-0.0266,-0.023,9.8065,-0.0286,-0.177,0.1455,-25.19,-36.69,23,331.7,-89.23,-160.51
52.55389,-1.466707,150.43,19.68,4,115.73,21 / 21,8257514,2019-11-06 18:23:57:976,0.3321,2.5404,9.1498,-0.0131,-0.0159,9.8066,0.0486,-0.2582,0.1432,-25.62,-36.81,23.13,342.61,-89.27,-148.65
52.55389,-1.466707,150.43,19.68,4,115.73,21 / 21,8257613,2019-11-06 18:23:58:075,-0.5125,-0.9938,9.3137,0.0059,-0.0368,9.8066,0.0946,-0.3727,0.1368,-24.87,-36.62,22.88,344.23,-89.09,-148.11
52.55389,-1.466707,150.43,19.68,4,115.73,21 / 21,8257713,2019-11-06 18:23:58:175,0.6947,2.637,9.6049,-0.0266,-0.0474,9.8064,-0.0524,-0.1211,0.1019,-25.19,-36,23.31,346.54,-88.94,-145.81
52.55389,-1.466707,150.43,19.68,4,115.73,21 / 21,8257813,2019-11-06 18:23:58:275,-1.6254,-0.4879,9.8582,-0.0339,-0.0116,9.8065,0.0565,-0.2917,0.1255,-25.37,-36.62,23.63,338.6,-89.09,-154.88
52.55389,-1.466707,150.43,19.68,4,115.73,21 / 21,8257914,2019-11-06 18:23:58:376,0.159,2.8461,9.6923,-0.0009,-0.0247,9.8066,0.0471,0.1104,-0.1364,-25.44,-36.25,23.31,356.81,-89.09,-135.75
52.55389,-1.466707,150.43,19.68,4,115.73,21 / 21,8258015,2019-11-06 18:23:58:477,-2.9456,0.7476,10.1228,0.0214,0.0035,9.8066,0.0395,-0.1305,0.0825,-25.5,-36,23.63,6.83,-89.06,-127.11
52.55389,-1.466707,150.43,19.68,4,115.73,21 / 21,8258114,2019-11-06 18:23:58:576,-2.1555,0.4204,10.0584,-0.0133,-0.0095,9.8066,-0.0269,0.1454,-0.0402,-25.31,-36.06,23.19,358.44,-88.97,-134.15
52.55389,-1.466707,150.43,19.68,4,115.73,21 / 21,8258214,2019-11-06 18:23:58:676,-2.5418,1.694,9.6452,-0.0028,0.0306,9.8066,-0.1166,0.0587,-0.0718,-25.87,-35.81,23.5,358.43,-89.27,-134.26
52.55389,-1.466707,150.43,19.68,4,115.73,21 / 21,8258313,2019-11-06 18:23:58:775,-1.1374,1.493,10.3915,-0.011,0.0099,9.8066,-0.1327,0.1259,-0.0271,-25.19,-35.75,22.81,3.98,-89.23,-128.69
52.55389,-1.466707,150.43,19.68,4,115.73,21 / 21,8258413,2019-11-06 18:23:58:875,-2.7704,2.6384,8.5628,-0.0243,0.0161,9.8065,-0.0344,-0.0636,0.0377,-24.94,-36.31,23.06,2.02,-89.31,-130.62
52.55389,-1.466707,150.43,19.68,4,115.73,21 / 21,8258514,2019-11-06 18:23:58:976,-1.9157,2.2154,8.1632,0.0202,-0.0196,9.8065,-0.0427,0.1613,0.0036,-25.37,-36.87,23.13,355.02,-89.28,-137.52
52.55389,-1.466707,150.43,19.68,4,115.73,21 / 21,8258614,2019-11-06 18:23:59:076,-2.2807,1.8633,10.5053,0.0456,0.0061,9.8065,0.1628,-0.0978,-0.1449,-25,-36.06,23.94,6.76,-89.34,-127.15
52.55389,-1.466707,150.43,19.68,4,115.73,21 / 21,8258714,2019-11-06 18:23:59:176,-4.67,4.0245,9.2356,-0.0318,-0.0026,9.8065,0.0821,0.0921,-0.1146,-25.12,-36.44,23.75,14.87,-89.34,-119.14
52.55389,-1.466707,150.43,19.68,4,115.73,21 / 21,8258814,2019-11-06 18:23:59:276,-3.6589,2.8264,9.7657,-0.0277,0.0128,9.8066,-0.221,0.035,0.1004,-25.12,-36.12,23.06,54.33,-89.45,-78.76
52.55389,-1.466707,150.43,19.68,4,115.73,21 / 21,8258914,2019-11-06 18:23:59:376,-2.5045,2.6971,9.809,0.0013,0.0098,9.8066,-0.1413,0.1099,-0.0253,-25.25,-36.19,23.75,35.48,-89.57,-98.61
52.55389,-1.466707,150.43,19.68,4,115.73,21 / 21,8259013,2019-11-06 18:23:59:475,-2.2889,2.261,10.3116,-0.0002,0.0036,9.8066,0.0915,0.0513,-0.0705,-25.12,-36.37,23,32.17,-89.63,-100.66
52.55389,-1.466707,150.43,19.68,4,115.73,21 / 21,8259113,2019-11-06 18:23:59:575,-0.6307,2.7856,9.0374,0.003,0.0087,9.8065,-0.1402,0.0788,-0.1076,-25.56,-36.75,22.94,56.99,-89.59,-74.87
52.55389,-1.466707,150.43,19.68,4,115.73,21 / 21,8259214,2019-11-06 18:23:59:676,-1.1848,1.5551,11.3761,0.003,-0.0064,9.8066,0.1484,0.0826,0.0209,-25.37,-36.12,22.5,82.04,-89.57,-51.03
52.55389,-1.466707,150.43,19.68,4,115.73,21 / 21,8259314,2019-11-06 18:23:59:776,-0.2105,3.5824,10.1937,0.0123,0.0304,9.8066,-0.011,0.2401,-0.3145,-25.5,-36.44,22.25,109.96,-89.46,-21.93
52.55389,-1.466707,150.43,19.68,4,115.73,21 / 21,8259413,2019-11-06 18:23:59:875,-2.0228,1.2255,10.3818,-0.0095,0.0391,9.8065,-0.0378,0.1172,0.2272,-25.44,-36,22.69,100.26,-89.41,-32.97
52.55389,-1.466707,150.43,19.68,4,115.73,21 / 21,8259514,2019-11-06 18:23:59:976,-1.6103,1.2172,8.7043,0.028,-0.0124,9.8065,-0.012,0.2004,0.0635,-25.56,-36.25,22.63,113.2,-89.76,-18.52
52.55389,-1.466707,150.43,19.68,4,115.73,21 / 21,8259613,2019-11-06 18:24:00:075,-2.6208,1.0832,9.6276,0.0471,0.0352,9.8064,0.1216,0.1012,-0.2625,-25.94,-36.25,22.44,86.59,-89.53,-44.14
52.55389,-1.466707,150.43,19.68,4,115.73,21 / 21,8259713,2019-11-06 18:24:00:175,-1.5457,1.303,10.8814,-0.0177,0.0085,9.8066,0.1649,0.2649,-0.0752,-26.12,-36.69,22.5,100.9,-89.46,-31.16
52.55389,-1.466707,150.43,19.68,4,115.73,21 / 21,8259814,2019-11-06 18:24:00:276,-1.7302,4.9824,6.4734,-0.0054,0.0481,9.8065,-0.3534,0.0116,-0.0204,-25.62,-36.94,21.56,92.5,-89.52,-38.26
52.553253,-1.46462,151.3,11.13,6,118.66,22 / 22,8259914,2019-11-06 18:24:00:376,-2.8246,3.449,7.8449,-0.0688,0.0389,9.8063,0.2964,-0.16,0.1505,-25.25,-37.12,22.38,117.79,-89.4,-14.15
52.553253,-1.46462,151.3,11.13,6,118.66,22 / 22,8260013,2019-11-06 18:24:00:475,0.6135,3.5786,11.0549,-0.016,0.0162,9.8066,0.0868,-0.1852,0.0274,-25.37,-36.31,22.31,133.95,-89.73,2.39
52.553253,-1.46462,151.3,11.13,6,118.66,22 / 22,8260114,2019-11-06 18:24:00:576,-4.3433,1.8638,9.3449,0.0622,0.0052,9.8065,-0.182,-0.1192,0.1763,-24.87,-36.87,22.63,106.82,-89.82,-25.99
52.553253,-1.46462,151.3,11.13,6,118.66,22 / 22,8260214,2019-11-06 18:24:00:676,-1.7462,2.6503,8.3405,0.0258,-0.0009,9.8065,-0.1085,0.0708,0.0066,-25.37,-36.31,22.31,101.69,-89.66,-30.02
52.553253,-1.46462,151.3,11.13,6,118.66,22 / 22,8260313,2019-11-06 18:24:00:775,1.5105,0.2357,11.1345,-0.0516,0.0131,9.8064,0.2785,0.0152,-0.1401,-25.44,-36.81,22.06,102.62,-89.65,-29.1
52.553253,-1.46462,151.3,11.13,6,118.66,22 / 22,8260415,2019-11-06 18:24:00:877,-2.6899,0.8976,8.5091,-0.0759,0.0019,9.8063,0.2222,0.1524,-0.2706,-25.31,-36.37,22.25,213.36,-89.97,82.03
52.553253,-1.46462,151.3,11.13,6,118.66,22 / 22,8260514,2019-11-06 18:24:00:976,-2.1358,1.0534,9.2493,0.0303,0.0087,9.8066,-0.0465,0.058,0.1635,-25.75,-36.5,21.56,162,-89.9,31.73
52.553253,-1.46462,151.3,11.13,6,118.66,22 / 22,8260614,2019-11-06 18:24:01:076,0.3701,0.8287,10.1039,0.019,0.0009,9.8066,-0.1423,0.0864,0.0279,-25.94,-36.5,22,81.05,-89.9,-49.29
52.553253,-1.46462,151.3,11.13,6,118.66,22 / 22,8260714,2019-11-06 18:24:01:176,-1.9575,1.9775,9.0351,-0.0142,0.015,9.8065,-0.0616,0.0874,0.0335,-25.75,-36.56,21.44,115.07,-89.67,-14.19
52.553253,-1.46462,151.3,11.13,6,118.66,22 / 22,8260813,2019-11-06 18:24:01:275,-0.8977,2.3267,10.2272,0.0146,0.0072,9.8066,0.0324,0.1031,-0.045,-25.56,-36.5,21.56,122.68,-89.46,-8.04
52.553253,-1.46462,151.3,11.13,6,118.66,22 / 22,8260914,2019-11-06 18:24:01:376,-0.5513,1.6055,9.6512,0.0079,-0.0025,9.8066,0.0447,0.0752,-0.0065,-25.56,-37,20.94,146.93,-89.57,17.74
52.553253,-1.46462,151.3,11.13,6,118.66,22 / 22,8261013,2019-11-06 18:24:01:475,-1.0916,1.4048,8.7848,-0.0361,0.0023,9.8066,0.0711,0.172,-0.0669,-25.87,-36.87,22.25,155.1,-89.66,24.71
52.553253,-1.46462,151.3,11.13,6,118.66,22 / 22,8261113,2019-11-06 18:24:01:575,0.6021,0.7401,10.3119,-0.0096,0.0042,9.8066,-0.0283,0.1884,-0.0098,-26.06,-36.75,20.44,133.6,-89.47,5.59
52.553253,-1.46462,151.3,11.13,6,118.66,22 / 22,8261214,2019-11-06 18:24:01:676,-1.3464,1.3507,10.096,0.0183,0.0038,9.8066,-0.0323,0.0923,0.0523,-26.12,-36.31,20.63,140.11,-89.42,10.79
52.553253,-1.46462,151.3,11.13,6,118.66,22 / 22,8261314,2019-11-06 18:24:01:776,0.3427,1.8178,9.8498,-0.0053,-0.0121,9.8066,0.0239,0.1817,-0.1122,-25.81,-36.62,21.13,140.14,-89.44,10.82
52.553253,-1.46462,151.3,11.13,6,118.66,22 / 22,8261414,2019-11-06 18:24:01:876,-0.5194,1.605,9.2913,-0.0185,-0.0064,9.8066,-0.0218,0.1111,0.0119,-26.5,-36.19,20.63,157.6,-89.45,28.45
52.553253,-1.46462,151.3,11.13,6,118.66,22 / 22,8261514,2019-11-06 18:24:01:976,0.1904,1.5697,10.0589,-0.009,-0.0048,9.8066,-0.0131,0.2335,0.0146,-26,-36.75,20.94,138.26,-89.4,8.89
52.553253,-1.46462,151.3,11.13,6,118.66,22 / 22,8261614,2019-11-06 18:24:02:076,0.1983,2.5265,9.3721,-0.0029,0.019,9.8065,0.0499,0.0718,0.0015,-26.56,-37.37,19,141.92,-89.29,16.3
52.553253,-1.46462,151.3,11.13,6,118.66,22 / 22,8261714,2019-11-06 18:24:02:176,0.8629,0.7418,10.5898,-0.0127,0.0277,9.8066,0.1175,0.1589,-0.0223,-26.56,-36.94,19.31,147.83,-89.22,22.23
52.553253,-1.46462,151.3,11.13,6,118.66,22 / 22,8261814,2019-11-06 18:24:02:276,-1.8082,-0.6352,10.3459,0.0058,-0.0297,9.8066,0.0535,0.2113,-0.0628,-26.31,-36.81,19.19,161.48,-89.36,35.09
52.553253,-1.46462,151.3,11.13,6,118.66,22 / 23,8261915,2019-11-06 18:24:02:377,0.352,-0.1653,10.1638,0.0096,-0.0166,9.8066,0.0098,0.1619,-0.0098,-25.94,-35.5,22.25,188.01,-89.48,57.85
52.553253,-1.46462,151.3,11.13,6,118.66,22 / 23,8262014,2019-11-06 18:24:02:476,0.8309,1.4587,10.1273,0.0115,0.0201,9.8065,-0.0791,0.2141,-0.0002,-26.19,-34.81,29.06,200.03,-89.42,62.09
52.553253,-1.46462,151.3,11.13,6,118.66,22 / 23,8262113,2019-11-06 18:24:02:575,1.4855,1.2836,9.7629,0.0167,0.0269,9.8066,-0.0964,0.1535,0.0586,-42.31,-40.69,45.88,193.92,-89.06,56.47
52.553253,-1.46462,151.3,11.13,6,118.66,22 / 23,8262214,2019-11-06 18:24:02:676,2.0754,3.7929,9.0282,0.0052,0.0549,9.8065,0.0179,-0.2004,0.1851,-33.5,-38.5,17.44,170.4,-88.64,52.91
52.553253,-1.46462,151.3,11.13,6,118.66,22 / 23,8262313,2019-11-06 18:24:02:775,-0.5834,-0.6173,10.3149,-0.0013,0.0601,9.8064,0.0712,-0.2257,0.1237,-29.06,-38.56,16.63,171.29,-88.54,50.66
52.553253,-1.46462,151.3,11.13,6,118.66,22 / 23,8262414,2019-11-06 18:24:02:876,1.3249,2.3314,10.8438,0.0068,0.0439,9.8065,0.0881,0.0413,0.084,-28.37,-37.56,15.88,171.67,-88.46,51.67
52.553253,-1.46462,151.3,11.13,6,118.66,22 / 23,8262514,2019-11-06 18:24:02:976,-0.6716,-1.6424,10.0524,0.0101,0.0023,9.8066,0.0021,-0.2079,0.1999,-28.81,-38.06,15.06,169.59,-88.41,51.91
52.553253,-1.46462,151.3,11.13,6,118.66,22 / 23,8262614,2019-11-06 18:24:03:076,2.3651,3.1614,9.8102,-0.0175,-0.049,9.8065,-0.0058,0.1063,0.0864,-31.56,-38.31,14.5,168.72,-88.36,53.27
52.553253,-1.46462,151.3,11.13,6,118.66,22 / 23,8262714,2019-11-06 18:24:03:176,-0.4081,-0.0123,10.1941,-0.0189,-0.0145,9.8065,-0.0185,-0.1112,0.1754,-38.12,-39.69,17.25,172.83,-88.19,58.51
52.553253,-1.46462,151.3,11.13,6,118.66,22 / 23,8262814,2019-11-06 18:24:03:276,2.6921,3.0382,10.2534,-0.0226,-0.0284,9.8066,0.0121,0.1362,0.0413,-31.44,-36.81,41.63,197.92,-88.18,54.74
52.553253,-1.46462,151.3,11.13,6,118.66,23 / 23,8262914,2019-11-06 18:24:03:376,0.2794,0.4224,9.8314,-0.0141,-0.015,9.8065,-0.015,-0.0322,0.1342,-27.12,-35.19,21.31,185.53,-88.05,57.85
52.553253,-1.46462,151.3,11.13,6,118.66,23 / 23,8263013,2019-11-06 18:24:03:475,1.184,2.8841,9.1767,-0.0173,-0.0441,9.8065,-0.0606,0.3082,-0.0242,-26.37,-35.94,16.81,179.15,-88.3,55.94
52.553253,-1.46462,151.3,11.13,6,118.66,23 / 23,8263113,2019-11-06 18:24:03:575,-1.4566,1.0848,10.5568,0.0028,0.0013,9.8066,0.0448,0.1278,0.0573,-27.69,-37,14.19,176.08,-88.19,59.37
52.553253,-1.46462,151.3,11.13,6,118.66,23 / 23,8263213,2019-11-06 18:24:03:675,1.1464,-0.1427,9.8214,0.0222,-0.0206,9.8065,-0.0273,0.3823,-0.0534,-26.94,-36.37,13.44,180.63,-88.23,64.94
52.553253,-1.46462,151.3,11.13,6,118.66,23 / 23,8263314,2019-11-06 18:24:03:776,1.265,2.1936,9.1616,0.0246,0.0041,9.8066,0.1044,0.3919,-0.0323,-26.94,-36.87,13.13,180.29,-88.31,64.6
52.553253,-1.46462,151.3,11.13,6,118.66,23 / 23,8263414,2019-11-06 18:24:03:876,2.0423,0.3823,9.3504,0.044,0.0082,9.8065,0.1095,0.0365,0.1009,-27.81,-36.25,13.5,194.56,-88.29,78.48
52.553253,-1.46462,151.3,11.13,6,118.66,23 / 23,8263514,2019-11-06 18:24:03:976,1.1745,-0.2175,10.3454,0.0217,0.0013,9.8066,0.0724,0.1664,-0.0556,-27.56,-36.56,12.63,196.04,-88.34,81.68
52.553253,-1.46462,151.3,11.13,6,118.66,23 / 23,8263614,2019-11-06 18:24:04:076,0.0168,-1.0645,10.5944,-0.0093,0.0271,9.8066,-0.1245,0.4023,-0.1437,-27.12,-36.62,12.75,197.41,-88.17,82.37
52.553253,-1.46462,151.3,11.13,6,118.66,23 / 23,8263714,2019-11-06 18:24:04:176,1.0305,-0.1382,9.2662,0.0014,-0.009,9.8066,-0.0115,0.2166,0.0088,-27.31,-36.75,11.69,190.78,-87.47,77.4
52.553253,-1.46462,151.3,11.13,6,118.66,23 / 23,8263813,2019-11-06 18:24:04:275,0.3199,-2.1677,10.2422,0.0015,0.0283,9.8065,-0.0412,-0.0151,0.0978,-27.19,-37.19,11.31,190.06,-87.23,78.49
52.553253,-1.46462,151.3,11.13,6,118.66,22 / 22,8263913,2019-11-06 18:24:04:375,0.7518,1.7545,9.9269,-0.0128,-0.0333,9.8065,-0.0141,0.3324,0.0527,-26.62,-36.75,10.19,188.86,-87.01,79.11
52.553253,-1.46462,151.3,11.13,6,118.66,22 / 22,8264013,2019-11-06 18:24:04:475,3.5599,3.0497,10.6084,0.0315,0.028,9.8065,-0.0629,-0.1494,0.3108,-26.56,-37.56,10.31,192.71,-86.88,83.27
52.553253,-1.46462,151.3,11.13,6,118.66,22 / 22,8264115,2019-11-06 18:24:04:577,4.0808,5.1279,10.022,0.0187,-0.0235,9.8066,0.117,0.4884,-0.2008,-26.37,-37.12,9.94,194.08,-86.82,84.04
52.553253,-1.46462,151.3,11.13,6,118.66,22 / 22,8264214,2019-11-06 18:24:04:676,0.338,0.6959,9.5334,0.0382,0.0505,9.8064,0.211,-0.2598,0.1962,-26.25,-37.12,9.5,199.47,-86.56,89.92
52.553253,-1.46462,151.3,11.13,6,118.66,22 / 22,8264314,2019-11-06 18:24:04:776,-0.3967,-1.2623,9.9701,0.0061,-0.0394,9.8065,-0.0464,0.3466,-0.0432,-26.25,-37.06,7.88,197.39,-86.53,91.67
52.553253,-1.46462,151.3,11.13,6,118.66,22 / 22,8264413,2019-11-06 18:24:04:875,-0.0087,-2.8796,10.2201,0.0049,0.0463,9.8065,0.0157,-0.166,0.1992,-26.5,-37.06,7.75,199.97,-86.35,94.52
52.553253,-1.46462,151.3,11.13,6,118.66,22 / 22,8264513,2019-11-06 18:24:04:975,2.4001,2.5379,9.3085,-0.0193,-0.009,9.8066,-0.066,0.372,-0.1136,-25.56,-37.94,6.81,197.5,-86.14,94.03
52.553253,-1.46462,151.3,11.13,6,118.66,22 / 22,8264613,2019-11-06 18:24:05:075,1.4091,3.9856,9.2909,0.0054,0.0439,9.8065,-0.0294,-0.0078,0.1427,-25.37,-37.69,6.94,196.97,-85.75,93.1
52.553253,-1.46462,151.3,11.13,6,118.66,22 / 22,8264713,2019-11-06 18:24:05:175,2.5667,2.856,9.4672,-0.0171,-0.0198,9.8065,-0.0598,0.2426,-0.0082,-24.75,-37.37,6.19,192.58,-85.71,90.39
52.553253,-1.46462,151.3,11.13,6,118.66,22 / 22,8264816,2019-11-06 18:24:05:278,0.3982,2.1311,9.7935,-0.0143,-0.0006,9.8066,0.001,0.1497,0.119,-25.12,-37.37,4.94,187.84,-85.83,87.34
52.553253,-1.46462,151.3,11.13,6,118.66,23 / 23,8264914,2019-11-06 18:24:05:376,0.2597,0.1688,9.9209,-0.0087,-0.0154,9.8066,-0.0772,0.2434,-0.0043,-24.62,-37.25,4.94,186.45,-85.76,85.81
52.553253,-1.46462,151.3,11.13,6,118.66,23 / 23,8265014,2019-11-06 18:24:05:476,0.7103,1.2788,10.209,0.0037,-0.0146,9.8066,0.0487,0.093,0.1754,-24.94,-37.19,4.19,185.14,-85.84,86.58
52.553253,-1.46462,151.3,11.13,6,118.66,23 / 23,8265113,2019-11-06 18:24:05:575,1.7095,0.3444,9.951,0.02,-0.0488,9.8065,0.0859,0.0636,0.1186,-24.87,-36.69,4.63,191.9,-86.09,91.73
52.553253,-1.46462,151.3,11.13,6,118.66,23 / 23,8265214,2019-11-06 18:24:05:676,2.221,3.5453,9.422,0.0277,-0.0315,9.8065,0.0316,0.0942,0.0593,-24.87,-37.25,3.69,194.37,-86.23,96.62
52.553253,-1.46462,151.3,11.13,6,118.66,23 / 23,8265314,2019-11-06 18:24:05:776,1.3028,-0.8124,10.0555,-0.0084,-0.0326,9.8065,-0.0052,-0.1253,0.2095,-25.31,-37.37,3,192.82,-86.06,97.23
52.553253,-1.46462,151.3,11.13,6,118.66,23 / 23,8265414,2019-11-06 18:24:05:876,1.7813,4.1759,10.5909,-0.0134,-0.031,9.8066,-0.0619,0.2319,-0.0505,-24.75,-37.25,2.38,189.78,-86.18,96.15
52.553253,-1.46462,151.3,11.13,6,118.66,23 / 23,8265514,2019-11-06 18:24:05:976,1.0121,1.7898,8.582,-0.0158,0.0073,9.8066,-0.0382,-0.1159,0.1733,-24.06,-37.37,1.63,188.87,-85.79,95.08
52.553253,-1.46462,151.3,11.13,6,118.66,23 / 23,8265614,2019-11-06 18:24:06:076,1.4863,4.8478,9.377,0.0029,-0.0411,9.8065,-0.0708,0.4155,-0.0469,-23,-37.37,1.56,189.48,-85.72,95.61
52.553253,-1.46462,151.3,11.13,6,118.66,23 / 23,8265714,2019-11-06 18:24:06:176,1.3409,3.6886,9.9308,0.0177,0.0163,9.8066,0.085,-0.0043,0.0489,-23.75,-37.31,0.31,186.47,-85.37,97.26
52.553253,-1.46462,151.3,11.13,6,118.66,23 / 23,8265814,2019-11-06 18:24:06:276,2.8087,4.7533,10.6012,0.0186,-0.0149,9.8066,0.0648,0.4997,-0.1402,-23.25,-37.56,0,187.08,-85.28,98.02
52.553253,-1.46462,151.3,11.13,6,118.66,22 / 22,8265914,2019-11-06 18:24:06:376,1.0998,1.1649,10.0003,0.0127,0.0145,9.8066,-0.0046,0.1825,0.0686,-22.94,-37.31,0.25,189.22,-85.12,100.45
52.553253,-1.46462,151.3,11.13,6,118.66,22 / 22,8266014,2019-11-06 18:24:06:476,1.6483,-0.763,9.5657,0.0135,-0.0066,9.8066,-0.0281,0.6429,-0.1987,-22.12,-37.19,-0.12,191.12,-85.07,102.68
52.553253,-1.46462,151.3,11.13,6,118.66,22 / 22,8266113,2019-11-06 18:24:06:575,1.3871,-0.8165,10.0571,-0.011,0.0362,9.8065,-0.0418,0.194,0.0344,-22.19,-37.31,-0.94,190.13,-85.13,104.14
52.553253,-1.46462,151.3,11.13,6,118.66,22 / 22,8266214,2019-11-06 18:24:06:676,1.5898,2.955,10.233,-0.0013,-0.0378,9.8065,-0.0495,0.3911,-0.0319,-21.69,-37.12,-1.69,186.6,-85.16,102.7
52.553253,-1.46462,151.3,11.13,6,118.66,22 / 22,8266314,2019-11-06 18:24:06:776,0.6467,2.0142,8.9368,-0.006,0.0075,9.8066,-0.0567,0.0544,0.0829,-21.19,-37.87,-1.75,186.73,-84.99,103.2
52.553253,-1.46462,151.3,11.13,6,118.66,22 / 22,8266414,2019-11-06 18:24:06:876,0.3728,2.0898,9.6649,0.0326,-0.016,9.8066,-0.0013,0.2617,0.0718,-20.69,-37.06,-2.19,190.25,-84.87,107.25
52.553253,-1.46462,151.3,11.13,6,118.66,22 / 22,8266514,2019-11-06 18:24:06:976,1.7333,1.4786,10.3833,0.0311,-0.0042,9.8066,0.08,0.1294,-0.0177,-21.06,-37.56,-2.5,191.01,-84.77,108.2
52.553253,-1.46462,151.3,11.13,6,118.66,22 / 22,8266614,2019-11-06 18:24:07:076,0.8063,1.1063,10.2594,0.0029,-0.0201,9.8066,0.0376,0.0688,0.0667,-20.69,-37.56,-2.37,193.71,-84.95,111.25
52.553253,-1.46462,151.3,11.13,6,118.66,22 / 22,8266713,2019-11-06 18:24:07:175,0.6494,0.9274,10.3704,-0.0023,-0.0371,9.8065,-0.1074,0.181,0.0964,-20.5,-37.87,-2.12,196.06,-84.95,114.36
52.553253,-1.46462,151.3,11.13,6,118.66,22 / 22,8266814,2019-11-06 18:24:07:276,1.1276,-1.1058,8.9939,0.0042,0.0046,9.8066,-0.1346,0.1725,0.1015,-20.81,-37.94,-2,198.56,-85.06,116.77
52.553253,-1.46462,151.3,11.13,6,118.66,22 / 22,8266913,2019-11-06 18:24:07:375,1.6455,1.2314,11.6567,0.0357,0.0396,9.8064,0.2278,0.1966,-0.2611,-20.81,-37.94,-1.5,203.82,-85.05,120.08
52.553253,-1.46462,151.3,11.13,6,118.66,22 / 22,8267013,2019-11-06 18:24:07:475,1.2259,-2.2179,8.9282,-0.0171,-0.0571,9.8064,0.1996,0.1288,-0.2142,-20.56,-38,-1.69,202.49,-85,121.3
52.553253,-1.46462,151.3,11.13,6,118.66,22 / 22,8267113,2019-11-06 18:24:07:575,1.1221,0.3939,9.0806,0.0684,0.0307,9.8063,-0.184,0.225,0.1489,-20.69,-37.56,-1.94,205.91,-84.94,125.24
52.553253,-1.46462,151.3,11.13,6,118.66,22 / 22,8267214,2019-11-06 18:24:07:676,1.7204,-1.5634,10.4019,0.0229,0.0086,9.8066,-0.1912,0.0787,0,-21.25,-37.81,-1.75,207.2,-85.06,126.62
52.553253,-1.46462,151.3,11.13,6,118.66,22 / 22,8267313,2019-11-06 18:24:07:775,1.1555,-0.305,9.7095,-0.021,-0.017,9.8066,0.0699,-0.0057,0.0156,-19.94,-37.69,-2.12,203.94,-85.24,123.23
52.553253,-1.46462,151.3,11.13,6,118.66,22 / 22,8267415,2019-11-06 18:24:07:877,-1.1199,-2.1491,9.8569,-0.0438,0.0043,9.8065,-0.023,-0.033,0.1425,-21.06,-37.12,-2.19,204.88,-85.43,123.62
52.553253,-1.46462,151.3,11.13,6,118.66,22 / 22,8267514,2019-11-06 18:24:07:976,1.2839,-1.5136,9.7398,-0.0169,-0.0301,9.8065,0.0302,-0.1596,-0.0789,-20.87,-37.19,-2.56,198.95,-85.75,119.44
52.553253,-1.46462,151.3,11.13,6,118.66,22 / 22,8267614,2019-11-06 18:24:08:076,0.152,-0.3044,9.82,-0.0013,0.0005,9.8066,0.0205,0.0433,0.038,-20.87,-37.19,-1.5,203.1,-85.68,118.75
52.553253,-1.46462,151.3,11.13,6,118.66,22 / 22,8267713,2019-11-06 18:24:08:175,1.295,-1.0542,9.6084,0.0193,0.0195,9.8066,-0.0593,-0.0548,-0.0104,-20.94,-36.75,-2.5,202.69,-85.69,120.99
52.553253,-1.46462,151.3,11.13,6,118.66,22 / 22,8267813,2019-11-06 18:24:08:275,0.8139,-0.9784,9.8209,0.0424,-0.0124,9.8065,-0.0889,0.1319,-0.0824,-21.06,-36.87,-2.06,206.07,-85.51,124.9
52.553253,-1.46462,151.3,11.13,6,118.66,23 / 23,8267914,2019-11-06 18:24:08:376,1.17,0.0616,9.9262,-0.0131,0.0028,9.8065,-0.0221,0.1126,-0.026,-20.81,-37.25,-2.12,205.03,-85.51,123.74
52.553253,-1.46462,151.3,11.13,6,118.66,23 / 23,8268014,2019-11-06 18:24:08:476,2.1326,-0.3157,10.396,-0.0028,-0.0051,9.8066,-0.0615,-0.0316,-0.0184,-21.12,-38.06,-2.25,203.91,-85.53,122.55
52.553253,-1.46462,151.3,11.13,6,118.66,23 / 23,8268114,2019-11-06 18:24:08:576,-0.0665,-0.3583,9.3701,-0.0082,0.006,9.8066,0.1731,-0.0619,-0.0074,-21,-37.25,-2.19,203.29,-85.5,121.79
52.553253,-1.46462,151.3,11.13,6,118.66,23 / 23,8268213,2019-11-06 18:24:08:675,1.2554,0.4917,10.5542,0.0164,0.0182,9.8065,0.0442,-0.0896,0.0215,-20.19,-37.44,-2.19,205.27,-85.28,124.62
52.553253,-1.46462,151.3,11.13,6,118.66,23 / 23,8268314,2019-11-06 18:24:08:776,0.8846,-1.5128,10.0432,0.0096,0.0192,9.8065,0.018,-0.195,0.0592,-20.56,-38.06,-2.25,206.52,-85.04,125.87
52.553253,-1.46462,151.3,11.13,6,118.66,23 / 23,8268413,2019-11-06 18:24:08:875,-0.1236,-0.0986,9.4839,0.0081,0.0037,9.8066,-0.0701,0.0584,0.0317,-20.62,-37.56,-1.75,206.43,-85.03,125.76
52.553253,-1.46462,151.3,11.13,6,118.66,23 / 23,8268513,2019-11-06 18:24:08:975,0.8677,-0.5972,9.8522,0.0041,0.0015,9.8066,0.0117,-0.0366,-0.0519,-20.12,-37.62,-2,206.58,-85.06,126.39
52.553253,-1.46462,151.3,11.13,6,118.66,23 / 23,8268613,2019-11-06 18:24:09:075,-0.038,-1.2495,9.8438,0.0012,-0.0184,9.8065,-0.0249,0.0724,-0.0349,-19.87,-37.87,-1.56,204.99,-85.05,124.57
52.553253,-1.46462,151.3,11.13,6,118.66,23 / 23,8268714,2019-11-06 18:24:09:176,0.043,-0.5483,9.2825,0.0198,0.0138,9.8066,-0.0609,-0.0083,0.0379,-20.31,-37.5,-1.62,206.46,-85.08,126.12
52.553253,-1.46462,151.3,11.13,6,118.66,23 / 23,8268814,2019-11-06 18:24:09:276,0.0302,0.3391,9.6856,0.0065,0.0081,9.8066,-0.0323,-0.0755,-0.0116,-21,-37.25,-2.25,206.81,-85.07,126.07
52.55344,-1.46365,152.62,11.62,4,38.32,22 / 22,8268914,2019-11-06 18:24:09:376,-0.0863,-2.206,10.4816,-0.0156,0.0053,9.8066,0.052,-0.0949,0.069,-20.75,-37.62,-1.69,206.19,-85.13,125.42
52.55344,-1.46365,152.62,11.62,4,38.32,22 / 22,8269014,2019-11-06 18:24:09:476,0.5835,0.08,9.705,0.0118,0.0083,9.8066,0.0461,-0.0719,-0.0103,-20.94,-36.94,-2.12,206.97,-85.05,126.26
52.55344,-1.46365,152.62,11.62,4,38.32,22 / 22,8269113,2019-11-06 18:24:09:575,0.4887,-0.2273,9.8466,0.0094,-0.0044,9.8066,0.0388,-0.0233,0.0324,-20.62,-37.12,-1.75,208.26,-84.92,127.83
52.55344,-1.46365,152.62,11.62,4,38.32,22 / 22,8269213,2019-11-06 18:24:09:675,0.6561,-0.4741,9.6591,0.0044,0.001,9.8066,0.0265,-0.0761,0.0368,-20.56,-38,-2.25,208.04,-84.85,127.74
52.55344,-1.46365,152.62,11.62,4,38.32,22 / 22,8269314,2019-11-06 18:24:09:776,0.0717,-1.3535,9.9015,0.0035,-0.0059,9.8066,-0.0374,-0.1023,0.0434,-20.19,-37.56,-2,206.87,-84.85,126.89
52.55344,-1.46365,152.62,11.62,4,38.32,22 / 22,8269414,2019-11-06 18:24:09:876,-0.4921,-0.8733,9.8155,-0.0059,-0.0144,9.8066,-0.0388,-0.1103,0.107,-20.87,-38,-2.06,207.84,-84.86,127.51
52.55344,-1.46365,152.62,11.62,4,38.32,22 / 22,8269514,2019-11-06 18:24:09:976,0.0298,-2.0511,9.956,-0.0038,-0.024,9.8066,-0.0212,-0.1647,0.0693,-20.06,-37.31,-2.25,207.58,-84.65,127.74
52.55344,-1.46365,152.62,11.62,4,38.32,22 / 22,8269613,2019-11-06 18:24:10:075,-1.1441,0.7406,9.8478,0.0159,-0.007,9.8066,0.0222,-0.1289,0.0766,-20.44,-37.5,-2.31,207.95,-84.68,128.15
52.55344,-1.46365,152.62,11.62,4,38.32,22 / 22,8269714,2019-11-06 18:24:10:176,-0.7922,-1.1574,10.0448,0.003,-0.0263,9.8066,-0.0388,-0.1891,0.1327,-20.31,-36.94,-1.94,208.37,-84.8,128.53
52.55344,-1.46365,152.62,11.62,4,38.32,22 / 22,8269814,2019-11-06 18:24:10:276,-1.3937,0.5708,10.3454,0.0066,-0.0296,9.8066,0.006,-0.1635,0.1027,-20.25,-37.69,-1.94,209.1,-84.8,129.49
52.55344,-1.46365,152.62,11.62,4,38.32,22 / 22,8269914,2019-11-06 18:24:10:376,0.0958,-2.7284,9.8398,0.0165,-0.0313,9.8066,0.0501,-0.1889,0.1321,-20.69,-37.69,-1.81,209.97,-84.57,130.2
52.55344,-1.46365,152.62,11.62,4,38.32,22 / 22,8270014,2019-11-06 18:24:10:476,-0.2373,1.6925,9.5016,0.0142,-0.0155,9.8066,0.0262,-0.2868,0.1396,-20.56,-36.87,-1.87,212.61,-84.56,133.07
52.55344,-1.46365,152.62,11.62,4,38.32,22 / 22,8270114,2019-11-06 18:24:10:576,-0.0302,-3.8438,10.1673,0.0023,-0.0145,9.8066,-0.0711,0.3621,-0.1552,-20.62,-37.12,-1.44,215.79,-84.63,133.93
52.55344,-1.46365,152.62,11.62,4,38.32,22 / 22,8270214,2019-11-06 18:24:10:676,-0.4878,0.5027,9.6876,0.0121,-0.0227,9.8065,-0.051,0.2507,-0.0797,-20.87,-36.87,-1.94,214.7,-84.76,135.27
52.55344,-1.46365,152.62,11.62,4,38.32,22 / 22,8270313,2019-11-06 18:24:10:775,0.2315,-2.6202,9.4188,0.0075,-0.0308,9.8066,0.0498,0.2131,-0.1275,-20.81,-36.87,-1.69,214.61,-84.68,135.25
52.55344,-1.46365,152.62,11.62,4,38.32,22 / 22,8270413,2019-11-06 18:24:10:875,-0.6056,-1.4482,9.6273,0.0242,-0.0134,9.8066,-0.0884,0.2034,-0.0548,-21,-38.06,-2.19,216.5,-84.69,137.52
52.55344,-1.46365,152.62,11.62,4,38.32,22 / 22,8270513,2019-11-06 18:24:10:975,0.0387,-1.0759,9.9537,-0.0015,0.0001,9.8066,-0.0148,-0.0156,0.0022,-20.87,-37.94,-1.94,215.46,-84.72,136.31
52.55344,-1.46365,152.62,11.62,4,38.32,22 / 22,8270614,2019-11-06 18:24:11:076,-0.2244,-0.6877,10.1091,0.0116,0.0124,9.8065,0.0458,-0.0282,-0.0192,-20.56,-37.12,-1.06,218.01,-84.63,136.45
52.55344,-1.46365,152.62,11.62,4,38.32,22 / 22,8270714,2019-11-06 18:24:11:176,-0.0285,-0.0355,10.0899,-0.0088,-0.0087,9.8066,0.0872,0.0584,-0.1102,-19.56,-36.69,1.25,222.81,-84.48,136.76
52.55344,-1.46365,152.62,11.62,4,38.32,22 / 22,8270814,2019-11-06 18:24:11:276,-0.3528,-0.7023,9.7602,0.0087,0.0091,9.8065,0.006,0.0257,-0.0206,-20.25,-35.75,8.06,240.39,-84.35,136.72
52.55344,-1.46365,152.62,11.62,4,38.32,22 / 22,8270914,2019-11-06 18:24:11:376,-2.3795,-1.5524,9.8427,-0.0207,-0.0066,9.8065,-0.0022,0.1772,-0.1138,-39.94,-42.87,21.5,250.33,-84.4,136.42
52.55344,-1.46365,152.62,11.62,4,38.32,22 / 22,8271014,2019-11-06 18:24:11:476,0.3051,-0.4547,9.3335,0.0167,-0.008,9.8065,-0.0164,0.1773,-0.0933,-28.25,-38.81,-2.69,215.98,-84.27,136.63
52.55344,-1.46365,152.62,11.62,4,38.32,22 / 22,8271114,2019-11-06 18:24:11:576,0.022,-3.2483,10.1668,0.0115,-0.0033,9.8066,-0.0106,0.0102,0.0145,-23.37,-39.12,-3.19,214.51,-84.12,137.41
52.55344,-1.46365,152.62,11.62,4,38.32,22 / 22,8271214,2019-11-06 18:24:11:676,-0.9917,-0.9628,9.812,0.0035,-0.018,9.8065,0.0163,0.1392,-0.0819,-22.06,-38.56,-3.25,214.6,-84.05,138.16
52.55344,-1.46365,152.62,11.62,4,38.32,22 / 22,8271314,2019-11-06 18:24:11:776,0.1702,-1.7895,9.8855,-0.0035,-0.0148,9.8066,0.0292,-0.0438,-0.0384,-22.87,-38.19,-2.87,215.77,-83.94,138.87
52.55344,-1.46365,152.62,11.62,4,38.32,22 / 22,8271413,2019-11-06 18:24:11:875,-1.5622,-1.0991,9.7127,0.0011,-0.0188,9.8066,-0.0175,0.0696,0.0018,-23.81,-38.25,-3.81,214.82,-84.04,139.46
52.55344,-1.46365,152.62,11.62,4,38.32,22 / 22,8271514,2019-11-06 18:24:11:976,-0.6541,-2.6582,10.5026,0.012,-0.0231,9.8065,-0.0054,0.0613,-0.0778,-35.06,-41.44,1.56,229.27,-84.18,141.02
52.55344,-1.46365,152.62,11.62,4,38.32,22 / 22,8271614,2019-11-06 18:24:12:076,-0.5288,0.5206,9.9031,0.0107,-0.0196,9.8066,0.0067,0.1686,-0.0172,-30.56,-38.81,28.88,269.66,-84.13,141.98
52.55344,-1.46365,152.62,11.62,4,38.32,22 / 22,8271714,2019-11-06 18:24:12:176,-1.0551,-2.9616,10.5515,0.0226,-0.0128,9.8066,-0.014,-0.0076,-0.0168,-20.87,-35.94,6,240.51,-84.04,143.05
52.55344,-1.46365,152.62,11.62,4,38.32,22 / 22,8271813,2019-11-06 18:24:12:275,-0.4326,-0.8476,9.958,0.0095,-0.0117,9.8066,0.005,0.0761,0.0067,-20.75,-36.87,1.44,229.23,-83.89,144.53
52.55344,-1.46365,152.62,11.62,4,38.32,22 / 22,8271913,2019-11-06 18:24:12:375,-0.6387,-1.7171,9.6761,-0.0126,0.0077,9.8066,-0.0424,0.0437,0.029,-21,-37.31,-1.19,224.38,-83.98,144.39
52.55344,-1.46365,152.62,11.62,4,38.32,22 / 22,8272014,2019-11-06 18:24:12:476,0.8055,-1.6435,9.6155,-0.003,-0.014,9.8066,-0.0894,0.0031,-0.0304,-21.25,-37.37,-0.56,223.58,-84.07,143.38
52.55344,-1.46365,152.62,11.62,4,38.32,22 / 22,8272113,2019-11-06 18:24:12:575,-0.4249,-1.6328,9.4501,0.0032,0.0254,9.8065,-0.0679,0.0301,0.1037,-21.37,-36.94,-1.69,221.24,-84.16,143.3
52.55344,-1.46365,152.62,11.62,4,38.32,22 / 22,8272214,2019-11-06 18:24:12:676,0.476,-0.6049,9.427,-0.0075,-0.0177,9.8066,-0.0398,-0.019,-0.1067,-20.69,-37.19,-0.25,225.36,-84.22,142.49
52.55344,-1.46365,152.62,11.62,4,38.32,22 / 22,8272314,2019-11-06 18:24:12:776,0.7982,0.7053,9.3557,0.0009,0.013,9.8066,0.0982,-0.1904,0.0271,-20.81,-36.19,4.25,234.7,-84.09,141.93
52.55344,-1.46365,152.62,11.62,4,38.32,22 / 22,8272414,2019-11-06 18:24:12:876,-1.6917,-1.4899,9.3975,0.0255,0.0323,9.8065,-0.0599,-0.329,0.1741,-20.19,-35.75,16.38,261.87,-83.87,141.76
52.55344,-1.46365,152.62,11.62,4,38.32,22 / 22,8272514,2019-11-06 18:24:12:976,1.0426,2.4238,9.7808,0.0259,0.0312,9.8066,-0.013,-0.2078,0.1125,-39.06,-41.25,6.81,235.73,-83.77,140.74
52.55344,-1.46365,152.62,11.62,4,38.32,22 / 22,8272614,2019-11-06 18:24:13:076,0.7413,-5.1563,10.2866,-0.0202,0.0304,9.8066,0.0812,-0.5109,0.2112,-26.69,-39.37,-1.81,221.11,-83.89,140.99
52.55344,-1.46365,152.62,11.62,4,38.32,22 / 22,8272713,2019-11-06 18:24:13:175,-0.7774,-0.51,9.0847,-0.0242,0.0131,9.8066,0.0503,-0.1441,0.0002,-23.87,-38.81,-2.56,218.5,-83.95,141.56
52.55344,-1.46365,152.62,11.62,4,38.32,22 / 22,8272813,2019-11-06 18:24:13:275,-0.2269,-4.2093,9.8158,-0.0193,0.0375,9.8065,0.0343,-0.4226,0.1687,-23,-38.75,-1.19,220.3,-83.92,139.3
52.55344,-1.46365,152.62,11.62,4,38.32,22 / 22,8272913,2019-11-06 18:24:13:375,-0.7294,1.5152,9.611,0.005,0.0153,9.8066,-0.0155,-0.0808,-0.0441,-23.94,-38.87,-2.12,219.04,-83.91,139.88
52.55344,-1.46365,152.62,11.62,4,38.32,22 / 22,8273013,2019-11-06 18:24:13:475,0.134,-2.3846,10.2432,-0.0255,0.0402,9.8064,0.084,-0.5026,0.2253,-27.25,-39.19,-1.12,220.65,-83.8,138.45
52.55344,-1.46365,152.62,11.62,4,38.32,22 / 22,8273114,2019-11-06 18:24:13:576,0.1769,2.3956,9.864,-0.0135,-0.0139,9.8066,0.0158,0.1715,-0.1408,-39.37,-41.19,8.44,235.83,-83.91,139.29
52.55344,-1.46365,152.62,11.62,4,38.32,22 / 22,8273214,2019-11-06 18:24:13:676,-3.5033,-2.2182,9.8862,0.0242,0.031,9.8065,0.0081,-0.3299,0.1625,-21.94,-35.94,16.94,258.77,-83.95,138.75
52.55344,-1.46365,152.62,11.62,4,38.32,22 / 22,8273313,2019-11-06 18:24:13:775,-1.6981,-3.406,9.408,-0.0094,-0.023,9.8066,-0.0603,0.2836,-0.1237,-22.19,-35.87,5.38,234.63,-84.13,139.35
52.55344,-1.46365,152.62,11.62,4,38.32,22 / 22,8273413,2019-11-06 18:24:13:875,0.034,-4.3068,9.4754,-0.0181,0.0031,9.8065,0.0545,-0.1033,-0.0895,-22.06,-37.56,1.75,227.03,-84.3,138.9
52.55344,-1.46365,152.62,11.62,4,38.32,22 / 22,8273513,2019-11-06 18:24:13:975,0.0935,-0.9863,9.707,-0.0162,-0.0339,9.8065,0.0139,0.2241,-0.1424,-21.69,-37.5,0,221.81,-84.39,137.98
52.55344,-1.46365,152.62,11.62,4,38.32,22 / 22,8273613,2019-11-06 18:24:14:075,-1.0731,0.8009,9.642,-0.0046,-0.0023,9.8065,-0.106,0.0148,-0.0529,-22.19,-37.25,0.13,221.33,-84.49,137.34
52.55344,-1.46365,152.62,11.62,4,38.32,22 / 22,8273714,2019-11-06 18:24:14:176,-1.3712,0.1453,9.7543,0.0159,-0.0516,9.8065,-0.1017,0.3551,-0.2007,-22.5,-37.75,0.5,221.74,-84.64,135.18
52.55344,-1.46365,152.62,11.62,4,38.32,22 / 22,8273814,2019-11-06 18:24:14:276,-0.219,0.6274,10.0605,-0.0073,-0.0132,9.8066,-0.0216,0.1973,-0.1008,-22.94,-37.31,0.56,223.95,-84.87,137.08
52.55344,-1.46365,152.62,11.62,4,38.32,22 / 22,8273914,2019-11-06 18:24:14:376,0.0952,-5.3354,10.0226,0.0296,-0.0584,9.8063,-0.0272,0.263,-0.1813,-22.75,-36.62,1.06,223.71,-84.83,136.86
52.55344,-1.46365,152.62,11.62,4,38.32,22 / 22,8274014,2019-11-06 18:24:14:476,-0.8335,0.3287,9.9509,-0.0002,-0.0327,9.8066,0.0055,0.3108,-0.1082,-23.06,-37.5,0.81,227.9,-84.87,141.43
52.55344,-1.46365,152.62,11.62,4,38.32,22 / 22,8274114,2019-11-06 18:24:14:576,-0.0089,-1.3362,10.4418,-0.0133,-0.0482,9.8064,0.0267,0.1861,-0.2362,-23.25,-37.44,0.81,229.36,-85.13,142.73
52.55344,-1.46365,152.62,11.62,4,38.32,22 / 22,8274213,2019-11-06 18:24:14:675,-0.6083,0.9589,8.734,-0.0028,-0.0147,9.8065,-0.1402,0.3255,-0.0697,-24.06,-37.37,0.75,227.27,-85.09,140.34
52.55344,-1.46365,152.62,11.62,4,38.32,22 / 22,8274314,2019-11-06 18:24:14:776,-1.0909,-3.7375,10.1671,0.0067,-0.0155,9.8066,-0.1228,0.1901,-0.0084,-23.44,-37.5,1.31,227.02,-85.19,140.1
52.55344,-1.46365,152.62,11.62,4,38.32,22 / 22,8274414,2019-11-06 18:24:14:876,-0.6786,-0.432,10.4064,0.0031,-0.045,9.8065,-0.0103,0.3053,-0.253,-24.12,-37.06,0.63,227.28,-85.35,140.08
52.55344,-1.46365,152.62,11.62,4,38.32,22 / 22,8274514,2019-11-06 18:24:14:976,-0.8563,-4.2904,9.0588,-0.0298,-0.0216,9.8065,0.1085,0.1318,-0.0317,-23.62,-37.37,0.56,226.02,-85.29,138.76
52.55344,-1.46365,152.62,11.62,4,38.32,22 / 22,8274614,2019-11-06 18:24:15:076,-1.0899,1.3536,9.5981,0.0019,-0.0435,9.8065,-0.1206,0.2321,-0.2186,-23.87,-37.37,0.31,223.81,-85.48,138.55
52.55344,-1.46365,152.62,11.62,4,38.32,22 / 22,8274714,2019-11-06 18:24:15:176,-0.89,-4.1492,9.9927,-0.0005,0.0079,9.8066,-0.0648,-0.0096,0.1189,-23.81,-37.81,0.94,223.41,-85.5,135.83
52.55344,-1.46365,152.62,11.62,4,38.32,22 / 22,8274813,2019-11-06 18:24:15:275,0.517,1.8729,8.9823,0.0234,-0.0433,9.8065,-0.1039,0.3,-0.2646,-23.5,-37.31,0.38,222.03,-85.62,136.67
52.55344,-1.46365,152.62,11.62,4,38.32,23 / 23,8274913,2019-11-06 18:24:15:375,-1.705,-0.3911,8.3922,-0.0298,0.0291,9.8065,0.1179,-0.2066,0.1012,-23.75,-37.75,0.75,220.85,-85.41,133.13
52.55344,-1.46365,152.62,11.62,4,38.32,23 / 23,8275013,2019-11-06 18:24:15:475,-0.9033,1.9541,8.9833,-0.0079,-0.0523,9.8065,-0.0049,0.2365,-0.291,-23.31,-37.75,1.5,218.35,-85.09,128.3
52.55344,-1.46365,152.62,11.62,4,38.32,23 / 23,8275114,2019-11-06 18:24:15:576,-0.8131,-2.0823,11.4074,0.0372,0.0329,9.8065,-0.004,-0.3119,0.2084,-23.12,-38.56,1.56,217.87,-84.89,128.1
52.55344,-1.46365,152.62,11.62,4,38.32,23 / 23,8275214,2019-11-06 18:24:15:676,-0.0497,0.9032,9.6072,0.0252,-0.0265,9.8066,-0.0743,0.1203,-0.0256,-22.81,-37.44,1.63,220.19,-85.11,130.19
52.55344,-1.46365,152.62,11.62,4,38.32,23 / 23,8275314,2019-11-06 18:24:15:776,-1.7955,1.2436,9.6951,-0.0051,0.0208,9.8066,0.0184,-0.5148,0.2157,-23.19,-37.75,1.38,217.89,-85.22,130.15
52.55344,-1.46365,152.62,11.62,4,38.32,23 / 23,8275413,2019-11-06 18:24:15:875,-0.6773,1.4018,9.4444,-0.0309,-0.0223,9.8066,0.0745,-0.0829,0.0561,-23.5,-38.37,1.44,217.93,-85.39,130.03
52.55344,-1.46365,152.62,11.62,4,38.32,23 / 23,8275513,2019-11-06 18:24:15:975,0.8971,-0.4484,10.3538,-0.0058,0.0344,9.8066,0.0681,-0.4301,0.1402,-23.31,-36.81,1.94,221.91,-85.47,131.71
52.55344,-1.46365,152.62,11.62,4,38.32,23 / 23,8275613,2019-11-06 18:24:16:075,1.3386,-4.113,9.1828,0.0163,0.0244,9.8066,-0.0021,-0.2194,0.151,-23.94,-37.69,1.75,220.45,-85.3,130.41
52.55344,-1.46365,152.62,11.62,4,38.32,23 / 23,8275714,2019-11-06 18:24:16:176,-0.2701,-3.204,9.7621,-0.0121,0.057,9.8064,0.0029,-0.3585,0.2268,-23.69,-37.5,1.88,218.47,-85.2,128.2
52.55344,-1.46365,152.62,11.62,4,38.32,23 / 23,8275814,2019-11-06 18:24:16:276,-0.3485,-2.2139,9.8687,-0.0222,-0.0126,9.8065,-0.0045,-0.1834,-0.0028,-23.19,-37.56,1.75,218.04,-85.43,127.62
52.55344,-1.46365,152.62,11.62,4,38.32,23 / 23,8275913,2019-11-06 18:24:16:375,-1.8501,1.0964,9.8184,-0.0174,0.0276,9.8066,0.0286,-0.3182,0.1606,-23.62,-38.06,2.06,217.4,-85.52,126.85
52.55344,-1.46365,152.62,11.62,4,38.32,23 / 23,8276015,2019-11-06 18:24:16:477,-0.5294,-1.2479,10.1213,-0.0073,0.0046,9.8066,0.0019,-0.2976,0.112,-23.12,-37.06,2.44,216.04,-85.7,125.05
52.55344,-1.46365,152.62,11.62,4,38.32,23 / 23,8276114,2019-11-06 18:24:16:576,0.855,0.5401,9.5052,-0.0042,0.0188,9.8066,-0.0104,-0.2525,0.1177,-23.69,-37.75,1.31,214.3,-85.84,125.56
52.55344,-1.46365,152.62,11.62,4,38.32,23 / 23,8276213,2019-11-06 18:24:16:675,-0.2223,-1.9418,10.1034,-0.0043,0.0151,9.8066,-0.0272,-0.0583,0.0245,-23.69,-37.62,1.75,216.9,-85.94,125.92
52.55344,-1.46365,152.62,11.62,4,38.32,23 / 23,8276313,2019-11-06 18:24:16:775,-1.8839,0.1569,9.6847,0.0074,0.0144,9.8066,0.052,-0.1835,0.1132,-24.19,-37.06,3.06,218.61,-86.03,125.21
52.55344,-1.46365,152.62,11.62,4,38.32,23 / 23,8276414,2019-11-06 18:24:16:876,-0.3799,-2.4947,10.062,-0.0006,0.0017,9.8066,0.0338,-0.2405,0.0311,-24.44,-38.25,3.13,221.16,-86.12,127.98
52.55344,-1.46365,152.62,11.62,4,38.32,23 / 23,8276514,2019-11-06 18:24:16:976,-0.5367,-0.5604,10.0758,-0.0163,0.0146,9.8066,0.0227,-0.1971,0.0487,-24.5,-37.44,3.38,221.32,-86.17,128
52.55344,-1.46365,152.62,11.62,4,38.32,23 / 23,8276614,2019-11-06 18:24:17:076,-1.2383,-3.1798,9.5162,0.0014,0.0225,9.8066,-0.0032,-0.3079,0.1427,-24.25,-38.06,2.81,219.57,-86.24,126.15
52.55344,-1.46365,152.62,11.62,4,38.32,23 / 23,8276714,2019-11-06 18:24:17:176,-1.0677,0.4069,9.5735,0.0046,0.0245,9.8065,-0.0076,-0.169,0.0781,-25.06,-38.12,3.13,220.79,-86.37,127.47
52.55344,-1.46365,152.62,11.62,4,38.32,23 / 23,8276814,2019-11-06 18:24:17:276,-1.3458,-2.1998,10.1469,-0.0101,0.0084,9.8066,0.0393,-0.3043,0.0871,-24.5,-37.12,2.69,220.88,-86.33,127.37
52.55344,-1.46365,152.62,11.62,4,38.32,22 / 23,8276914,2019-11-06 18:24:17:376,-0.7516,1.4922,9.4947,0.0027,0.0168,9.8066,-0.033,-0.1882,0.0977,-24.44,-37.5,3.38,220.89,-86.35,127.37
52.55344,-1.46365,152.62,11.62,4,38.32,22 / 23,8277014,2019-11-06 18:24:17:476,-0.75,-2.2874,9.7136,-0.0187,0.0224,9.8065,0.027,-0.4301,0.1171,-24.37,-37.5,3.56,222.92,-86.56,126.97
52.55344,-1.46365,152.62,11.62,4,38.32,22 / 23,8277114,2019-11-06 18:24:17:576,-0.9889,1.2575,9.3009,-0.0092,-0.0109,9.8066,-0.0267,-0.0291,-0.0342,-24.69,-37.94,3.44,220.14,-86.71,126.45
52.55344,-1.46365,152.62,11.62,4,38.32,22 / 23,8277213,2019-11-06 18:24:17:675,-1.8532,-2.6208,9.8465,-0.0084,0.0251,9.8066,0.041,-0.2514,0.1037,-24.81,-37.87,3.88,222.74,-86.91,126.76
52.55344,-1.46365,152.62,11.62,4,38.32,22 / 23,8277314,2019-11-06 18:24:17:776,-0.9956,-1.6899,10.1065,-0.0012,-0.0211,9.8066,-0.0513,0.0379,-0.1037,-24.81,-37.25,3.88,223.97,-86.99,127.9
52.55344,-1.46365,152.62,11.62,4,38.32,22 / 23,8277413,2019-11-06 18:24:17:875,-1.7517,-3.1063,9.8834,-0.0139,0.0269,9.8065,-0.0097,-0.22,0.1355,-24.87,-37.37,3.88,223.02,-87.18,126.71
52.55344,-1.46365,152.62,11.62,4,38.32,22 / 23,8277513,2019-11-06 18:24:17:975,-1.6807,-1.3991,9.9993,0.0042,-0.0243,9.8065,-0.0309,0.1394,-0.1114,-25,-37.06,3.63,225.42,-87.44,128.96
52.55344,-1.46365,152.62,11.62,4,38.32,22 / 23,8277613,2019-11-06 18:24:18:075,-0.8168,-0.348,9.6374,-0.0093,0.0099,9.8065,0.0335,-0.1228,0.0306,-25.37,-37.56,4.19,223.33,-87.38,126.91
52.55344,-1.46365,152.62,11.62,4,38.32,22 / 23,8277713,2019-11-06 18:24:18:175,-1.9562,0.0269,10.022,-0.0224,-0.0153,9.8065,0.0123,0.0682,-0.0926,-25,-37.56,4.44,222.79,-87.49,126.23
52.55344,-1.46365,152.62,11.62,4,38.32,22 / 23,8277814,2019-11-06 18:24:18:276,-2.1258,-0.9849,9.4953,0.0056,0.006,9.8066,-0.0309,-0.0596,0.0065,-25.37,-36.94,3.81,221.41,-87.57,124.64
52.554108,-1.462587,154.24,9.37,4,61.06,23 / 23,8277914,2019-11-06 18:24:18:376,-1.9797,-2.1098,9.5047,-0.0065,-0.0131,9.8066,-0.0025,-0.1946,0.0242,-25,-36.94,4.38,219.76,-87.79,122.71
52.554108,-1.462587,154.24,9.37,4,61.06,23 / 23,8278013,2019-11-06 18:24:18:475,-1.0048,1.1013,9.5617,0.0009,0.0291,9.8066,-0.0518,0.1021,-0.1232,-25.5,-37,4.63,222.15,-87.83,122.94
52.554108,-1.462587,154.24,9.37,4,61.06,23 / 23,8278115,2019-11-06 18:24:18:577,-1.2815,-2.0183,10.1294,-0.0038,0.0149,9.8066,0.042,0.1493,-0.0529,-24.94,-36.75,4.56,218.23,-87.86,118.82
52.554108,-1.462587,154.24,9.37,4,61.06,23 / 23,8278214,2019-11-06 18:24:18:676,-0.886,2.4757,9.3087,-0.0071,0.0347,9.8065,-0.0886,0.286,-0.2459,-25.12,-37.31,4.69,217.98,-88.02,118.42
52.554108,-1.462587,154.24,9.37,4,61.06,23 / 23,8278314,2019-11-06 18:24:18:776,-2.4404,-2.4568,9.6977,0.0022,0.033,9.8065,-0.0215,0.1201,-0.0382,-25.19,-37.12,4.69,214.63,-87.95,115
52.554108,-1.462587,154.24,9.37,4,61.06,23 / 23,8278414,2019-11-06 18:24:18:876,-1.4174,2.5106,9.4473,0.0066,0.0279,9.8065,-0.0651,0.4135,-0.3053,-24.94,-37,4.25,207.97,-87.82,110.35
52.554108,-1.462587,154.24,9.37,4,61.06,23 / 23,8278513,2019-11-06 18:24:18:975,-2.9468,-3.6,9.7443,0.0005,0.0425,9.8065,0.0064,-0.0831,0.0155,-24.75,-36.56,4.75,209.08,-87.92,109.22
52.554108,-1.462587,154.24,9.37,4,61.06,23 / 23,8278613,2019-11-06 18:24:19:075,-1.7952,0.1816,9.8792,0.0021,-0.0083,9.8066,-0.0788,0.3827,-0.2197,-24.94,-36.44,3.94,203.89,-88,105.94
52.554108,-1.462587,154.24,9.37,4,61.06,23 / 23,8278713,2019-11-06 18:24:19:175,-3.1815,-3.3899,9.6876,-0.0065,0.0407,9.8065,-0.031,-0.3063,0.1165,-24.87,-36.31,3.69,202.95,-88.06,104.92
52.554108,-1.462587,154.24,9.37,4,61.06,23 / 23,8278813,2019-11-06 18:24:19:275,-2.007,1.2679,9.8466,-0.0091,-0.0398,9.8065,-0.007,0.1387,-0.0567,-25.31,-36.69,3.5,202.36,-88.1,104.31
52.554108,-1.462587,154.24,9.37,4,61.06,23 / 23,8278913,2019-11-06 18:24:19:375,-1.6705,1.6763,9.7671,0.0097,0.0229,9.8065,0.0166,-0.3713,0.1372,-25.75,-36.25,3.5,202.11,-88.21,104.27
52.554108,-1.462587,154.24,9.37,4,61.06,23 / 23,8279013,2019-11-06 18:24:19:475,-2.0673,2.8255,9.4336,0.0082,-0.0331,9.8066,-0.006,0.1007,-0.0063,-25.87,-35.69,4.13,201.26,-88.32,103.34
52.554108,-1.462587,154.24,9.37,4,61.06,23 / 23,8279113,2019-11-06 18:24:19:575,-1.6261,-0.0887,10.2477,-0.0041,0.0166,9.8066,-0.0325,-0.2973,0.1353,-25.87,-36.62,4.38,202,-88.3,104.15
52.554108,-1.462587,154.24,9.37,4,61.06,23 / 23,8279214,2019-11-06 18:24:19:676,-1.9226,-2.0262,9.6632,-0.0046,-0.0396,9.8065,0.0308,-0.0272,0.065,-25.75,-35.62,4.56,206.08,-88.35,106.17
52.554108,-1.462587,154.24,9.37,4,61.06,23 / 23,8279314,2019-11-06 18:24:19:776,-1.0163,-0.7894,10.0318,0.0008,0.0025,9.8066,0.0398,-0.1354,0.0736,-26.19,-36.19,4.63,205.94,-88.46,105.96
52.554108,-1.462587,154.24,9.37,4,61.06,23 / 23,8279414,2019-11-06 18:24:19:876,-1.0062,-0.5219,10.3639,0.006,-0.0237,9.8066,0.0435,-0.0358,0.0531,-26.12,-35.62,3.94,208.41,-88.65,110.54
52.554108,-1.462587,154.24,9.37,4,61.06,23 / 23,8279514,2019-11-06 18:24:19:976,-1.1828,0.9908,9.6206,-0.0053,0.0007,9.8066,0.0239,-0.004,0.0178,-26.25,-36.5,4.25,205.65,-88.6,107.73
52.554108,-1.462587,154.24,9.37,4,61.06,23 / 23,8279614,2019-11-06 18:24:20:076,-0.7534,0.9245,10.157,-0.0053,-0.0004,9.8066,-0.0153,0.0199,0.009,-25.75,-36.12,4.5,207.65,-88.56,107.67
52.554108,-1.462587,154.24,9.37,4,61.06,23 / 23,8279714,2019-11-06 18:24:20:176,-0.0669,1.3824,9.7947,0.0076,-0.0108,9.8066,-0.0029,0.0013,0.0627,-25.06,-36.62,3.94,204.77,-88.56,106.55
52.554108,-1.462587,154.24,9.37,4,61.06,23 / 23,8279814,2019-11-06 18:24:20:276,-0.5467,0.1433,10.326,0.006,-0.0069,9.8066,0.0396,0.0601,-0.0125,-25.37,-36.37,4.06,205.65,-88.61,107.41
52.554108,-1.462587,154.24,9.37,4,61.06,22 / 22,8279914,2019-11-06 18:24:20:376,0.8484,0.2729,9.593,-0.0008,0.0098,9.8066,0.0371,0.0346,0.0346,-25.31,-37,4.19,204.12,-88.55,105.89
52.554108,-1.462587,154.24,9.37,4,61.06,22 / 22,8280014,2019-11-06 18:24:20:476,-0.5269,0.5722,10.0559,-0.0007,-0.0127,9.8066,0.0148,0.0623,0.0175,-24.81,-36.81,2.88,205.61,-88.48,109.72
52.554108,-1.462587,154.24,9.37,4,61.06,22 / 22,8280113,2019-11-06 18:24:20:575,-0.2387,3.2405,9.5219,0.0093,-0.0082,9.8066,0.0345,0.0413,0.0841,-24.5,-37.06,3.63,208.16,-88.37,109.85
52.554108,-1.462587,154.24,9.37,4,61.06,22 / 22,8280213,2019-11-06 18:24:20:675,-1.3328,0.9003,10.0494,-0.0042,-0.0035,9.8066,-0.044,0.1068,0.016,-25,-37.62,3.38,200.26,-88.4,104.24
52.554108,-1.462587,154.24,9.37,4,61.06,22 / 22,8280314,2019-11-06 18:24:20:776,-0.6546,2.417,9.7514,-0.0031,-0.0087,9.8066,0.0264,0.2618,0.0213,-24.19,-37.31,2.19,195.85,-88.4,101.75
52.554108,-1.462587,154.24,9.37,4,61.06,22 / 22,8280414,2019-11-06 18:24:20:876,0.2886,1.47,9.8323,0.0062,0.0013,9.8066,0.0125,0.1938,-0.0344,-23.81,-38,2.31,198.91,-88.19,105.06
52.554108,-1.462587,154.24,9.37,4,61.06,22 / 22,8280514,2019-11-06 18:24:20:976,0.3959,3.0564,9.5012,0.0104,-0.0179,9.8066,0.0063,0.2846,0.006,-23.37,-37.81,1.44,200.38,-88.19,108.93
52.554108,-1.462587,154.24,9.37,4,61.06,22 / 22,8280614,2019-11-06 18:24:21:076,-0.2333,1.1342,9.5773,-0.0007,-0.013,9.8066,0.0158,0.1972,0.0432,-23.06,-37.19,1.63,206.88,-88.2,113.2
52.554108,-1.462587,154.24,9.37,4,61.06,22 / 22,8280714,2019-11-06 18:24:21:176,0.235,1.4411,10.1004,-0.0154,-0.0207,9.8066,-0.0863,0.4234,-0.092,-23,-37.5,0.5,203.15,-88.38,111.68
52.554108,-1.462587,154.24,9.37,4,61.06,22 / 22,8280814,2019-11-06 18:24:21:276,-0.5347,-0.5104,10.4356,-0.0202,-0.0048,9.8066,-0.0257,0.2064,0.0958,-22.69,-37.94,0,194.27,-88.58,104.85
52.554108,-1.462587,154.24,9.37,4,61.06,23 / 23,8280914,2019-11-06 18:24:21:376,1.4986,1.6674,9.8534,-0.0121,0.0059,9.8066,0.0249,0.5542,-0.2355,-21.75,-37.75,-0.25,184.88,-88.6,95.08
52.554108,-1.462587,154.24,9.37,4,61.06,23 / 23,8281013,2019-11-06 18:24:21:475,-0.3729,2.5446,9.1773,0.0041,0.0629,9.8064,-0.0314,0.3979,-0.074,-21.25,-37.06,-1.12,183.14,-88.3,96.03
52.554108,-1.462587,154.24,9.37,4,61.06,23 / 23,8281113,2019-11-06 18:24:21:575,2.9748,0.8809,9.8914,0.0057,0.0053,9.8066,-0.0721,0.6742,-0.1738,-21.25,-38.44,-1.31,188.93,-87.85,102.25
52.554108,-1.462587,154.24,9.37,4,61.06,23 / 23,8281213,2019-11-06 18:24:21:675,3.3489,0.9104,10.6777,-0.0059,0.0231,9.8066,0.0127,0.5364,-0.0431,-21.19,-36.94,-2.12,194.39,-87.82,110.78
52.554108,-1.462587,154.24,9.37,4,61.06,23 / 23,8281314,2019-11-06 18:24:21:776,-0.4408,-1.0422,10.0571,0.0177,0.0299,9.8066,0.022,0.6917,-0.2449,-20.31,-38.81,-2.44,201.48,-87.74,118.78
52.554108,-1.462587,154.24,9.37,4,61.06,23 / 23,8281414,2019-11-06 18:24:21:876,0.4331,3.9588,10.1471,0.0095,0.0556,9.8065,0.0349,0.5409,-0.1476,-19.44,-38.19,-2.75,204.15,-87.65,125
52.554108,-1.462587,154.24,9.37,4,61.06,23 / 23,8281514,2019-11-06 18:24:21:976,-0.348,2.2234,10.035,-0.0061,0.0126,9.8066,-0.0359,0.5163,-0.1633,-19.69,-38.25,-2.5,206.27,-87.41,124.12
52.554108,-1.462587,154.24,9.37,4,61.06,23 / 23,8281613,2019-11-06 18:24:22:075,-0.3324,2.3825,9.7367,-0.0016,0.0181,9.8066,-0.0321,0.485,-0.06,-19.94,-38.25,-2.56,205.95,-87.54,126.49
52.554108,-1.462587,154.24,9.37,4,61.06,23 / 23,8281715,2019-11-06 18:24:22:177,2.634,-1.5752,9.8556,0.0049,0.0078,9.8066,0.0073,0.3588,-0.0512,-19.31,-38,-2.44,212.4,-87.51,131.04
52.554108,-1.462587,154.24,9.37,4,61.06,23 / 23,8281813,2019-11-06 18:24:22:275,2.1377,0.3584,9.087,-0.0074,0.0191,9.8066,-0.0205,0.3418,-0.1284,-19.37,-38.06,-2.87,218.46,-87.53,140.44
52.554108,-1.462587,154.24,9.37,4,61.06,22 / 22,8281914,2019-11-06 18:24:22:376,1.9219,-1.1602,10.2359,-0.0345,0.0338,9.8065,-0.0827,0.3291,-0.1773,-18.94,-38.12,-3.25,214.56,-87.51,136.3
52.554108,-1.462587,154.24,9.37,4,61.06,22 / 22,8282014,2019-11-06 18:24:22:476,0.861,0.4543,9.7542,-0.0473,0.059,9.8063,-0.1528,0.3742,-0.2224,-18.75,-38.25,-2.75,209.48,-87.68,130.69
52.554108,-1.462587,154.24,9.37,4,61.06,22 / 22,8282114,2019-11-06 18:24:22:576,0.4824,-2.3831,9.7971,-0.0306,0.0555,9.8064,-0.042,0.0801,-0.0756,-19,-38,-3.37,194.53,-87.31,114.82
52.554108,-1.462587,154.24,9.37,4,61.06,22 / 22,8282213,2019-11-06 18:24:22:675,1.3264,1.0105,9.9349,-0.0231,0.0454,9.8064,-0.0118,0.1501,-0.2485,-17.94,-38.31,-4.19,183.56,-86.93,106.48
52.554108,-1.462587,154.24,9.37,4,61.06,22 / 22,8282314,2019-11-06 18:24:22:776,0.1438,-1.0688,9.8281,-0.0135,0.043,9.8065,0.01,0.0892,-0.0815,-17.69,-38,-4,180.22,-86.65,102.78
52.554108,-1.462587,154.24,9.37,4,61.06,22 / 22,8282414,2019-11-06 18:24:22:876,1.3667,-0.19,9.1024,-0.0106,0.0289,9.8065,-0.0789,0.0878,-0.0856,-17.5,-38.62,-3.62,178.36,-86.52,101.38
52.554108,-1.462587,154.24,9.37,4,61.06,22 / 22,8282514,2019-11-06 18:24:22:976,1.5278,-2.37,10.6372,-0.0237,0.0166,9.8066,-0.0218,-0.1298,0.0269,-17.75,-38.12,-3,179.43,-86.21,98.81
52.554108,-1.462587,154.24,9.37,4,61.06,22 / 22,8282614,2019-11-06 18:24:23:076,0.7908,-1.3871,10.1337,-0.0132,-0.0036,9.8066,-0.0328,0.0401,-0.0968,-17.56,-38,-3,178,-85.99,97.17
52.554108,-1.462587,154.24,9.37,4,61.06,22 / 22,8282714,2019-11-06 18:24:23:176,0.4275,-2.6908,9.8563,-0.0085,0.0015,9.8066,0.0338,0.1344,-0.1075,-17.62,-38.06,-3.19,177.38,-85.98,96.47
