GPS LATITUDE (degrees), GPS LONGITUDE (degrees), GPS ALTITUDE (m), GPS SPEED (Kmh), GPS ACCURACY (m), GPS ORIENTATION (Â°),GPS SATELLITES IN RANGE, TIME SINCE START (ms), DATE (YYYY-MO-DD HH-MI-SS_SSS), ACCELEROMETER X (m/s²) , ACCELEROMETER Y (m/s²), ACCELEROMETER Z (m/s²), GRAVITY X (m/s²), GRAVITY Y (m/s²), GRAVITY Z (m/s²), GYROSCOPE Yaw (rad/s), GYROSCOPE Pitch (rad/s), GYROSCOPE Roll (rad/s), MAGNETIC FIELD X (Î¼T), MAGNETIC FIELD Y (Î¼T), MAGNETIC FIELD Z (Î¼T), ORIENTATION (Yaw) (Â°), ORIENTATION (Pitch) (Â°), ORIENTATION (Roll ) (Â°)
53.08707,-1.765907,367.8,2.89,4,6.73,21 / 22,1473214,2019-11-06 13:06:54:922,-1.605,2.2973,9.6079,-0.0625,-0.0051,9.8064,-0.0243,0.3965,-0.1224,8.88,-42.12,-18.31,33.08,-82.87,51.3
53.08707,-1.765907,367.8,2.89,4,6.73,21 / 22,1473314,2019-11-06 13:06:55:022,-2.8826,1.3442,10.0968,-0.0265,-0.0187,9.8066,-0.0712,0.5056,-0.0239,10.06,-41.62,-18.69,33.52,-82.71,53.17
53.08707,-1.765907,367.8,2.89,4,6.73,21 / 22,1473414,2019-11-06 13:06:55:122,-1.2021,1.7675,9.6296,-0.0283,-0.0123,9.8065,0.073,0.252,0.0524,10.75,-41.94,-17.75,29.49,-82.71,53.56
53.08707,-1.765907,367.8,2.89,4,6.73,20 / 20,1473514,2019-11-06 13:06:55:222,-3.0994,2.5394,9.8331,-0.0128,0.0127,9.8066,0.0174,0.2578,0.0146,9.88,-42.06,-17.37,28.1,-83.01,51.37
53.08707,-1.765907,367.8,2.89,4,6.73,20 / 20,1473615,2019-11-06 13:06:55:323,0.1123,3.9891,10.5439,-0.0041,0.0167,9.8066,0.1336,0.1652,0.0313,10.06,-41.62,-16.87,29.51,-83.49,52.98
53.08707,-1.765907,367.8,2.89,4,6.73,20 / 20,1473714,2019-11-06 13:06:55:422,0.2346,2.7201,9.3192,-0.0047,0.0067,9.8066,-0.0761,0.088,-0.0214,10.56,-42.25,-16.75,26.09,-83.84,53.24
53.08707,-1.765907,367.8,2.89,4,6.73,20 / 20,1473814,2019-11-06 13:06:55:522,3.198,3.0032,10.9303,-0.0008,-0.0229,9.8065,-0.1017,0.4563,-0.1958,10.63,-41.75,-16.37,24.27,-83.82,53.16
53.08707,-1.765907,367.8,2.89,4,6.73,20 / 20,1473914,2019-11-06 13:06:55:622,-3.9293,0.991,8.5065,-0.0505,-0.0309,9.8064,-0.1316,0.4372,-0.2586,11,-41.5,-17,29.04,-83.81,55.7
53.08707,-1.765907,367.8,2.89,4,6.73,20 / 20,1474014,2019-11-06 13:06:55:722,0.2731,-0.3459,9.665,-0.0222,-0.0079,9.8065,0.1568,-0.2189,0.1972,10.56,-41.25,-16.06,31.99,-83.59,59.14
53.08707,-1.765907,367.8,2.89,4,6.73,20 / 20,1474114,2019-11-06 13:06:55:822,-1.6736,2.4695,9.7642,0.0061,0.0195,9.8066,0.0707,-0.1319,-0.1051,11,-41.5,-16.06,32.76,-83.75,59.96
53.08707,-1.765907,367.8,2.89,4,6.73,20 / 20,1474215,2019-11-06 13:06:55:923,1.9459,1.4137,8.6888,0.0021,0.0223,9.8066,-0.1902,0.2268,-0.0753,9.75,-41.94,-17.31,35.77,-84.26,58.94
53.08707,-1.765907,367.8,2.89,4,6.73,20 / 20,1474314,2019-11-06 13:06:56:022,-4.5531,-0.4634,7.6242,0.0219,-0.0254,9.8065,-0.2972,0.513,-0.2269,10.13,-42,-16.12,30.59,-84.23,55.92
53.08707,-1.765907,367.8,2.89,4,6.73,20 / 20,1474414,2019-11-06 13:06:56:122,-1.4861,5.2426,10.7197,-0.0173,-0.1046,9.806,0.1025,-0.9727,0.5472,10.31,-41.87,-16.44,28.93,-83.97,54.3
53.08707,-1.765907,367.8,2.89,4,6.73,20 / 21,1474515,2019-11-06 13:06:56:223,6.0033,8.1167,9.9432,0.1348,0.1002,9.8051,0.0646,-0.5377,0.2415,9.75,-42.12,-16.56,31.26,-83.88,54.81
53.08707,-1.765907,367.8,2.89,4,6.73,20 / 21,1474615,2019-11-06 13:06:56:323,-5.7035,-2.881,9.042,0.0836,0.0821,9.8059,-0.024,-0.1487,-0.0078,10,-42,-17.31,27.83,-84.9,53.12
53.08707,-1.765907,367.8,2.89,4,6.73,20 / 21,1474714,2019-11-06 13:06:56:422,5.8374,8.1139,11.6863,0.0058,0.0228,9.8066,0.3517,-1.0405,0.5367,9.25,-42.69,-16.75,28.29,-84.75,50.52
53.08707,-1.765907,367.8,2.89,4,6.73,20 / 21,1474814,2019-11-06 13:06:56:522,5.9587,6.8143,8.4952,0.0923,0.1159,9.8055,-0.1072,1.4729,-0.831,9.88,-41.62,-17.19,19.37,-85.43,46.56
53.08707,-1.765907,367.8,2.89,4,6.73,20 / 21,1474915,2019-11-06 13:06:56:623,8.0912,5.9579,10.2672,-0.2133,-0.147,9.8032,-0.0111,0.4825,-0.3331,8.31,-42,-17.25,35.37,-84.73,53.63
53.08707,-1.765907,367.8,2.89,4,6.73,20 / 21,1475014,2019-11-06 13:06:56:722,9.6789,5.0818,9.5379,-0.0715,-0.0477,9.8062,-0.1632,1.7879,-0.9451,8.94,-42.06,-17.5,21.25,-85.2,45.28
53.08707,-1.765907,367.8,2.89,4,6.73,20 / 21,1475114,2019-11-06 13:06:56:822,-13.4691,-5.3048,8.4421,-0.2509,-0.1557,9.8021,-0.1921,1.1821,-0.8353,10.13,-42.19,-17.5,2.75,-85.83,32.78
53.08707,-1.765907,367.8,2.89,4,6.73,20 / 21,1475220,2019-11-06 13:06:56:928,2.9955,5.9993,11.0228,-0.0914,-0.0977,9.8057,-0.0006,0.6121,-0.137,8.94,-42.5,-18.44,17.66,-85.15,41.1
53.08707,-1.765907,367.8,2.89,4,6.73,20 / 21,1475314,2019-11-06 13:06:57:022,-4.353,-4.8201,8.8883,-0.017,-0.0161,9.8066,-0.2529,0.8494,-0.4198,8.94,-42.19,-17.37,16.03,-85.63,41.25
53.08707,-1.765907,367.8,2.89,4,6.73,20 / 21,1475414,2019-11-06 13:06:57:122,-2.4186,2.4452,10.8302,-0.0798,-0.0858,9.8059,-0.2136,-0.5211,0.8275,8.44,-42.87,-17.56,25.18,-85.51,44.9
53.08707,-1.765907,367.8,2.89,4,6.73,19 / 20,1475514,2019-11-06 13:06:57:222,-12.7127,-1.9033,10.1094,0.127,0.016,9.8058,0.0392,0.831,-0.6823,8.63,-42.5,-17,11.73,-85.75,37.71
53.08707,-1.765907,367.8,2.89,4,6.73,19 / 20,1475614,2019-11-06 13:06:57:322,4.8948,1.0181,8.2582,-0.1609,-0.0373,9.8052,0.1565,-0.637,0.2209,7.69,-41.87,-17.37,20.69,-85.65,42.4
53.08707,-1.765907,367.8,2.89,4,6.73,19 / 20,1475714,2019-11-06 13:06:57:422,2.8233,5.189,12.495,0.0277,0.0833,9.8062,0.1085,0.177,-0.0688,8.31,-42.94,-18,12.7,-85.42,34.43
53.08707,-1.765907,367.8,2.89,4,6.73,19 / 20,1475814,2019-11-06 13:06:57:522,3.9344,2.5425,12.1482,0.0287,-0.0203,9.8065,0.0234,-0.5896,0.3671,8.06,-42.44,-17.06,6.1,-85.47,30.21
53.08707,-1.765907,367.8,2.89,4,6.73,19 / 20,1475914,2019-11-06 13:06:57:622,3.0331,2.2718,8.2911,0.114,-0.0063,9.806,-0.2384,-0.4033,0.2288,8.31,-42.69,-17.37,9.89,-85.34,33.23
53.08707,-1.765907,367.8,2.89,4,6.73,19 / 20,1476014,2019-11-06 13:06:57:722,-4.9755,0.066,9.8362,0.0605,0.0487,9.8063,0.0328,-0.4451,0.3268,9.19,-42.56,-17.06,358.79,-85.61,26.9
53.08707,-1.765907,367.8,2.89,4,6.73,19 / 20,1476114,2019-11-06 13:06:57:822,0.847,2.1171,10.346,0.075,0.0443,9.8062,0.0454,-0.5378,0.2303,8.5,-42,-17.56,358.86,-85.84,25.6
53.08707,-1.765907,367.8,2.89,4,6.73,19 / 20,1476214,2019-11-06 13:06:57:922,-5.2071,1.0588,8.7067,0.0456,0.0319,9.8064,-0.039,-0.2667,0.0117,8.56,-42.62,-17.75,1.69,-85.86,27.99
53.08707,-1.765907,367.8,2.89,4,6.73,19 / 20,1476315,2019-11-06 13:06:58:023,3.1623,2.8588,10.6889,0.0284,0.0376,9.8065,0.1373,-0.6971,0.3899,8.25,-42.19,-17.19,6.74,-85.64,30.78
53.08707,-1.765907,367.8,2.89,4,6.73,19 / 20,1476414,2019-11-06 13:06:58:122,-3.9483,-1.2344,9.4999,0.085,0.0429,9.8062,-0.1373,0.1505,-0.054,8.63,-41.37,-18.12,1.75,-85.79,28.05
53.08707,-1.765907,367.8,2.89,4,6.73,18 / 19,1476514,2019-11-06 13:06:58:222,1.4201,5.7147,10.1336,-0.0187,-0.0092,9.8066,0.1394,-0.5347,0.1736,8.56,-42,-16.94,1.96,-85.6,29.53
53.08707,-1.765907,367.8,2.89,4,6.73,18 / 19,1476615,2019-11-06 13:06:58:323,1.6672,2.8173,10.4891,0.0706,0.0474,9.8062,-0.1057,0.4872,-0.2743,8.44,-41.5,-17.31,1.2,-85.73,26.2
53.08707,-1.765907,367.8,2.89,4,6.73,18 / 19,1476714,2019-11-06 13:06:58:422,3.0003,5.5795,9.8949,-0.0264,-0.0258,9.8065,-0.0395,-0.1582,0.156,7.69,-41.94,-16.87,5.07,-85.73,29.41
53.08707,-1.765907,367.8,2.89,4,6.73,18 / 19,1476815,2019-11-06 13:06:58:523,1.6256,1.2229,9.8617,0.0066,0.0103,9.8066,-0.1134,0.5772,-0.3041,7.94,-42.12,-17.44,4.3,-86.04,28.83
53.08707,-1.765907,367.8,2.89,4,6.73,18 / 19,1476915,2019-11-06 13:06:58:623,-4.3948,-1.2289,9.6474,-0.0744,-0.0423,9.8062,-0.0029,0.2031,-0.1577,9.25,-40.81,-17.87,359.43,-86.07,26.08
53.08707,-1.765907,367.8,2.89,4,6.73,18 / 19,1477014,2019-11-06 13:06:58:722,-0.8832,1.5072,9.9338,-0.0226,-0.019,9.8065,0.0104,0.6172,-0.3352,10.5,-39.37,-16.94,354.6,-85.94,28.26
53.08707,-1.765907,367.8,2.89,4,6.73,18 / 19,1477114,2019-11-06 13:06:58:822,-2.8516,-3.4756,9.6187,-0.1044,-0.0518,9.8059,-0.0217,0.6113,-0.3765,8.63,-38.87,-15.37,355.06,-86.27,26.75
53.08707,-1.765907,367.8,2.89,4,6.73,18 / 19,1477215,2019-11-06 13:06:58:923,5.5286,2.4862,10.0098,-0.0726,-0.0475,9.8062,-0.0784,0.5659,-0.2445,7.19,-38.75,-15.5,14.89,-86.24,37.6
53.08707,-1.765907,367.8,2.89,4,6.73,18 / 19,1477314,2019-11-06 13:06:59:022,-3.5037,1.1045,10.0834,-0.0927,-0.0294,9.8061,-0.0908,0.8369,-0.5286,4.56,-38.75,-17,29.11,-85.98,41.13
53.08707,-1.765907,367.8,2.89,4,6.73,18 / 19,1477414,2019-11-06 13:06:59:122,3.9104,2.1631,8.5056,-0.1048,-0.0026,9.806,0.0591,0.194,-0.0322,5.63,-41.81,-19.06,27.72,-86.19,41.46
53.08707,-1.765907,367.8,2.89,4,6.73,18 / 18,1477515,2019-11-06 13:06:59:223,-1.0513,1.452,8.9733,0.0067,-0.0174,9.8066,-0.1023,0.4909,-0.2841,6.44,-43.31,-18.37,22,-86.73,37.63
53.08707,-1.765907,367.8,2.89,4,6.73,18 / 18,1477615,2019-11-06 13:06:59:323,-0.5638,2.6123,6.9216,-0.081,0.0058,9.8063,-0.0724,0.1386,0.1039,7.88,-41.37,-15.87,18.52,-87.02,42.89
53.08707,-1.765907,367.8,2.89,4,6.73,18 / 18,1477714,2019-11-06 13:06:59:422,-3.1016,0.9042,11.0873,-0.0516,-0.0098,9.8064,0.1974,0.2323,-0.382,7.81,-41.25,-16.81,32.86,-87.3,54.83
53.08707,-1.765907,367.8,2.89,4,6.73,18 / 18,1477814,2019-11-06 13:06:59:522,2.8544,-3.5289,7.2041,-0.0451,-0.042,9.8064,0.058,-0.0901,-0.1149,8.69,-41.62,-17.12,31.37,-87.07,55.9
53.08707,-1.765907,367.8,2.89,4,6.73,18 / 18,1477914,2019-11-06 13:06:59:622,1.2921,-2.1664,8.0899,0.0173,0.0094,9.8065,-0.1232,-0.0898,0.1096,8.75,-41.87,-17.75,15.04,-86.39,39.62
53.08707,-1.765907,367.8,2.89,4,6.73,18 / 18,1478014,2019-11-06 13:06:59:722,-1.7167,1.1159,10.0627,0.063,-0.0254,9.8063,-0.0898,-0.0911,0.1232,8.5,-41.69,-17.69,7.46,-86.13,32.96
53.08707,-1.765907,367.8,2.89,4,6.73,18 / 18,1478114,2019-11-06 13:06:59:822,1.1178,1.8653,9.3728,0.0451,0.017,9.8065,0.0274,-0.0743,0.1066,9,-41.31,-17.25,9.04,-86.28,35.67
53.08707,-1.765907,367.8,2.89,4,6.73,18 / 18,1478214,2019-11-06 13:06:59:922,-1.0931,0.8185,9.4083,-0.0032,0.0246,9.8066,0.0151,-0.0301,-0.0122,8.38,-42.06,-17.62,11.94,-86.57,34.37
53.08707,-1.765907,367.8,2.89,4,6.73,18 / 18,1478314,2019-11-06 13:07:00:022,-0.3162,2.0691,10.7085,-0.0211,0.0225,9.8065,0.0831,-0.0651,0.0292,8.13,-42.19,-17.69,12.99,-86.5,35.25
53.08707,-1.765907,367.8,2.89,4,6.73,18 / 18,1478414,2019-11-06 13:07:00:122,-0.7747,0.3989,9.8705,0.0056,-0.0052,9.8066,0.0444,-0.0257,0.0065,9.38,-41.69,-17.87,12.14,-86.39,37.1
53.08707,-1.765907,367.8,2.89,4,6.73,18 / 19,1478514,2019-11-06 13:07:00:222,-1.2643,-0.183,9.6168,0.0127,-0.0163,9.8066,-0.1574,0.1291,0.0525,9.19,-41.94,-16.81,9.73,-86.22,36.22
53.08707,-1.765907,367.8,2.89,4,6.73,18 / 19,1478615,2019-11-06 13:07:00:323,-0.5003,0.371,9.4277,-0.0019,-0.0092,9.8066,0.0079,-0.0977,0.0478,8.94,-41.94,-17.12,11.07,-86.23,37.37
53.08707,-1.765907,367.8,2.89,4,6.73,18 / 19,1478714,2019-11-06 13:07:00:422,0.2003,1.8494,9.7314,0.0287,0.0073,9.8065,-0.0378,-0.0508,0.0878,8.81,-41.69,-17.19,10.73,-86.13,37.03
53.08707,-1.765907,367.8,2.89,4,6.73,18 / 19,1478814,2019-11-06 13:07:00:522,-0.953,-0.2221,9.6582,0.0355,-0.0015,9.8065,-0.1001,0.0073,0.0727,9.06,-41.87,-17.37,6.22,-86.18,33.2
53.08707,-1.765907,367.8,2.89,4,6.73,18 / 19,1478914,2019-11-06 13:07:00:622,-0.5292,1.5673,10.1044,0.001,0.0003,9.8066,0.0717,-0.1064,0.016,9.56,-41.19,-16.87,1.52,-86.1,31.76
53.08707,-1.765907,367.8,2.89,4,6.73,18 / 19,1479014,2019-11-06 13:07:00:722,-1.3006,1.6837,10.0359,0.0158,0.034,9.8065,-0.0236,0.1507,0.0106,9.5,-40.81,-16.94,359.34,-86.26,29.9
53.08707,-1.765907,367.8,2.89,4,6.73,18 / 19,1479114,2019-11-06 13:07:00:822,0.5894,2.6649,10.0112,-0.0103,0.0116,9.8065,0.0656,-0.0751,-0.036,9.25,-41.81,-17.75,6.91,-86.23,32.52
53.08707,-1.765907,367.8,2.89,4,6.73,18 / 19,1479214,2019-11-06 13:07:00:922,2.2173,1.9057,10.9836,-0.0241,0.0416,9.8065,-0.095,0.2558,-0.1069,9.19,-41.56,-16.81,9.27,-86.55,35.94
53.08707,-1.765907,367.8,2.89,4,6.73,18 / 19,1479314,2019-11-06 13:07:01:022,-3.2093,-2.3252,8.4499,-0.0314,-0.0457,9.8065,-0.0853,0.5919,-0.402,10.31,-41.12,-17,17.28,-86.41,45.5
53.08707,-1.765907,367.8,2.89,4,6.73,18 / 19,1479414,2019-11-06 13:07:01:122,0.5046,2.3244,9.1073,-0.0989,-0.002,9.8061,0.2826,-0.3787,-0.0697,10.13,-41.12,-17.25,24.56,-86.34,51.82
53.08707,-1.765907,367.8,2.89,4,6.73,19 / 21,1479514,2019-11-06 13:07:01:222,-1.5622,0.7073,8.8073,0.0497,0.0724,9.8062,-0.0311,0.1592,0.165,10.19,-41.56,-17.5,18.06,-86.05,45.88
53.08707,-1.765907,367.8,2.89,4,6.73,19 / 21,1479614,2019-11-06 13:07:01:322,-0.4653,-0.8577,11.5257,0.0211,-0.0228,9.8066,-0.0354,-0.2922,0.0969,9.13,-42.19,-16.94,14.79,-86.48,40.7
53.08707,-1.765907,367.8,2.89,4,6.73,19 / 21,1479714,2019-11-06 13:07:01:422,-3.4028,1.5646,10.2443,0.0928,0.0292,9.8061,-0.0847,-0.039,0.338,9.56,-41.69,-16.81,359.76,-87.19,30.25
53.08707,-1.765907,367.8,2.89,4,6.73,19 / 21,1479814,2019-11-06 13:07:01:522,-0.0147,-1.5106,9.4772,-0.0045,0.0341,9.8065,-0.0796,-0.2816,0.2676,9.81,-41.56,-16.56,11.77,-87.34,41.07
53.08707,-1.765907,367.8,2.89,4,6.73,19 / 21,1479914,2019-11-06 13:07:01:622,1.9259,2.5494,10.4327,0.0322,0.0044,9.8066,0.1365,-0.2521,0.094,9.44,-41.81,-16.69,15.52,-87.2,41.77
53.08707,-1.765907,367.8,2.89,4,6.73,19 / 21,1480014,2019-11-06 13:07:01:722,-0.7327,2.1617,11.1225,0.0199,-0.0005,9.8066,0.1644,-0.5013,0.165,10.06,-41.12,-16.94,8.31,-86.92,37.84
53.08707,-1.765907,367.8,2.89,4,6.73,19 / 21,1480114,2019-11-06 13:07:01:822,4.5888,1.4919,9.9439,0.063,0.0437,9.8063,-0.0416,-0.4835,0.3826,9.44,-41.75,-17.06,16.79,-86.87,42.69
53.08707,-1.765907,367.8,2.89,4,6.73,19 / 21,1480214,2019-11-06 13:07:01:922,-4.5104,-1.2369,10.3875,0.0564,0.0483,9.8063,-0.0496,-0.221,0.146,10.25,-41.62,-16.87,14.08,-87.33,43.15
53.08707,-1.765907,367.8,2.89,4,6.73,19 / 21,1480314,2019-11-06 13:07:02:022,3.8059,2.6958,9.7939,0.0277,0.0281,9.8065,0.117,-0.7056,0.3876,9.88,-41.44,-17.62,20.18,-87.36,47.4
53.08707,-1.765907,367.8,2.89,4,6.73,19 / 21,1480414,2019-11-06 13:07:02:122,-4.293,-4.0214,8.9811,0.1016,0.0656,9.8059,-0.0261,0.4152,-0.2073,10.88,-41.37,-16.94,8.67,-87.57,40.83
53.08768,-1.766452,355.82,16.14,4,324.86,19 / 19,1480514,2019-11-06 13:07:02:222,0.8369,2.7598,9.4243,-0.0831,-0.0756,9.8059,0.0147,-0.1828,0.1164,9.94,-42.12,-16.81,20.62,-87.03,48.83
53.08768,-1.766452,355.82,16.14,4,324.86,19 / 19,1480615,2019-11-06 13:07:02:323,-1.8324,-1.9873,10.3102,0.0483,0.069,9.8062,-0.138,0.7075,-0.3029,9.88,-41.44,-17,8.99,-87.84,38.75
53.08768,-1.766452,355.82,16.14,4,324.86,19 / 19,1480715,2019-11-06 13:07:02:423,-2.839,-1.1262,10.048,0.0422,0.0263,9.8064,-0.0153,0.4966,-0.3283,9.56,-41.44,-17.19,5.26,-87.68,35.28
53.08768,-1.766452,355.82,16.14,4,324.86,19 / 19,1480814,2019-11-06 13:07:02:522,3.6385,1.2901,10.5098,0.0331,0.023,9.8066,0.0067,0.1894,-0.2429,9.63,-42.12,-17.06,16.19,-87.37,45.08
53.08768,-1.766452,355.82,16.14,4,324.86,19 / 19,1480914,2019-11-06 13:07:02:622,-2.3622,-1.9535,8.5491,-0.0081,0.012,9.8066,-0.0518,0.388,-0.0394,9.38,-42.87,-17.12,26.62,-87.36,51.84
53.08768,-1.766452,355.82,16.14,4,324.86,19 / 19,1481014,2019-11-06 13:07:02:722,2.7629,1.1977,11.0816,-0.0351,-0.0261,9.8065,0.0982,-0.4115,0.1405,8.63,-42.56,-15.69,27.47,-87.73,54.35
53.08768,-1.766452,355.82,16.14,4,324.86,19 / 19,1481114,2019-11-06 13:07:02:822,6.3563,1.1909,10.4988,-0.0184,0.0668,9.8063,0.0351,-0.4029,0.2783,9.63,-41.37,-16.31,34.27,-87.79,63.55
53.08768,-1.766452,355.82,16.14,4,324.86,19 / 19,1481214,2019-11-06 13:07:02:922,-7.7855,-4.9335,8.6716,-0.1238,-0.1018,9.8052,0.0366,-0.693,0.4799,9.19,-41.81,-16.62,41.63,-87.09,65.26
53.08768,-1.766452,355.82,16.14,4,324.86,19 / 19,1481314,2019-11-06 13:07:03:022,3.4302,3.2288,10.4341,-0.1017,-0.0608,9.8059,0.0431,-0.9628,0.5841,10.13,-41.5,-16.94,34.66,-87.48,62.12
53.08768,-1.766452,355.82,16.14,4,324.86,19 / 19,1481414,2019-11-06 13:07:03:122,-3.5894,-3.1008,8.4958,-0.0475,-0.008,9.8064,-0.0752,-0.0595,0.1249,10.88,-41,-17,28.34,-87.73,59.05
53.08768,-1.766452,355.82,16.14,4,324.86,18 / 20,1481514,2019-11-06 13:07:03:222,-2.9258,1.7632,10.2345,-0.0288,-0.081,9.8063,0.2973,-0.455,0.0085,9.63,-41.56,-16.56,33.57,-87.49,61.05
53.08768,-1.766452,355.82,16.14,4,324.86,18 / 20,1481614,2019-11-06 13:07:03:322,-5.475,-3.1043,9.7225,0.0969,0.0466,9.806,-0.0106,0.8474,-0.6721,10.25,-41.31,-17.12,44.56,-87.22,70.93
53.08768,-1.766452,355.82,16.14,4,324.86,18 / 20,1481714,2019-11-06 13:07:03:422,-1.3135,-1.6628,9.1202,-0.0353,-0.0177,9.8065,-0.0109,0.2579,-0.1936,11.06,-41.56,-16.81,41.78,-87.18,70.74
53.08768,-1.766452,355.82,16.14,4,324.86,18 / 20,1481814,2019-11-06 13:07:03:522,3.0917,1.1856,10.5016,0.1066,0.0891,9.8056,-0.1146,0.9443,-0.5668,10.75,-41.81,-16.5,44.18,-87.73,75.24
53.08768,-1.766452,355.82,16.14,4,324.86,18 / 20,1481914,2019-11-06 13:07:03:622,-5.4476,-2.6083,9.0572,0.0177,0.0561,9.8064,-0.0952,0.7093,-0.2661,11,-41.37,-16.5,48.45,-87.5,78.97
53.08768,-1.766452,355.82,16.14,4,324.86,18 / 20,1482014,2019-11-06 13:07:03:722,3.205,0.4152,9.0176,0.0737,0.0789,9.806,-0.1948,0.387,-0.2299,10.19,-41.87,-17.19,51.89,-87.26,77.73
53.08768,-1.766452,355.82,16.14,4,324.86,18 / 20,1482114,2019-11-06 13:07:03:822,-3.9254,-1.3706,11.077,0.0854,0.0443,9.8062,0.0911,0.6382,-0.2232,10.56,-41.19,-16.69,47.38,-87.79,76.96
53.08768,-1.766452,355.82,16.14,4,324.86,18 / 20,1482214,2019-11-06 13:07:03:922,0.8161,-1.1865,9.8272,0.0103,-0.0009,9.8066,0.2373,-0.3195,0.0711,10.63,-41.69,-16.62,54.26,-87.91,83.62
53.08768,-1.766452,355.82,16.14,4,324.86,18 / 20,1482314,2019-11-06 13:07:04:022,0.1461,-2.8299,9.985,-0.0154,0.0461,9.8065,-0.0071,0.0259,0.0594,11.13,-41.44,-16.25,67.25,-87.79,97.44
53.08768,-1.766452,355.82,16.14,4,324.86,18 / 20,1482414,2019-11-06 13:07:04:122,-1.4928,-0.4574,11.1092,-0.1233,-0.037,9.8058,0.067,-0.5298,0.3358,11.38,-41.69,-16.75,73.69,-87.73,102.06
53.08768,-1.766452,355.82,16.14,4,324.86,18 / 19,1482514,2019-11-06 13:07:04:222,5.839,2.0521,8.9333,-0.0487,0.0105,9.8065,-0.1173,-0.3275,0.2407,10.88,-41.5,-16.75,77.82,-86.92,104.59
53.08768,-1.766452,355.82,16.14,4,324.86,18 / 19,1482614,2019-11-06 13:07:04:322,1.715,0.8847,8.9155,-0.0917,-0.0776,9.8058,-0.0065,-0.5566,0.4254,11.5,-41.31,-17.12,70.05,-87.13,99.92
53.08768,-1.766452,355.82,16.14,4,324.86,18 / 19,1482714,2019-11-06 13:07:04:422,3.9186,2.8139,11.1848,0.0014,-0.0105,9.8066,0.1688,-0.5069,0.2203,10.56,-40.94,-16.75,69.89,-86.79,96.64
53.08768,-1.766452,355.82,16.14,4,324.86,18 / 19,1482814,2019-11-06 13:07:04:522,-0.8441,-0.8971,10.5775,-0.036,-0.0154,9.8066,0.1191,-0.2336,0.0122,10.94,-41.37,-16.62,74.45,-86.76,100.99
53.08768,-1.766452,355.82,16.14,4,324.86,18 / 19,1482914,2019-11-06 13:07:04:622,1.8978,0.1733,7.9062,-0.0922,-0.0219,9.8062,-0.2085,-0.4725,0.3797,11.13,-42,-16.94,75.14,-86.49,100.95
53.08768,-1.766452,355.82,16.14,4,324.86,18 / 19,1483014,2019-11-06 13:07:04:722,-2.1303,-1.3413,11.0438,-0.0954,-0.0375,9.806,-0.0265,-0.3877,0.3437,10.5,-41.94,-17.19,72.02,-86.75,98.46
53.08768,-1.766452,355.82,16.14,4,324.86,18 / 19,1483114,2019-11-06 13:07:04:822,4.6916,0.8407,9.1097,-0.0327,-0.017,9.8066,0.1813,-0.4372,0.1167,11.63,-41.31,-15.62,64.92,-86.34,94.92
53.08768,-1.766452,355.82,16.14,4,324.86,18 / 19,1483214,2019-11-06 13:07:04:922,1.9449,0.0412,7.7248,-0.0585,-0.0613,9.8062,0.1344,-0.5735,0.3316,11.38,-40.81,-16.5,72.07,-86.44,99.38
53.08768,-1.766452,355.82,16.14,4,324.86,18 / 19,1483314,2019-11-06 13:07:05:022,4.846,2.3384,10.9202,-0.001,-0.0127,9.8066,0.1471,-0.5208,0.2792,11.31,-41.06,-17,74.96,-86.29,100.56
53.08768,-1.766452,355.82,16.14,4,324.86,18 / 19,1483415,2019-11-06 13:07:05:123,-4.2204,-1.4337,10.3819,-0.1021,-0.0127,9.8061,0.0727,-0.4186,0.1937,11.19,-41.12,-17.06,78.48,-85.93,103.24
53.08768,-1.766452,355.82,16.14,4,324.86,19 / 19,1483515,2019-11-06 13:07:05:223,5.69,2.4653,10.0591,-0.1289,-0.0113,9.8058,0.1121,-0.8365,0.4885,10.75,-41.19,-17.25,83.4,-85.6,107.37
53.08768,-1.766452,355.82,16.14,4,324.86,19 / 19,1483615,2019-11-06 13:07:05:323,-4.4496,-1.579,10.7036,-0.0384,0.0185,9.8065,-0.0252,0.1395,-0.0366,12.13,-41.56,-16.94,85.21,-85.63,111.56
53.08768,-1.766452,355.82,16.14,4,324.86,19 / 19,1483714,2019-11-06 13:07:05:422,0.4946,1.1124,11.2446,-0.0616,0.0028,9.8064,0.1732,-0.5408,0.2639,11.5,-41.12,-16.19,89.14,-85.39,116.49
53.08768,-1.766452,355.82,16.14,4,324.86,19 / 19,1483815,2019-11-06 13:07:05:523,-1.4464,0.1083,11.3065,0.0625,0.0694,9.8062,0.0352,0.4698,-0.1299,11.19,-41.37,-16.12,98.8,-85.23,123.3
53.08768,-1.766452,355.82,16.14,4,324.86,19 / 19,1483915,2019-11-06 13:07:05:623,-4.369,0.1357,7.6909,0.0566,-0.047,9.8064,-0.1312,0.3855,-0.2284,11.13,-41.06,-16.94,100.89,-85.99,125.81
53.08768,-1.766452,355.82,16.14,4,324.86,19 / 19,1484015,2019-11-06 13:07:05:723,6.328,1.1306,10.2123,0.1084,0.0421,9.8059,-0.0276,-0.0285,0.0283,9.63,-41.31,-16.94,103.72,-86.96,128.06
53.08768,-1.766452,355.82,16.14,4,324.86,19 / 19,1484115,2019-11-06 13:07:05:823,-4.4665,-2.9569,10.7924,0.0409,0.0512,9.8064,0.0178,0.3633,-0.1803,10.19,-41.37,-17.19,106.99,-87.04,131.58
53.08768,-1.766452,355.82,16.14,4,324.86,19 / 19,1484215,2019-11-06 13:07:05:923,0.4628,0.2153,10.123,-0.087,-0.0254,9.8062,0.0353,-0.7269,0.4174,9.81,-41.75,-16.87,113,-86.79,137.19
53.08768,-1.766452,355.82,16.14,4,324.86,19 / 19,1484315,2019-11-06 13:07:06:023,5.4195,3.8171,9.8226,0.0013,0.0047,9.8066,0.0613,-0.2899,0.0742,9.06,-41.87,-16.37,114.01,-86.38,135.81
53.08768,-1.766452,355.82,16.14,4,324.86,19 / 19,1484415,2019-11-06 13:07:06:123,1.3493,-1.04,10.4786,-0.0837,-0.0297,9.8061,-0.0708,-0.4643,0.037,9.81,-40.94,-16.5,107.98,-86.47,132.69
53.08768,-1.766452,355.82,16.14,4,324.86,18 / 20,1484515,2019-11-06 13:07:06:223,6.7955,-0.2449,9.0045,-0.099,-0.0449,9.806,0.0955,-0.8549,0.469,9.94,-41.75,-17.06,104.64,-85.87,126.58
53.08768,-1.766452,355.82,16.14,4,324.86,18 / 20,1484615,2019-11-06 13:07:06:323,-5.0772,-2.9201,11.1138,-0.0356,0.0037,9.8065,-0.0382,0.2768,-0.3029,10.5,-41.44,-16.5,98.56,-85.64,123.94
53.08768,-1.766452,355.82,16.14,4,324.86,18 / 20,1484714,2019-11-06 13:07:06:422,-2.3048,-3.9424,10.471,-0.1349,-0.0278,9.8056,-0.0064,-0.1182,0.1578,10.94,-41.25,-16.94,98.19,-84.97,120.97
53.08768,-1.766452,355.82,16.14,4,324.86,18 / 20,1484815,2019-11-06 13:07:06:523,-9.723,-7.2116,12.8821,0.0964,0.0936,9.8057,-0.0062,1.8276,-1.0455,11.56,-41.37,-16.25,90.85,-84.94,117.26
53.08768,-1.766452,355.82,16.14,4,324.86,18 / 20,1484914,2019-11-06 13:07:06:622,-9.615,-4.158,8.3798,0.1231,0.1047,9.8053,-0.437,1.2591,-0.6454,11.5,-40.81,-16.19,100.26,-85.3,127.61
53.08768,-1.766452,355.82,16.14,4,324.86,18 / 20,1485014,2019-11-06 13:07:06:722,11.0905,1.1124,8.8523,0.1614,0.0292,9.8052,0.0016,0.1758,0.3457,10.13,-41.5,-16.62,107.71,-86.19,130.63
53.08768,-1.766452,355.82,16.14,4,324.86,18 / 20,1485114,2019-11-06 13:07:06:822,-10.568,-7.6459,8.5239,0.226,0.1139,9.8033,-0.1921,1.2396,-0.6781,10.75,-41.44,-16.87,109.19,-86.59,135.59
53.08768,-1.766452,355.82,16.14,4,324.86,18 / 20,1485215,2019-11-06 13:07:06:923,7.5595,4.7249,10.4956,-0.0963,-0.0452,9.806,0.1744,-1.0374,0.4222,9.75,-41.31,-16.19,105.42,-86.55,130.2
53.08768,-1.766452,355.82,16.14,4,324.86,18 / 20,1485315,2019-11-06 13:07:07:023,0.7211,0.7214,9.1315,-0.0197,0.0367,9.8066,-0.0764,-0.0799,0.1578,10.94,-41.06,-16.25,101.15,-85.84,127.02
53.08768,-1.766452,355.82,16.14,4,324.86,18 / 20,1485415,2019-11-06 13:07:07:123,-5.1373,0.8854,9.9809,-0.0764,0.0077,9.8063,0.1227,-0.4329,0.246,10.25,-41.31,-16.69,107.5,-85.9,129.84
53.08768,-1.766452,355.82,16.14,4,324.86,19 / 19,1485514,2019-11-06 13:07:07:222,-2.3371,-2.2073,10.5764,0.071,0.0073,9.8063,0.0567,0.1903,-0.0138,10.63,-41.62,-15.62,107.78,-85.77,133.57
53.08768,-1.766452,355.82,16.14,4,324.86,19 / 19,1485614,2019-11-06 13:07:07:322,2.7014,0.6986,10.1946,-0.0004,-0.0077,9.8066,-0.0025,-0.3128,0.19,9.5,-42.44,-16.06,111.27,-85.99,134.96
53.08768,-1.766452,355.82,16.14,4,324.86,19 / 19,1485716,2019-11-06 13:07:07:424,1.6086,1.3761,9.7086,0.0249,0.0171,9.8065,0.025,0.0904,-0.0443,9.69,-41.62,-15.56,112.8,-86.08,136.77
53.08768,-1.766452,355.82,16.14,4,324.86,19 / 19,1485815,2019-11-06 13:07:07:523,3.1017,0.8846,10.2229,-0.026,-0.0291,9.8065,0.0127,-0.1728,0.126,10.31,-41.69,-15.81,113.11,-86,136.94
53.08768,-1.766452,355.82,16.14,4,324.86,19 / 19,1485914,2019-11-06 13:07:07:622,0.7444,-0.6481,9.7203,-0.0081,0.0216,9.8066,-0.0528,-0.0202,-0.0872,10.13,-41.75,-15.56,110.81,-85.78,134.05
53.08768,-1.766452,355.82,16.14,4,324.86,19 / 19,1486015,2019-11-06 13:07:07:723,0.0303,-2.0029,10.295,-0.0356,0.0007,9.8065,-0.0236,-0.0454,0.1611,10.25,-42,-15.69,109.43,-85.65,132.31
53.08768,-1.766452,355.82,16.14,4,324.86,19 / 19,1486114,2019-11-06 13:07:07:822,-0.9137,-1.2924,10.5376,0.0335,0.0026,9.8065,-0.0222,0.1544,-0.2088,10.13,-42.12,-15.5,107.84,-85.66,131.89
53.08768,-1.766452,355.82,16.14,4,324.86,19 / 19,1486214,2019-11-06 13:07:07:922,2.5714,-0.898,9.7911,0.0172,-0.0121,9.8065,0.0634,-0.0538,0.0677,10.44,-41.62,-16.19,105.85,-85.77,128.78
53.08768,-1.766452,355.82,16.14,4,324.86,19 / 19,1486315,2019-11-06 13:07:08:023,0.2997,-1.2345,9.6049,0.0212,0.0364,9.8065,-0.0599,0.1287,-0.1565,10.81,-42.19,-15.81,105.67,-85.77,131.36
53.08768,-1.766452,355.82,16.14,4,324.86,19 / 19,1486414,2019-11-06 13:07:08:122,1.0894,-2.5182,9.2922,-0.0227,0.0211,9.8065,-0.109,-0.045,0.1039,10.19,-42.25,-16.12,102.9,-85.86,125.91
53.08768,-1.766452,355.82,16.14,4,324.86,19 / 20,1486514,2019-11-06 13:07:08:222,-0.8921,-1.4584,9.8437,0.0233,-0.0184,9.8066,0.0527,0.0871,-0.0809,10.31,-41.81,-15.25,102.37,-86.01,126.96
53.08768,-1.766452,355.82,16.14,4,324.86,19 / 20,1486614,2019-11-06 13:07:08:322,0.5173,-0.395,9.95,0.0293,0.0108,9.8065,-0.0935,-0.1005,-0.0029,10.31,-41.87,-15.5,103.41,-85.92,127.83
53.08768,-1.766452,355.82,16.14,4,324.86,19 / 20,1486714,2019-11-06 13:07:08:422,-0.0643,-1.1751,10.4331,0.0208,0.0007,9.8066,0.1051,-0.0071,0.0935,9.75,-42,-15.5,105.5,-86.29,130.86
53.08768,-1.766452,355.82,16.14,4,324.86,19 / 20,1486814,2019-11-06 13:07:08:522,1.2894,-0.4291,10.2451,-0.0055,0.0085,9.8066,-0.0037,-0.0986,-0.0342,9.69,-42,-16,109.56,-86.37,133.97
53.08768,-1.766452,355.82,16.14,4,324.86,19 / 20,1486914,2019-11-06 13:07:08:622,0.9572,1.0623,10.5459,-0.0097,-0.0015,9.8066,0.1023,-0.1924,0.1508,8.81,-43,-14.87,111.19,-86.31,133.7
53.08768,-1.766452,355.82,16.14,4,324.86,19 / 20,1487014,2019-11-06 13:07:08:722,-3.3774,0.9538,9.4709,0.0332,-0.0159,9.8065,0.0676,0.2346,-0.2051,9.5,-41.75,-15.37,110.81,-86.39,136.64
53.08768,-1.766452,355.82,16.14,4,324.86,19 / 20,1487114,2019-11-06 13:07:08:822,1.0798,0.1125,10.5622,-0.0097,-0.0024,9.8066,0.0248,-0.0283,0.0985,9.25,-42.31,-15.37,112.63,-86.49,135.82
53.08768,-1.766452,355.82,16.14,4,324.86,19 / 20,1487214,2019-11-06 13:07:08:922,2.6532,2.1163,9.0502,0.0467,0.0105,9.8065,0.0521,0.3161,-0.1652,9.31,-42.25,-15.25,115.53,-86.57,139.08
53.08768,-1.766452,355.82,16.14,4,324.86,19 / 20,1487315,2019-11-06 13:07:09:023,3.2027,1.781,9.4739,0.0088,0.0248,9.8066,-0.0874,0.0168,0.0115,9.44,-41.87,-15.12,119.43,-86.68,143.47
53.08768,-1.766452,355.82,16.14,4,324.86,19 / 20,1487415,2019-11-06 13:07:09:123,2.3437,-0.9338,10.3542,0.0282,0.0337,9.8065,-0.0269,0.3871,-0.0438,9.31,-42.19,-15.19,124.73,-86.89,149.59
53.08768,-1.766452,355.82,16.14,4,324.86,20 / 20,1487515,2019-11-06 13:07:09:223,-3.949,-1.9877,8.7346,0.0168,0.0088,9.8066,-0.0596,0.2875,-0.206,9.44,-42.06,-15.25,125.03,-86.91,149.94
53.08768,-1.766452,355.82,16.14,4,324.86,20 / 20,1487614,2019-11-06 13:07:09:322,3.0441,-1.4502,10.4632,0.0518,0.1009,9.806,-0.1893,0.511,-0.1112,8.94,-42.56,-14.19,123.91,-86.94,150.1
53.08768,-1.766452,355.82,16.14,4,324.86,20 / 20,1487714,2019-11-06 13:07:09:422,-3.9355,-3.5816,10.2133,0.0519,0.0647,9.8062,0.0435,0.605,-0.3149,9,-42.75,-15.19,138.38,-86.88,164.28
53.08768,-1.766452,355.82,16.14,4,324.86,20 / 20,1487814,2019-11-06 13:07:09:522,-2.915,-2.7396,9.9103,-0.0147,0.035,9.8066,-0.1212,0.3406,-0.0654,9.5,-42.62,-15.31,135.89,-86.71,164.16
53.08768,-1.766452,355.82,16.14,4,324.86,20 / 20,1487914,2019-11-06 13:07:09:622,-2.1284,-2.3997,9.3703,0.052,0.0467,9.8064,-0.0787,0.5198,-0.2475,8.94,-42.12,-14.87,146.93,-86.5,173.36
53.08768,-1.766452,355.82,16.14,4,324.86,20 / 20,1488015,2019-11-06 13:07:09:723,0.0931,0.1206,10.3202,-0.006,-0.0027,9.8066,-0.0474,-0.1414,0.1106,8.81,-42.94,-15.62,145.14,-86.54,169.91
53.08768,-1.766452,355.82,16.14,4,324.86,20 / 20,1488116,2019-11-06 13:07:09:824,-2.3009,-1.8212,9.3526,0.0273,0.0136,9.8065,-0.0409,0.2903,-0.1215,9.06,-42.56,-15.19,143.34,-86.69,169.49
53.08768,-1.766452,355.82,16.14,4,324.86,20 / 20,1488214,2019-11-06 13:07:09:922,1.9337,-0.1443,10.6304,-0.0454,0.006,9.8065,0.0176,-0.4002,0.1374,8.63,-43,-14.94,140.02,-86.27,165.13
53.08768,-1.766452,355.82,16.14,4,324.86,20 / 20,1488314,2019-11-06 13:07:10:022,4.3456,0.0086,10.7011,-0.0157,0.0102,9.8066,0.0442,-0.2403,0.0786,9.19,-42.5,-15.12,139.42,-86.17,164.46
53.08768,-1.766452,355.82,16.14,4,324.86,20 / 20,1488414,2019-11-06 13:07:10:122,1.6294,-0.9678,9.0723,-0.0423,-0.0191,9.8065,0.0178,-0.1766,0.2114,8.69,-42.37,-15.25,139.84,-86.1,164.81
53.08768,-1.766452,355.82,16.14,4,324.86,21 / 22,1488514,2019-11-06 13:07:10:222,2.3132,-0.2232,10.1752,0.0126,-0.0266,9.8065,-0.0381,-0.1616,0.0343,8.88,-42.62,-15.44,138.88,-86.14,163.66
53.08768,-1.766452,355.82,16.14,4,324.86,21 / 22,1488614,2019-11-06 13:07:10:322,0.2801,-0.7267,9.3132,0.0081,-0.0233,9.8066,0.0236,-0.2514,0.0336,8.88,-42.87,-15.37,137.52,-86.2,162.22
53.08768,-1.766452,355.82,16.14,4,324.86,21 / 22,1488714,2019-11-06 13:07:10:422,-0.5624,-2.1906,8.7626,-0.0054,-0.0008,9.8066,-0.073,-0.0354,-0.0092,8.75,-42.69,-15.56,137.46,-86.33,161.05
53.08768,-1.766452,355.82,16.14,4,324.86,21 / 22,1488814,2019-11-06 13:07:10:522,-0.501,-2.1774,10.4811,-0.0357,-0.0316,9.8065,0.0772,-0.4568,0.2294,8.5,-42.56,-16,133.12,-86.5,156.53
53.08768,-1.766452,355.82,16.14,4,324.86,21 / 22,1488914,2019-11-06 13:07:10:622,4.0521,2.4285,10.3312,-0.0281,0.0092,9.8065,0.0295,-0.3815,0.2217,8.38,-42.5,-15.25,138.08,-86.43,160.3
53.08768,-1.766452,355.82,16.14,4,324.86,21 / 22,1489014,2019-11-06 13:07:10:722,-0.2255,1.5859,9.1144,-0.0419,0.0068,9.8065,0.0263,-0.4733,0.1238,9,-42.69,-15.25,138.81,-86.39,163.99
53.08768,-1.766452,355.82,16.14,4,324.86,21 / 22,1489114,2019-11-06 13:07:10:822,4.2291,2.081,11.1839,-0.0316,-0.0458,9.8064,0.0834,-0.4665,0.3576,8.75,-42.75,-14.75,137.43,-86.22,162.15
53.08768,-1.766452,355.82,16.14,4,324.86,21 / 22,1489214,2019-11-06 13:07:10:922,-2.3056,-2.4229,9.4065,-0.0296,-0.0436,9.8064,0.0543,-0.1894,-0.0674,8.69,-42.81,-15.56,140.92,-86.36,164.95
53.08768,-1.766452,355.82,16.14,4,324.86,21 / 22,1489314,2019-11-06 13:07:11:022,4.7931,1.0873,9.5436,-0.0818,-0.0446,9.8061,0.1144,-0.4887,0.3652,9.13,-42.06,-15.5,131,-86.33,155.34
53.08768,-1.766452,355.82,16.14,4,324.86,21 / 22,1489414,2019-11-06 13:07:11:122,-1.0152,-2.3609,9.9386,0.0034,0.0146,9.8066,0.0504,0.3067,-0.2539,9.06,-42.12,-15.5,134.25,-86.15,158.64
53.088886,-1.767818,348.08,17.49,6,327.2,18 / 20,1489514,2019-11-06 13:07:11:222,-1.0677,-2.968,9.0983,-0.0268,0.0017,9.8066,0.0011,-0.1599,0.1647,9.06,-42.75,-15.81,135.98,-86.12,159.06
53.088886,-1.767818,348.08,17.49,6,327.2,18 / 20,1489615,2019-11-06 13:07:11:323,0.4142,-5.9843,9.984,0.0303,0.0211,9.8066,-0.075,0.3539,-0.07,9,-42.81,-16.06,137.04,-86.03,160.11
53.088886,-1.767818,348.08,17.49,6,327.2,18 / 20,1489715,2019-11-06 13:07:11:423,0.9157,-3.314,10.4833,-0.0518,-0.0058,9.8064,0.0548,0.0706,-0.1157,9,-42.81,-15.62,138.6,-86.24,162.19
53.088886,-1.767818,348.08,17.49,6,327.2,18 / 20,1489814,2019-11-06 13:07:11:522,0.3378,1.7391,8.91,-0.0031,0.02,9.8065,0.093,0.2811,-0.062,8.31,-42.44,-15.19,141.3,-85.94,163.15
53.088886,-1.767818,348.08,17.49,6,327.2,18 / 20,1489914,2019-11-06 13:07:11:622,-0.6953,0.7004,9.6806,-0.017,-0.0058,9.8066,-0.0575,0.1449,-0.0943,8.69,-42.5,-15.62,141.24,-85.86,164.72
53.088886,-1.767818,348.08,17.49,6,327.2,18 / 20,1490015,2019-11-06 13:07:11:723,0.3765,-0.8105,9.9523,0.0155,-0.0017,9.8066,-0.042,0.0023,0.1133,8.5,-42.5,-15.31,141.23,-85.71,165.8
53.088886,-1.767818,348.08,17.49,6,327.2,18 / 20,1490115,2019-11-06 13:07:11:823,2.0943,-2.9673,10.0957,0.0163,-0.0154,9.8066,-0.128,0.0085,-0.0616,8.44,-42.25,-15.62,144.37,-86.17,165.75
53.088886,-1.767818,348.08,17.49,6,327.2,18 / 20,1490215,2019-11-06 13:07:11:923,1.7141,-2.0896,9.4295,0.0242,-0.0226,9.8066,0.0225,-0.2507,0.1142,8.94,-42.5,-16,142.31,-86.55,166.89
53.088886,-1.767818,348.08,17.49,6,327.2,18 / 20,1490315,2019-11-06 13:07:12:023,2.288,-0.3841,9.8855,0.0442,0.0074,9.8065,0.0272,-0.221,0.0437,8.81,-42.56,-15.12,136.84,-86.65,162.21
53.088886,-1.767818,348.08,17.49,6,327.2,18 / 20,1490415,2019-11-06 13:07:12:123,0.0506,-1.1449,9.8114,0.0015,0.0071,9.8066,-0.0697,-0.1112,-0.0617,9.06,-43.12,-15.12,138.41,-86.82,164.22
53.088886,-1.767818,348.08,17.49,6,327.2,18 / 19,1490515,2019-11-06 13:07:12:223,-1.9013,0.5851,8.9886,0.0323,-0.0336,9.8064,-0.0266,0.1428,-0.0286,9,-42.56,-15.25,134.84,-86.91,160.45
53.088886,-1.767818,348.08,17.49,6,327.2,18 / 19,1490615,2019-11-06 13:07:12:323,0.5492,-2.9853,9.2586,0.0023,-0.001,9.8066,-0.1166,0.0853,-0.057,9.5,-42.31,-15,129.59,-87.55,158.9
53.088886,-1.767818,348.08,17.49,6,327.2,18 / 19,1490714,2019-11-06 13:07:12:422,1.3736,0.3271,11.1057,-0.0132,-0.0329,9.8066,0.1759,-0.1942,0.0653,9.19,-42.19,-14.69,128.12,-87.6,154.56
53.088886,-1.767818,348.08,17.49,6,327.2,18 / 19,1490814,2019-11-06 13:07:12:522,0.1431,-0.7889,9.7702,0.004,0.0021,9.8066,0.1521,0.0434,-0.1123,9.44,-42.62,-15.87,131.11,-87.35,155.82
53.088886,-1.767818,348.08,17.49,6,327.2,18 / 19,1490914,2019-11-06 13:07:12:622,3.231,2.9459,10.3004,-0.0327,0.0073,9.8066,-0.0088,-0.2612,0.1444,9.13,-42.81,-15.31,131.04,-86.99,156.46
53.088886,-1.767818,348.08,17.49,6,327.2,18 / 19,1491014,2019-11-06 13:07:12:722,0.5877,-0.2295,10.7316,0.0074,0.0551,9.8064,-0.1562,0.5601,-0.1262,9.5,-42.94,-15.06,134.04,-86.95,162.54
53.088886,-1.767818,348.08,17.49,6,327.2,18 / 19,1491114,2019-11-06 13:07:12:822,-1.8759,-1.9555,8.4275,0.0193,0.0313,9.8065,-0.0375,0.3447,-0.1798,8.81,-42.69,-15.5,142.43,-86.9,168.79
53.088886,-1.767818,348.08,17.49,6,327.2,18 / 19,1491214,2019-11-06 13:07:12:922,4.568,0.3503,10.4095,0.0114,-0.0023,9.8066,-0.0034,-0.1234,0.0641,9.13,-42.12,-15.87,143.34,-86.84,168.42
53.088886,-1.767818,348.08,17.49,6,327.2,18 / 19,1491314,2019-11-06 13:07:13:022,-1.5134,-0.1336,8.9563,0.0229,0.0258,9.8065,-0.1396,0.2132,-0.2126,8.94,-42.44,-15.87,142.27,-86.88,167.31
53.088886,-1.767818,348.08,17.49,6,327.2,18 / 19,1491415,2019-11-06 13:07:13:123,-4.0574,1.7797,8.8983,-0.0587,0.0045,9.8064,0.2234,-0.2857,0.2256,9.25,-42.62,-14.94,137.38,-86.93,163.27
53.088886,-1.767818,348.08,17.49,6,327.2,18 / 18,1491515,2019-11-06 13:07:13:223,-1.5143,-0.1866,9.3317,-0.0061,0.0673,9.8064,-0.017,-0.1655,-0.0352,9.19,-42.06,-15.25,139.62,-86.06,164.5
53.088886,-1.767818,348.08,17.49,6,327.2,18 / 18,1491615,2019-11-06 13:07:13:323,-2.2541,-4.8093,10.5699,-0.0509,-0.0147,9.8064,0.043,-0.2647,0.2005,9.5,-41.87,-14.62,138.18,-85.96,165.65
53.088886,-1.767818,348.08,17.49,6,327.2,18 / 18,1491715,2019-11-06 13:07:13:423,2.2916,2.0602,9.1962,-0.0541,0.0106,9.8064,0.0261,-0.3984,0.2291,9.19,-41.94,-15.06,141.39,-85.66,165.92
53.088886,-1.767818,348.08,17.49,6,327.2,18 / 18,1491815,2019-11-06 13:07:13:523,-3.1851,-1.1051,9.3153,-0.0101,0.015,9.8066,0.0921,0.0584,-0.1513,8.81,-41.94,-14.56,142.33,-85.41,166.63
53.088886,-1.767818,348.08,17.49,6,327.2,18 / 18,1491914,2019-11-06 13:07:13:622,2.977,1.1219,9.1983,-0.0502,-0.0433,9.8064,-0.0344,-0.3108,0.2524,8.94,-42.37,-15.19,140.25,-85.29,164.06
53.088886,-1.767818,348.08,17.49,6,327.2,18 / 18,1492015,2019-11-06 13:07:13:723,3.0528,-0.5441,10.6347,0.0282,0.014,9.8065,-0.146,0.4126,-0.2416,8.75,-42.62,-15.62,141.56,-85.53,164.48
53.088886,-1.767818,348.08,17.49,6,327.2,18 / 18,1492115,2019-11-06 13:07:13:823,5.3941,0.1808,9.6297,-0.0211,-0.0287,9.8065,0.0311,-0.1242,0.1137,8.81,-42.75,-14.81,140.48,-85.8,164.94
53.088886,-1.767818,348.08,17.49,6,327.2,18 / 18,1492215,2019-11-06 13:07:13:923,0.731,-0.5234,10.0426,0.0419,0.0562,9.8063,-0.0712,0.3396,-0.3045,9.25,-42.06,-15.31,141.28,-85.81,166.01
53.088886,-1.767818,348.08,17.49,6,327.2,18 / 18,1492315,2019-11-06 13:07:14:023,-1.2248,-2.5724,10.0519,-0.0045,-0.0161,9.8066,0.019,0.0668,-0.0222,8.75,-42.5,-15.25,143.63,-85.76,168.62
53.088886,-1.767818,348.08,17.49,6,327.2,18 / 18,1492414,2019-11-06 13:07:14:122,-0.2961,-2.146,9.4858,0.0513,0.0246,9.8065,-0.034,0.3891,-0.2108,9.44,-42.94,-14.87,146.72,-86.01,172.36
53.088886,-1.767818,348.08,17.49,6,327.2,21 / 21,1492514,2019-11-06 13:07:14:222,-2.2738,0.7693,9.8367,0.0309,-0.0177,9.8066,-0.0575,0.2172,-0.0704,8.88,-41.87,-14.31,143.92,-86.17,171.02
53.088886,-1.767818,348.08,17.49,6,327.2,21 / 21,1492614,2019-11-06 13:07:14:322,3.0118,-0.05,9.673,0.0395,0.0081,9.8066,-0.0562,0.3232,-0.165,9.06,-42.06,-15.31,144.95,-86.57,171.23
53.088886,-1.767818,348.08,17.49,6,327.2,21 / 21,1492714,2019-11-06 13:07:14:422,2.4215,-0.6697,9.8658,0.0036,0.0046,9.8066,0.002,0.1107,-0.069,8.56,-42.25,-14.94,146.66,-86.72,173.33
53.088886,-1.767818,348.08,17.49,6,327.2,21 / 21,1492814,2019-11-06 13:07:14:522,1.4949,1.7205,10.3426,0.0324,0.0108,9.8065,-0.0031,0.1852,-0.0996,8.94,-42.06,-14.94,145.8,-86.7,172.36
53.088886,-1.767818,348.08,17.49,6,327.2,21 / 21,1492914,2019-11-06 13:07:14:622,-0.8779,0.2219,8.8745,0.0409,0.0111,9.8065,-0.1325,0.3297,-0.1539,8.19,-42.31,-15.06,153,-86.94,177.67
53.088886,-1.767818,348.08,17.49,6,327.2,21 / 21,1493014,2019-11-06 13:07:14:722,2.2688,2.3714,9.4965,0.014,0.0161,9.8065,0.0606,-0.1507,0.0894,8.44,-42.94,-15.06,154.46,-87.09,179.38
53.088886,-1.767818,348.08,17.49,6,327.2,21 / 21,1493114,2019-11-06 13:07:14:822,-0.1474,-1.2473,10.343,0.0316,0.0427,9.8065,0.1712,-0.0039,-0.0327,8.69,-43,-15,155.25,-86.87,-176.98
53.088886,-1.767818,348.08,17.49,6,327.2,21 / 21,1493214,2019-11-06 13:07:14:922,0.0941,1.3968,9.9309,0.0426,-0.0277,9.8065,0.03,-0.0526,-0.0931,8.88,-42.81,-15.25,156.83,-86.83,-175.25
53.088886,-1.767818,348.08,17.49,6,327.2,21 / 21,1493315,2019-11-06 13:07:15:023,1.396,-0.1953,10.3596,-0.0157,0.019,9.8065,-0.089,-0.1666,0.1844,8.06,-42.56,-15.19,160.97,-87.08,-173.34
53.088886,-1.767818,348.08,17.49,6,327.2,21 / 21,1493415,2019-11-06 13:07:15:123,-0.408,0.8292,10.0233,-0.0176,0.0305,9.8065,-0.0147,0.1297,-0.0805,8.31,-42.94,-14.87,163.74,-86.88,-170.37
53.088886,-1.767818,348.08,17.49,6,327.2,21 / 21,1493514,2019-11-06 13:07:15:222,-1.8151,1.336,10.6344,0.0143,-0.0086,9.8066,-0.004,0.0837,-0.0208,8.44,-43.12,-15,162.97,-87.06,-171.12
53.088886,-1.767818,348.08,17.49,6,327.2,21 / 21,1493614,2019-11-06 13:07:15:322,1.8392,-1.688,9.8495,-0.0027,-0.0046,9.8066,0.0611,0.0451,-0.0472,8.06,-42.37,-15.06,164.36,-87.22,-169.4
53.088886,-1.767818,348.08,17.49,6,327.2,21 / 21,1493715,2019-11-06 13:07:15:423,-0.5458,-0.8078,9.9092,0.018,0.0197,9.8066,0.0289,0.1524,-0.0242,8.13,-42.75,-15.37,164.5,-87.12,-169.35
53.088886,-1.767818,348.08,17.49,6,327.2,21 / 21,1493815,2019-11-06 13:07:15:523,1.4249,0.5317,9.7018,0.005,0.0079,9.8066,-0.04,-0.1809,0.0806,7.5,-43.37,-14.5,163.86,-86.9,-168.67
53.088886,-1.767818,348.08,17.49,6,327.2,21 / 21,1493915,2019-11-06 13:07:15:623,1.0841,-0.4244,10.2731,0.0261,-0.0144,9.8065,0.0178,0.0326,-0.0241,7.88,-43.12,-15.44,168.48,-86.97,-164.96
53.088886,-1.767818,348.08,17.49,6,327.2,21 / 21,1494015,2019-11-06 13:07:15:723,-0.0333,-0.3676,9.2154,0.016,-0.0055,9.8066,-0.051,0.1067,-0.0953,7.94,-42.69,-15.44,172.03,-87.27,-160.84
53.088886,-1.767818,348.08,17.49,6,327.2,21 / 21,1494115,2019-11-06 13:07:15:823,-0.4499,-0.4911,9.4677,0.0098,0.006,9.8065,-0.0082,0.1215,-0.0368,7.88,-42.62,-15.75,173.28,-87.38,-160.88
53.088886,-1.767818,348.08,17.49,6,327.2,21 / 21,1494215,2019-11-06 13:07:15:923,0.9741,0.0272,10.1817,0.0166,0.0131,9.8066,0.0005,0.0079,-0.0053,7.81,-42.56,-15.94,173.94,-87.45,-160.13
53.088886,-1.767818,348.08,17.49,6,327.2,21 / 21,1494315,2019-11-06 13:07:16:023,-0.2313,1.0973,10.1495,0.0212,0.0136,9.8065,0.0344,0.0041,-0.0519,7.81,-43.56,-15.31,177.54,-87.33,-154.68
53.088886,-1.767818,348.08,17.49,6,327.2,21 / 21,1494415,2019-11-06 13:07:16:123,2.799,-1.3571,10.2082,0.014,0.0311,9.8066,0.027,-0.0266,0.0917,7.19,-42.31,-14.5,178.49,-87.09,-155.15
53.088886,-1.767818,348.08,17.49,6,327.2,21 / 21,1494515,2019-11-06 13:07:16:223,-0.3156,0.4833,9.6167,-0.0062,0.0277,9.8066,-0.0389,0.0386,-0.0625,7.38,-42.5,-15.44,179.46,-86.68,-155.6
53.088886,-1.767818,348.08,17.49,6,327.2,21 / 21,1494615,2019-11-06 13:07:16:323,-1.7026,-1.5358,9.5018,-0.0448,-0.0179,9.8065,0.1124,-0.4121,0.1156,7.31,-43.19,-15.06,173.27,-86.82,-162.67
53.088886,-1.767818,348.08,17.49,6,327.2,21 / 21,1494715,2019-11-06 13:07:16:423,-1.7431,0.9483,8.4271,-0.0217,-0.0221,9.8065,-0.0244,-0.191,0.2542,7.31,-42.37,-15.31,172.78,-86.84,-163.2
53.088886,-1.767818,348.08,17.49,6,327.2,21 / 21,1494816,2019-11-06 13:07:16:524,-1.6219,-0.9453,9.4707,0.006,-0.037,9.8066,-0.0834,-0.2758,0.0996,7.5,-42.75,-15.75,177.89,-86.77,-155.83
53.088886,-1.767818,348.08,17.49,6,327.2,21 / 21,1494915,2019-11-06 13:07:16:623,3.2148,-0.2372,9.428,-0.0009,-0.0136,9.8066,0.0051,-0.3984,0.3198,7.44,-42.44,-15.12,185.86,-87.03,-148.36
53.088886,-1.767818,348.08,17.49,6,327.2,21 / 21,1495015,2019-11-06 13:07:16:723,0.5238,-1.0504,8.7214,-0.0021,0.0105,9.8066,-0.0496,0.1168,-0.0087,7.63,-43,-15.12,190.05,-86.7,-140.44
53.088886,-1.767818,348.08,17.49,6,327.2,21 / 21,1495115,2019-11-06 13:07:16:823,-0.4164,0.7839,11.1244,0.0173,-0.0238,9.8066,0.1061,0.0696,-0.1964,6.56,-42.37,-14.81,192.88,-86.65,-140.23
53.088886,-1.767818,348.08,17.49,6,327.2,21 / 21,1495215,2019-11-06 13:07:16:923,3.1731,0.6163,10.6287,0.0047,0.0357,9.8065,0.0901,0.4119,-0.1778,7.25,-42.62,-15.19,186.09,-86.68,-147.99
53.088886,-1.767818,348.08,17.49,6,327.2,21 / 21,1495315,2019-11-06 13:07:17:023,0.1781,1.1224,10.4504,-0.0137,0.0201,9.8066,0.0902,0.3017,-0.4345,7.63,-43.37,-14.69,174.99,-86.54,-157.7
53.088886,-1.767818,348.08,17.49,6,327.2,21 / 21,1495415,2019-11-06 13:07:17:123,6.9051,-0.727,10.0243,0.0083,0.0541,9.8064,-0.1775,0.5272,-0.0936,6.94,-42.5,-15,170.6,-86.32,-165.89
53.088886,-1.767818,348.08,17.49,6,327.2,21 / 22,1495515,2019-11-06 13:07:17:223,-3.0798,-2.4134,9.7646,0.1007,0.0621,9.8059,-0.1127,0.8732,-0.6817,7.94,-42.37,-15.31,171.98,-86.18,-161.25
53.088886,-1.767818,348.08,17.49,6,327.2,21 / 22,1495615,2019-11-06 13:07:17:323,2.9167,-0.1409,9.231,0.0449,-0.0042,9.8065,0.0473,-0.1203,-0.009,7.94,-42.94,-14.87,166.95,-86.58,-166.9
53.088886,-1.767818,348.08,17.49,6,327.2,21 / 22,1495715,2019-11-06 13:07:17:423,-6.0095,-3.2332,8.2842,0.0645,0.0384,9.8063,-0.0117,0.6232,-0.3576,8,-42.75,-15.31,169.92,-86.7,-163.45
53.088886,-1.767818,348.08,17.49,6,327.2,21 / 22,1495814,2019-11-06 13:07:17:522,3.5733,0.0231,10.5685,-0.0379,-0.0121,9.8065,0.0307,-0.4873,0.2735,8.19,-42.56,-14.62,162.45,-86.8,-171.9
53.088886,-1.767818,348.08,17.49,6,327.2,21 / 22,1495915,2019-11-06 13:07:17:623,2.9924,0.3937,9.8288,0.0352,0.0208,9.8065,-0.05,0.196,-0.083,8.56,-42.31,-15.62,163.72,-86.81,-168.95
53.088886,-1.767818,348.08,17.49,6,327.2,21 / 22,1496015,2019-11-06 13:07:17:723,5.6835,1.9551,10.7393,-0.0672,-0.0315,9.8063,0.1522,-0.6949,0.3721,8.13,-42.69,-14.62,165.8,-86.82,-168.07
53.088886,-1.767818,348.08,17.49,6,327.2,21 / 22,1496115,2019-11-06 13:07:17:823,2.831,0.391,11.3768,-0.0039,0.0135,9.8066,0.1685,-0.3426,-0.0083,8.63,-42.94,-15.12,157.07,-86.49,-175.29
53.088886,-1.767818,348.08,17.49,6,327.2,21 / 22,1496215,2019-11-06 13:07:17:923,-3.971,-6.6048,9.4883,-0.114,-0.0787,9.8056,-0.0446,-0.7009,0.4443,8.31,-42.62,-15.81,158.17,-86.23,-178.59
53.088886,-1.767818,348.08,17.49,6,327.2,21 / 22,1496315,2019-11-06 13:07:18:023,-0.1011,-1.8541,9.3328,-0.0465,-0.0526,9.8064,-0.0084,-0.6873,0.2484,7.19,-43.94,-15.5,148.8,-86.57,169.14
53.088886,-1.767818,348.08,17.49,6,327.2,21 / 22,1496415,2019-11-06 13:07:18:123,-10.2477,-3.6488,8.5205,-0.0431,-0.1192,9.8058,0.2311,-0.8088,0.1795,8,-43.12,-13.94,133.09,-87.3,157.61
53.088886,-1.767818,348.08,17.49,6,327.2,19 / 22,1496515,2019-11-06 13:07:18:223,3.1367,9.448,9.6275,-0.1553,-0.0509,9.8052,0.0272,-1.2124,1.0793,8.19,-42.81,-14.81,139.48,-87.03,162.69
53.088886,-1.767818,348.08,17.49,6,327.2,19 / 22,1496615,2019-11-06 13:07:18:323,-8.356,-7.6373,7.1277,0.0097,-0.0059,9.8066,-0.3418,0.5364,-0.2983,8.88,-42.37,-14.94,151.5,-87.38,179.48
53.088886,-1.767818,348.08,17.49,6,327.2,19 / 22,1496714,2019-11-06 13:07:18:422,4.8104,3.1575,11.4581,-0.0648,-0.1199,9.8057,0.2019,-0.6556,0.4181,7.94,-42.5,-15.56,152.62,-87.93,176.96
53.088886,-1.767818,348.08,17.49,6,327.2,19 / 22,1496814,2019-11-06 13:07:18:522,8.3536,3.3489,11.4632,0.1199,0.0782,9.8055,-0.1838,1.105,-0.6645,8.31,-42.87,-15.56,159.65,-87.97,-175.47
53.088886,-1.767818,348.08,17.49,6,327.2,19 / 22,1496914,2019-11-06 13:07:18:622,3.6951,1.7076,11.071,0.0011,0.0074,9.8066,-0.0781,0.4365,-0.1112,8.19,-43,-14.87,172.67,-87.93,-159.93
53.088886,-1.767818,348.08,17.49,6,327.2,19 / 22,1497015,2019-11-06 13:07:18:723,6.4183,2.8438,11.345,0.0919,0.0824,9.8058,-0.0825,0.5757,-0.2869,7.5,-42.75,-15.12,185.4,-87.48,-145.93
53.088886,-1.767818,348.08,17.49,6,327.2,19 / 22,1497114,2019-11-06 13:07:18:822,-4.2923,-2.1103,9.546,0.0778,0.0363,9.8062,-0.1158,0.7633,-0.4582,7.94,-42.94,-15.5,186.78,-87.69,-144.46
53.088886,-1.767818,348.08,17.49,6,327.2,19 / 22,1497214,2019-11-06 13:07:18:922,-0.168,-1.1245,9.7365,0.0441,0.0323,9.8065,0.0529,0.3183,-0.1234,7.56,-42.37,-14.56,182.81,-87.95,-148.88
53.088886,-1.767818,348.08,17.49,6,327.2,19 / 22,1497314,2019-11-06 13:07:19:022,-3.4296,-1.2339,9.3757,0.0328,0.078,9.8062,-0.1515,0.6891,-0.3467,8,-42.69,-14.75,183.59,-87.69,-147.98
53.088886,-1.767818,348.08,17.49,6,327.2,19 / 22,1497414,2019-11-06 13:07:19:122,4.3626,0.9681,9.7463,-0.0249,0.0102,9.8066,0.0252,-0.1479,0.1992,7.81,-42.5,-15.31,183.14,-87.99,-148.52
53.088886,-1.767818,348.08,17.49,6,327.2,19 / 21,1497514,2019-11-06 13:07:19:222,0.077,1.1675,10.2862,0.0597,0.03,9.8064,0.142,0.0803,-0.2461,7.63,-43.06,-14.87,181.24,-87.77,-150.57
53.088886,-1.767818,348.08,17.49,6,327.2,19 / 21,1497614,2019-11-06 13:07:19:322,2.1787,1.1112,10.4353,-0.0056,-0.0194,9.8066,0.073,-0.1157,0.1254,7.56,-42.94,-15.06,174.91,-87.82,-157.5
53.088886,-1.767818,348.08,17.49,6,327.2,19 / 21,1497714,2019-11-06 13:07:19:422,1.1201,-0.0913,9.8394,-0.0021,0.0095,9.8066,-0.0166,-0.0938,-0.049,7.81,-42.44,-15.37,174.97,-87.69,-157.46
53.088886,-1.767818,348.08,17.49,6,327.2,19 / 21,1497814,2019-11-06 13:07:19:522,0.6788,0.038,9.473,-0.0309,0.0145,9.8066,0.0305,-0.0529,0.0386,7.69,-42.62,-15.25,170.65,-87.55,-162.27
53.088886,-1.767818,348.08,17.49,6,327.2,19 / 21,1497915,2019-11-06 13:07:19:623,1.5915,-1.1996,10.0137,0.0055,-0.0053,9.8066,0.0171,-0.0862,-0.0546,8,-42.62,-15.06,165.99,-87.42,-167.5
53.088886,-1.767818,348.08,17.49,6,327.2,19 / 21,1498015,2019-11-06 13:07:19:723,-1.0425,0.7315,9.749,0.0109,-0.0103,9.8066,-0.111,0.0599,-0.1377,8.31,-42.94,-15.06,164.29,-87.53,-169.32
53.088886,-1.767818,348.08,17.49,6,327.2,19 / 21,1498115,2019-11-06 13:07:19:823,0.8346,-1.1157,9.7875,-0.0112,-0.0312,9.8065,-0.0413,-0.0866,0.0827,8,-42.81,-15.44,163.17,-87.87,-170.3
53.088886,-1.767818,348.08,17.49,6,327.2,19 / 21,1498215,2019-11-06 13:07:19:923,0.522,-0.2087,9.2513,0.0081,0.0005,9.8066,-0.1129,-0.1194,0.0745,7.19,-43.06,-15,172.49,-87.95,-163.18
53.088886,-1.767818,348.08,17.49,6,327.2,19 / 21,1498315,2019-11-06 13:07:20:023,1.9559,-0.2977,10.711,0.0259,0.0017,9.8065,0.0797,-0.1242,0.1344,7.19,-42.62,-15.62,181.77,-88.02,-154.46
53.088886,-1.767818,348.08,17.49,6,327.2,19 / 21,1498415,2019-11-06 13:07:20:123,-0.2821,-0.4353,9.4884,0.0013,-0.0068,9.8066,0.0809,-0.1056,0.0214,7.94,-42.81,-14.87,179.66,-87.78,-152.3
53.090042,-1.769054,340.83,15.58,4,331.03,19 / 20,1498515,2019-11-06 13:07:20:223,0.6115,-0.2543,9.5002,0.0022,-0.0039,9.8066,-0.0024,0.0214,-0.0065,7.56,-42.87,-15.06,181.51,-87.78,-150.27
53.090042,-1.769054,340.83,15.58,4,331.03,19 / 20,1498615,2019-11-06 13:07:20:323,1.3719,-1.0563,9.8634,0.0246,-0.0106,9.8066,-0.0829,0.0271,0.0535,7.56,-42.62,-14.94,187.67,-87.93,-143.56
53.090042,-1.769054,340.83,15.58,4,331.03,19 / 20,1498714,2019-11-06 13:07:20:422,-0.4411,0.0134,9.5384,-0.0243,-0.0002,9.8066,0.006,0.0336,-0.0907,7.75,-43.5,-15.44,188.08,-87.92,-143.11
53.090042,-1.769054,340.83,15.58,4,331.03,19 / 20,1498814,2019-11-06 13:07:20:522,1.2829,1.8017,10.6825,-0.0096,0.0126,9.8066,0.0523,-0.0723,0.0753,7.38,-43,-15.31,187.27,-87.77,-146.99
53.090042,-1.769054,340.83,15.58,4,331.03,19 / 20,1498914,2019-11-06 13:07:20:622,1.4833,-2.4028,9.8999,-0.0051,-0.0022,9.8066,0.061,-0.0419,-0.0707,7.25,-42.56,-15.44,184.88,-88.05,-149.68
53.090042,-1.769054,340.83,15.58,4,331.03,19 / 20,1499014,2019-11-06 13:07:20:722,-0.0944,-1.2137,9.9338,-0.021,-0.0086,9.8066,0.0306,-0.0559,0.0096,7.44,-42.56,-15.56,183.31,-88,-152.78
53.090042,-1.769054,340.83,15.58,4,331.03,19 / 20,1499114,2019-11-06 13:07:20:822,-2.6386,0.5278,10.6138,-0.0004,0.0173,9.8065,0.0831,0.201,-0.2053,7.5,-42.87,-15,175.13,-88.07,-157.21
53.090042,-1.769054,340.83,15.58,4,331.03,19 / 20,1499214,2019-11-06 13:07:20:922,1.9962,-1.3471,9.6588,-0.0262,-0.0205,9.8065,-0.0966,0.0077,0.0962,7.5,-42.69,-15,175.89,-87.93,-156.41
53.090042,-1.769054,340.83,15.58,4,331.03,19 / 20,1499314,2019-11-06 13:07:21:022,2.7171,-0.573,10.5449,0.0014,0.0135,9.8065,-0.1383,0.2496,-0.0869,7.75,-43.19,-14.94,167.88,-87.78,-165.22
53.090042,-1.769054,340.83,15.58,4,331.03,19 / 20,1499414,2019-11-06 13:07:21:122,1.5057,-0.4634,10.1798,-0.0407,-0.0195,9.8065,0.0794,0.1709,-0.1342,7.5,-42.56,-15.12,162.2,-87.84,-171.39
53.090042,-1.769054,340.83,15.58,4,331.03,20 / 20,1499514,2019-11-06 13:07:21:222,4.2508,0.6703,10.1727,-0.0393,-0.0035,9.8066,0.1142,0.2571,-0.1959,7.88,-42.69,-15,161.93,-87.84,-171.67
53.090042,-1.769054,340.83,15.58,4,331.03,20 / 20,1499614,2019-11-06 13:07:21:322,-1.4366,-2.8996,9.9345,-0.0532,-0.0283,9.8064,-0.1129,0.3216,-0.2042,7.69,-42.56,-15.75,167.92,-87.84,-166.59
53.090042,-1.769054,340.83,15.58,4,331.03,20 / 20,1499714,2019-11-06 13:07:21:422,1.8978,0.0915,10.2066,0.0014,-0.0304,9.8066,-0.0847,0.0626,0.0854,7.81,-42.37,-15.31,163.05,-88.08,-170.25
53.090042,-1.769054,340.83,15.58,4,331.03,20 / 20,1499815,2019-11-06 13:07:21:523,-2.0564,-0.2928,9.4036,0.0368,-0.055,9.8064,-0.1623,0.2113,-0.1225,7.63,-42.62,-15.31,162.22,-87.94,-171.29
53.090042,-1.769054,340.83,15.58,4,331.03,20 / 20,1499914,2019-11-06 13:07:21:622,1.0493,-1.7185,9.1674,-0.0462,0.0045,9.8065,0.029,-0.1179,0.1636,7.31,-42.44,-15.25,164.57,-88.2,-171.63
53.090042,-1.769054,340.83,15.58,4,331.03,20 / 20,1500014,2019-11-06 13:07:21:722,-0.0193,-2.1562,8.9251,-0.0284,0.0329,9.8065,0.1066,0.1228,-0.2923,7.69,-42.75,-15.69,162.01,-88.19,-172.76
53.090042,-1.769054,340.83,15.58,4,331.03,20 / 20,1500114,2019-11-06 13:07:21:822,0.4631,1.2047,10.3234,-0.0121,-0.032,9.8066,0.0325,-0.241,0.0601,7,-43.06,-15.5,169.37,-88.44,-166.35
53.090042,-1.769054,340.83,15.58,4,331.03,20 / 20,1500214,2019-11-06 13:07:21:922,3.3395,-0.9114,9.3246,0.0471,-0.0066,9.8064,-0.1806,-0.0034,0.0682,7.88,-42.94,-15.69,163.96,-88.48,-170.48
53.090042,-1.769054,340.83,15.58,4,331.03,20 / 20,1500314,2019-11-06 13:07:22:022,2.4128,-1.0762,9.1354,0.0041,-0.0131,9.8066,-0.0738,-0.2443,0.1705,7.31,-42.19,-16.12,171.14,-88.65,-165.73
53.090042,-1.769054,340.83,15.58,4,331.03,20 / 20,1500415,2019-11-06 13:07:22:123,1.7257,1.1728,10.3048,0.0278,0.0183,9.8065,0.072,-0.2182,0.0619,7.88,-42.06,-15.56,164.96,-88.74,-169.24
53.090042,-1.769054,340.83,15.58,4,331.03,20 / 22,1500515,2019-11-06 13:07:22:223,-1.6804,-1.0581,9.1501,0.0137,0.0227,9.8066,0.1182,-0.2179,0.0571,8.13,-42.62,-15.19,168.27,-88.72,-164.31
53.090042,-1.769054,340.83,15.58,4,331.03,20 / 22,1500615,2019-11-06 13:07:22:323,1.3804,1.1412,9.1799,0.0021,0.0144,9.8066,-0.0339,-0.2341,0.1133,7.31,-43.25,-15.81,168.07,-88.69,-168.96
53.090042,-1.769054,340.83,15.58,4,331.03,20 / 22,1500715,2019-11-06 13:07:22:423,0.6576,-0.3201,10.4471,0.0149,-0.0111,9.8066,-0.0102,0.1071,-0.0484,7.63,-42.69,-15.75,162.5,-88.78,-171.81
53.090042,-1.769054,340.83,15.58,4,331.03,20 / 22,1500815,2019-11-06 13:07:22:523,-0.5423,-0.458,9.4629,-0.0215,-0.0151,9.8066,0.0009,-0.0687,-0.0515,7.81,-42.87,-15.69,159.5,-88.59,-175.11
53.090042,-1.769054,340.83,15.58,4,331.03,20 / 22,1500915,2019-11-06 13:07:22:623,-0.2175,-0.7988,9.3554,0.0133,0.0111,9.8066,-0.0336,0.1281,0.0019,7.13,-42.62,-14.5,157.42,-88.61,-177.47
53.090042,-1.769054,340.83,15.58,4,331.03,20 / 22,1501015,2019-11-06 13:07:22:723,0.0123,-0.711,9.9725,-0.0146,-0.0049,9.8066,0.025,0.0128,-0.1171,7.63,-42.25,-16.06,153.77,-88.62,178.91
53.090042,-1.769054,340.83,15.58,4,331.03,20 / 22,1501114,2019-11-06 13:07:22:822,-0.2055,1.3284,8.4133,-0.019,0.0315,9.8065,0.1285,-0.1207,0.0516,7.5,-42.56,-15.69,154.27,-88.29,179.06
53.090042,-1.769054,340.83,15.58,4,331.03,20 / 22,1501214,2019-11-06 13:07:22:922,-1.4033,-2.6579,8.4559,-0.0239,0.0219,9.8065,0.0384,0.2582,-0.2738,7.25,-42.25,-15.37,152.82,-88.12,175.67
53.090042,-1.769054,340.83,15.58,4,331.03,20 / 22,1501315,2019-11-06 13:07:23:023,0.8481,-0.5336,10.6521,-0.0232,-0.0243,9.8065,0.1474,-0.2642,-0.1865,7.38,-42.87,-15.31,152.48,-88.28,175.45
53.090042,-1.769054,340.83,15.58,4,331.03,20 / 22,1501415,2019-11-06 13:07:23:123,1.6258,0.3793,9.2801,0.0279,0.0044,9.8066,-0.1403,-0.0485,0.2064,7.88,-42.62,-15.5,143.37,-88.17,168.7
53.090042,-1.769054,340.83,15.58,4,331.03,18 / 21,1501514,2019-11-06 13:07:23:222,0.8173,-1.1205,8.5444,-0.01,-0.0313,9.8065,-0.2619,0.0989,-0.0649,8.31,-42.94,-16.19,139.45,-88.17,163.18
53.090042,-1.769054,340.83,15.58,4,331.03,18 / 21,1501614,2019-11-06 13:07:23:322,-0.3892,-0.5826,11.4049,-0.0081,-0.0018,9.8066,0.1802,0.1024,-0.082,7.88,-42.5,-16.12,140.6,-88.16,164.43
53.090042,-1.769054,340.83,15.58,4,331.03,18 / 21,1501714,2019-11-06 13:07:23:422,0.9328,-1.351,8.5335,-0.0313,0.0186,9.8065,0.2085,-0.1584,-0.0243,7.94,-42.69,-15.5,138.75,-88.1,163.67
53.090042,-1.769054,340.83,15.58,4,331.03,18 / 21,1501814,2019-11-06 13:07:23:522,0.8084,-1.0199,9.3161,-0.0039,0.0132,9.8066,-0.0881,0.0175,0.0342,7.13,-42.19,-15.75,149.64,-88.1,170.97
53.090042,-1.769054,340.83,15.58,4,331.03,18 / 21,1501914,2019-11-06 13:07:23:622,0.8467,-0.8191,10.3289,0.0396,-0.0187,9.8065,-0.1005,-0.0932,0.1647,7.06,-42.81,-15.75,156.19,-88.22,178.06
53.090042,-1.769054,340.83,15.58,4,331.03,18 / 21,1502014,2019-11-06 13:07:23:722,0.4278,0.819,9.6461,0.0192,0.0077,9.8065,0.0866,-0.0643,-0.0943,6.94,-43.06,-15.69,153.39,-88.1,174.94
53.090042,-1.769054,340.83,15.58,4,331.03,18 / 21,1502114,2019-11-06 13:07:23:822,0.028,-0.805,9.7686,-0.0078,0.0035,9.8066,0.0616,-0.0169,-0.1503,7.13,-42.12,-15.75,159.51,-88.13,-178.42
53.090042,-1.769054,340.83,15.58,4,331.03,18 / 21,1502214,2019-11-06 13:07:23:922,0.8679,1.3257,9.448,0.0114,0.0121,9.8066,-0.0355,-0.0893,0.1267,6.94,-42.56,-15.62,159.85,-88.29,-177.96
53.090042,-1.769054,340.83,15.58,4,331.03,18 / 21,1502314,2019-11-06 13:07:24:022,-1.4534,0.5641,10.7532,0.0202,-0.0143,9.8066,-0.0531,-0.2668,0.1812,7.81,-42.87,-16,158.4,-88.33,-176.5
53.090042,-1.769054,340.83,15.58,4,331.03,18 / 21,1502414,2019-11-06 13:07:24:122,-2.9689,0.3286,10.2659,0.057,0.0089,9.8064,-0.0251,0.0289,0.0514,7.63,-42.25,-15.81,167,-88.13,-167.41
53.090042,-1.769054,340.83,15.58,4,331.03,20 / 21,1502514,2019-11-06 13:07:24:222,1.9855,-0.7046,9.1262,-0.0205,0.0051,9.8065,0.0128,-0.3222,0.2091,6.63,-42.37,-15.62,165.59,-88.05,-171.94
53.090042,-1.769054,340.83,15.58,4,331.03,20 / 21,1502615,2019-11-06 13:07:24:323,1.8477,1.652,11.0227,0.0022,0.0488,9.8064,0.1274,-0.1764,-0.0245,6.88,-42.37,-15.75,172.97,-88.12,-163.94
53.090042,-1.769054,340.83,15.58,4,331.03,20 / 21,1502715,2019-11-06 13:07:24:423,0.434,1.1759,10.7711,0.0287,0.0133,9.8065,0.1031,-0.133,0.1113,7,-42.25,-15.75,179.94,-87.87,-156.44
53.090042,-1.769054,340.83,15.58,4,331.03,20 / 21,1502814,2019-11-06 13:07:24:522,1.6631,-0.754,9.1715,0.0023,-0.0051,9.8066,-0.1008,-0.1336,-0.0157,5.81,-42.56,-15,182.06,-87.88,-155.94
53.090042,-1.769054,340.83,15.58,4,331.03,20 / 21,1502914,2019-11-06 13:07:24:622,0.9778,1.0217,10.2441,0.0442,0.0111,9.8065,0.0122,0.0082,-0.0229,5.5,-42.06,-15.75,189.51,-87.71,-149.01
53.090042,-1.769054,340.83,15.58,4,331.03,20 / 21,1503014,2019-11-06 13:07:24:722,1.7537,0.0078,9.7482,0.0301,-0.0063,9.8065,-0.1124,-0.2037,0.1399,5.63,-42.75,-16.06,190.77,-87.72,-147.61
53.090042,-1.769054,340.83,15.58,4,331.03,20 / 21,1503114,2019-11-06 13:07:24:822,-1.616,1.9404,9.2227,0.0517,-0.0131,9.8064,-0.0857,-0.2376,0.1466,6.13,-42.5,-16.44,196.19,-87.59,-141.61
53.090042,-1.769054,340.83,15.58,4,331.03,20 / 21,1503214,2019-11-06 13:07:24:922,2.3244,0.1984,10.5216,0.0259,0.0161,9.8065,0.0901,-0.1824,0.0867,4.63,-43.06,-16.12,203.96,-87.64,-136.25
53.090042,-1.769054,340.83,15.58,4,331.03,20 / 21,1503314,2019-11-06 13:07:25:022,0.2948,1.148,10.3149,-0.0156,0.0135,9.8065,0.0438,0.1109,-0.2098,5.06,-42,-16.06,206.21,-87.55,-133.74
53.090042,-1.769054,340.83,15.58,4,331.03,20 / 21,1503414,2019-11-06 13:07:25:122,0.472,-0.0962,10.4001,-0.0554,-0.0023,9.8064,0.0644,0.1127,-0.0571,5.19,-41.75,-15.87,208.66,-87.27,-130.73
53.090042,-1.769054,340.83,15.58,4,331.03,20 / 21,1503515,2019-11-06 13:07:25:223,2.1507,0.2955,10.0479,-0.0236,-0.0047,9.8065,0.0143,0.0873,-0.0719,5.44,-42.19,-15.44,197.86,-87.44,-141.64
53.090042,-1.769054,340.83,15.58,4,331.03,20 / 21,1503614,2019-11-06 13:07:25:322,1.8224,-0.8597,10.0332,-0.0179,-0.036,9.8065,-0.1227,0.0554,-0.0996,4.75,-42.56,-15.87,199.61,-87.72,-141.08
53.090042,-1.769054,340.83,15.58,4,331.03,20 / 21,1503715,2019-11-06 13:07:25:423,2.0673,1.4517,10.59,-0.0064,-0.0227,9.8066,-0.0422,0.0684,0.0321,4.75,-42.94,-16.25,201.49,-87.91,-139.21
53.090042,-1.769054,340.83,15.58,4,331.03,20 / 21,1503814,2019-11-06 13:07:25:522,-0.5361,-1.9077,8.7203,-0.0224,-0.0411,9.8065,-0.0908,0.2087,-0.2195,5.31,-43.12,-16.19,203.26,-87.88,-137.25
53.090042,-1.769054,340.83,15.58,4,331.03,20 / 21,1503915,2019-11-06 13:07:25:623,2.3473,-0.5495,9.7603,-0.0193,0.0035,9.8066,-0.052,-0.0933,0.071,4.81,-42.56,-16.31,201.03,-87.96,-139.74
53.090042,-1.769054,340.83,15.58,4,331.03,20 / 21,1504014,2019-11-06 13:07:25:722,0.8862,0.6646,10.6686,0.0102,0.0171,9.8066,0.0999,-0.1627,-0.0461,4.63,-43.06,-15.87,199.92,-88.05,-141.04
53.090042,-1.769054,340.83,15.58,4,331.03,20 / 21,1504114,2019-11-06 13:07:25:822,-0.0392,-1.2915,9.5991,-0.0001,0.0062,9.8066,0.0825,-0.2597,0.0422,4.81,-43,-16.44,200.95,-87.95,-139.83
53.090042,-1.769054,340.83,15.58,4,331.03,20 / 21,1504214,2019-11-06 13:07:25:922,1.127,-0.3013,9.5419,0.0247,0.0175,9.8066,-0.0435,-0.2967,0.1394,4.75,-42.5,-16.37,201.56,-88.02,-139.28
53.090042,-1.769054,340.83,15.58,4,331.03,20 / 21,1504314,2019-11-06 13:07:26:022,-0.7321,-1.1725,9.7274,0.018,0.0076,9.8066,-0.0516,-0.1271,0.1141,4.38,-43.25,-16.62,202.03,-88.01,-142.91
53.090042,-1.769054,340.83,15.58,4,331.03,20 / 21,1504415,2019-11-06 13:07:26:123,1.8724,0.3487,10.4225,0.016,0.0186,9.8066,0.0639,-0.2185,-0.0109,4.31,-43.44,-16.37,195.79,-88.06,-148.81
53.090042,-1.769054,340.83,15.58,4,331.03,19 / 21,1504514,2019-11-06 13:07:26:222,-0.3575,-1.1352,10.4243,0.0177,-0.0137,9.8066,0.0929,-0.0339,-0.0334,4.38,-42.56,-15.69,204.2,-88.19,-139.84
53.090042,-1.769054,340.83,15.58,4,331.03,19 / 21,1504614,2019-11-06 13:07:26:322,0.8928,-0.2315,9.3091,-0.0139,-0.007,9.8066,-0.0252,-0.0746,-0.0198,4.31,-42.37,-16.44,208.54,-88.27,-135.33
53.090042,-1.769054,340.83,15.58,4,331.03,19 / 21,1504716,2019-11-06 13:07:26:424,1.8628,-1.304,10.486,-0.0058,-0.0161,9.8066,-0.103,0.0864,-0.1101,4.5,-42.87,-16.12,201.41,-88.42,-139.77
53.090042,-1.769054,340.83,15.58,4,331.03,19 / 21,1504814,2019-11-06 13:07:26:522,0.958,-0.3734,10.3797,-0.0041,-0.0248,9.8066,-0.0192,-0.0357,0.0421,4.63,-42.75,-16.5,202.15,-88.61,-139.15
53.090042,-1.769054,340.83,15.58,4,331.03,19 / 21,1504914,2019-11-06 13:07:26:622,0.6918,-2.7178,9.5724,0.0011,0.0027,9.8066,-0.0726,0.1145,-0.0689,4.88,-42.81,-16.56,201.07,-88.71,-141.42
53.090042,-1.769054,340.83,15.58,4,331.03,19 / 21,1505014,2019-11-06 13:07:26:722,-0.0479,-0.5268,10.4042,-0.0181,0.013,9.8066,0.1392,-0.0749,-0.0061,4.88,-43.19,-16.44,198.38,-88.78,-143.28
