GPS LATITUDE (degrees), GPS LONGITUDE (degrees), GPS ALTITUDE (m), GPS SPEED (Kmh), GPS ACCURACY (m), GPS ORIENTATION (Â°),GPS SATELLITES IN RANGE, TIME SINCE START (ms), DATE (YYYY-MO-DD HH-MI-SS_SSS), ACCELEROMETER X (m/s²) , ACCELEROMETER Y (m/s²), ACCELEROMETER Z (m/s²), GRAVITY X (m/s²), GRAVITY Y (m/s²), GRAVITY Z (m/s²), GYROSCOPE Yaw (rad/s), GYROSCOPE Pitch (rad/s), GYROSCOPE Roll (rad/s), MAGNETIC FIELD X (Î¼T), MAGNETIC FIELD Y (Î¼T), MAGNETIC FIELD Z (Î¼T), ORIENTATION (Yaw) (Â°), ORIENTATION (Pitch) (Â°), ORIENTATION (Roll ) (Â°)
53.050465,-1.767187,243.19,11.43,6,60.01,18 / 22,794214,2019-11-06 12:55:35:922,2.2402,-3.8092,10.0531,-0.0223,0.0255,9.8065,0.0056,-0.2642,0.1055,-13.19,-42.25,-4.37,218.52,-85.81,153.62
53.050465,-1.767187,243.19,11.43,6,60.01,18 / 22,794315,2019-11-06 12:55:36:023,0.1729,0.3521,10.1383,0.0246,-0.0494,9.8064,0.0156,0.3223,-0.1154,-13.81,-42.37,-4.19,220.82,-85.86,154.51
53.050465,-1.767187,243.19,11.43,6,60.01,18 / 22,794414,2019-11-06 12:55:36:122,-1.2781,1.626,9.6052,-0.0095,0.0291,9.8066,-0.037,-0.0376,-0.0067,-13.62,-42.31,-4,221.39,-85.85,155.21
53.050465,-1.767187,243.19,11.43,6,60.01,18 / 20,794515,2019-11-06 12:55:36:223,0.9972,-0.4024,9.7605,-0.0026,-0.0156,9.8065,-0.0504,0.2072,-0.0661,-13.5,-41.75,-3.37,224.02,-85.84,156.09
53.050465,-1.767187,243.19,11.43,6,60.01,18 / 20,794615,2019-11-06 12:55:36:323,-0.377,0.6635,10.1598,0.0114,0.0134,9.8066,0.0378,0.1383,-0.0822,-13.62,-42.69,-3.87,222.33,-85.7,156.77
53.050465,-1.767187,243.19,11.43,6,60.01,18 / 20,794714,2019-11-06 12:55:36:422,2.4376,0.9504,10.2691,-0.0109,0.0301,9.8065,-0.0329,-0.0801,0.0406,-14,-42.75,-3.25,225.07,-85.62,156.45
53.050465,-1.767187,243.19,11.43,6,60.01,18 / 20,794814,2019-11-06 12:55:36:522,0.6488,0.5387,10.4585,0.013,-0.0114,9.8066,0.0933,-0.0399,0.0102,-14.25,-42.37,-2.87,226.34,-85.38,158.2
53.050465,-1.767187,243.19,11.43,6,60.01,18 / 20,794914,2019-11-06 12:55:36:622,0.514,1.3069,9.5029,0.0148,0.0062,9.8065,-0.0311,-0.0873,0.1557,-13.81,-41.81,-3.37,226.25,-85.36,158.14
53.050465,-1.767187,243.19,11.43,6,60.01,18 / 20,795014,2019-11-06 12:55:36:722,0.8098,-0.9171,9.3451,-0.0007,-0.0195,9.8066,0.0189,-0.2691,0.055,-13.87,-42.5,-3.75,222.52,-85.38,157.43
53.050465,-1.767187,243.19,11.43,6,60.01,18 / 20,795114,2019-11-06 12:55:36:822,-1.6095,0.6755,9.7494,0.025,-0.0217,9.8065,-0.0398,0.0821,0.0183,-13.87,-42.44,-3.62,224.47,-85.39,159.7
53.050465,-1.767187,243.19,11.43,6,60.01,18 / 20,795214,2019-11-06 12:55:36:922,0.4651,-0.3816,9.5904,0.0073,0.0018,9.8066,-0.028,-0.0423,0.026,-14.25,-42.12,-3.5,226.67,-85.27,158.82
53.050465,-1.767187,243.19,11.43,6,60.01,18 / 20,795314,2019-11-06 12:55:37:022,-0.0388,-0.5281,9.4295,-0.0071,-0.0152,9.8065,-0.0376,0.0641,-0.1208,-14.37,-42.19,-3.75,224.26,-85.27,159.68
53.050465,-1.767187,243.19,11.43,6,60.01,18 / 20,795414,2019-11-06 12:55:37:122,0.151,-0.7973,8.751,-0.027,0.0012,9.8066,-0.0807,-0.0461,0.0852,-14.06,-42,-4.37,223.12,-85.37,158.14
53.050465,-1.767187,243.19,11.43,6,60.01,19 / 21,795514,2019-11-06 12:55:37:222,-0.8004,0.991,9.6726,-0.0299,-0.0478,9.8064,-0.1141,0.1774,-0.0921,-13.87,-42.94,-4.87,218.41,-85.9,155.38
53.050465,-1.767187,243.19,11.43,6,60.01,19 / 21,795614,2019-11-06 12:55:37:322,-0.809,0.9561,8.8664,-0.0411,-0.0068,9.8065,-0.1116,-0.0445,0.0768,-13.62,-43.12,-4.94,216.13,-86.05,152.46
53.050465,-1.767187,243.19,11.43,6,60.01,19 / 21,795714,2019-11-06 12:55:37:422,0.7793,2.4628,9.465,-0.0064,-0.0247,9.8066,-0.0848,0.2673,-0.0677,-14,-42.31,-4.44,216.71,-86.33,148.94
53.050465,-1.767187,243.19,11.43,6,60.01,19 / 21,795814,2019-11-06 12:55:37:522,-1.2739,0.814,8.6647,-0.0365,0.0075,9.8066,-0.1401,0.1529,-0.0431,-13.56,-42.87,-5.25,208.35,-86.29,143.05
53.050465,-1.767187,243.19,11.43,6,60.01,19 / 21,795914,2019-11-06 12:55:37:622,1.1566,0.6227,9.6088,-0.0454,-0.0041,9.8065,-0.0796,0.1144,-0.0274,-13.5,-42.62,-5.56,200.13,-86.39,138.6
53.050465,-1.767187,243.19,11.43,6,60.01,19 / 21,796014,2019-11-06 12:55:37:722,0.6142,3.1045,8.8019,-0.0305,0.0144,9.8066,-0.0898,0.2474,-0.1372,-13.06,-42.44,-5.56,197.92,-86.39,135.92
53.050465,-1.767187,243.19,11.43,6,60.01,19 / 21,796114,2019-11-06 12:55:37:822,-0.0062,-0.5373,8.8518,-0.0186,0.0187,9.8066,-0.0453,-0.0249,0.06,-12.94,-42.94,-6.37,193.39,-86.27,130.73
53.050465,-1.767187,243.19,11.43,6,60.01,19 / 21,796214,2019-11-06 12:55:37:922,-0.544,-0.4072,9.1703,-0.0185,-0.0137,9.8066,-0.1017,0.2052,-0.108,-12.62,-43.06,-6.81,187.3,-86.29,126.96
53.050465,-1.767187,243.19,11.43,6,60.01,19 / 21,796314,2019-11-06 12:55:38:022,-0.3016,-2.6577,8.7843,-0.0399,0.0275,9.8065,-0.1659,-0.0623,0.1017,-12.5,-42.94,-6.94,180.11,-86.28,120.38
53.050465,-1.767187,243.19,11.43,6,60.01,19 / 21,796414,2019-11-06 12:55:38:122,-0.4925,0.7257,8.9273,-0.0092,-0.026,9.8066,-0.0761,0.1333,-0.0453,-12.06,-42.75,-7.81,172.48,-86.41,114.79
53.050465,-1.767187,243.19,11.43,6,60.01,20 / 22,796514,2019-11-06 12:55:38:222,-0.4576,1.6095,10.1108,-0.0304,0.0195,9.8065,-0.0984,-0.1797,0.1432,-11.87,-42.31,-7.31,172.56,-86.16,111.33
53.050465,-1.767187,243.19,11.43,6,60.01,20 / 22,796614,2019-11-06 12:55:38:322,-0.0453,1.6171,9.7822,0.0021,-0.0373,9.8065,-0.0341,-0.019,0.0389,-12.25,-42.81,-7.56,168.02,-86.05,109.3
53.050465,-1.767187,243.19,11.43,6,60.01,20 / 22,796714,2019-11-06 12:55:38:422,-1.3476,-0.037,9.5345,0.0097,0.0029,9.8066,0.012,-0.1246,0.0797,-11.87,-42.44,-7.56,167.65,-86.16,108.97
53.050465,-1.767187,243.19,11.43,6,60.01,20 / 22,796815,2019-11-06 12:55:38:523,1.8877,-0.5293,9.7788,0.0126,-0.0162,9.8066,0.039,-0.1928,0.088,-11.81,-43.56,-8.19,167.41,-86.13,108.56
53.050465,-1.767187,243.19,11.43,6,60.01,20 / 22,796915,2019-11-06 12:55:38:623,-1.8028,0.4747,9.5858,0.0117,-0.014,9.8066,0.0032,0.0589,-0.0423,-12.06,-43.44,-8.25,167.52,-86.26,108.83
53.050465,-1.767187,243.19,11.43,6,60.01,20 / 22,797015,2019-11-06 12:55:38:723,2.4414,-0.0185,9.8875,-0.0027,-0.0016,9.8066,0.0283,-0.1804,0.0624,-11.87,-43.56,-7.5,169.63,-86.27,107.78
53.050465,-1.767187,243.19,11.43,6,60.01,20 / 22,797115,2019-11-06 12:55:38:823,0.9762,-2.4423,9.552,0.0337,-0.0247,9.8065,-0.0666,0.336,-0.2244,-11.75,-43.44,-8.25,167.96,-86.53,109.51
53.050465,-1.767187,243.19,11.43,6,60.01,20 / 22,797215,2019-11-06 12:55:38:923,1.5086,-2.2214,9.2754,-0.0259,0.0374,9.8065,0.0488,-0.0506,-0.0045,-12.44,-43.62,-8,166.14,-86.58,107.35
53.050465,-1.767187,243.19,11.43,6,60.01,20 / 22,797315,2019-11-06 12:55:39:023,-1.0485,-0.0828,10.5577,0.0062,-0.015,9.8066,-0.0151,0.3657,-0.2561,-11.69,-42.75,-8.69,160.36,-86.54,103.93
53.050465,-1.767187,243.19,11.43,6,60.01,20 / 22,797414,2019-11-06 12:55:39:122,0.8074,0.6972,9.601,-0.0064,0.0509,9.8064,0.0457,0.0257,0.0284,-11.44,-42.62,-9.31,159.08,-86.31,104.42
53.050465,-1.767187,243.19,11.43,6,60.01,19 / 22,797514,2019-11-06 12:55:39:222,0.4048,2.6928,10.5632,0.0048,-0.002,9.8066,0.088,0.091,0.0132,-11.37,-43.56,-8.81,162.06,-85.83,107.41
53.050465,-1.767187,243.19,11.43,6,60.01,19 / 22,797614,2019-11-06 12:55:39:322,0.711,0.2558,9.8433,0.0009,0.0242,9.8066,-0.0169,-0.0772,0.0529,-11.37,-43.56,-8.62,164.55,-85.45,110.14
53.050465,-1.767187,243.19,11.43,6,60.01,19 / 22,797714,2019-11-06 12:55:39:422,0.6035,2.5838,10.7884,0.0408,0.0069,9.8065,0.0386,0.0067,-0.0133,-11.56,-42.69,-8.31,171.93,-85.34,113.71
53.050465,-1.767187,243.19,11.43,6,60.01,19 / 22,797815,2019-11-06 12:55:39:523,1.1728,-0.0109,10.247,0.0321,-0.0182,9.8065,0.0047,-0.1339,0.14,-11.69,-42.75,-7.56,173.71,-85.33,115.9
53.050465,-1.767187,243.19,11.43,6,60.01,19 / 22,797914,2019-11-06 12:55:39:622,2.0262,-0.4143,9.1296,0.0147,-0.0428,9.8065,-0.0047,0.2012,-0.1098,-11.37,-43.12,-8.94,171.66,-85.59,119.04
53.050465,-1.767187,243.19,11.43,6,60.01,19 / 22,798015,2019-11-06 12:55:39:723,1.0842,-3.6272,9.4773,-0.005,0.0086,9.8066,-0.0531,-0.1288,0.1788,-11.75,-42.56,-8.56,174.31,-85.8,120
53.050465,-1.767187,243.19,11.43,6,60.01,19 / 22,798114,2019-11-06 12:55:39:822,-0.376,2.5195,10.0451,0.0181,-0.0417,9.8065,-0.0169,0.3053,-0.1506,-11.12,-42.06,-8.44,175.34,-85.96,120.37
53.050465,-1.767187,243.19,11.43,6,60.01,19 / 22,798215,2019-11-06 12:55:39:923,-2.2936,0.397,9.951,-0.0122,0.0129,9.8065,0.0347,-0.0803,0.0957,-11.75,-42.94,-8.44,176.68,-85.74,119.64
53.050465,-1.767187,243.19,11.43,6,60.01,19 / 22,798315,2019-11-06 12:55:40:023,-2.1359,1.8841,9.9696,0.0236,0.0007,9.8066,-0.0035,0.3505,-0.2219,-11.5,-42.31,-8.75,173.28,-85.78,121.13
53.050465,-1.767187,243.19,11.43,6,60.01,19 / 22,798415,2019-11-06 12:55:40:123,-0.2999,0.107,9.9704,-0.0157,0.0427,9.8065,0.0325,0.0157,-0.0199,-11.5,-42.81,-8.12,176.11,-86,121.29
53.050465,-1.767187,243.19,11.43,6,60.01,20 / 21,798514,2019-11-06 12:55:40:222,2.1121,-1.394,9.7003,0.0101,-0.0152,9.8066,0.0585,0.3031,-0.2109,-11.69,-43,-8.31,179.32,-86.02,122.88
53.050465,-1.767187,243.19,11.43,6,60.01,20 / 21,798615,2019-11-06 12:55:40:323,-1.6957,1.3507,9.7377,-0.0141,0.0271,9.8066,-0.0427,0.1247,-0.009,-11.25,-43.19,-8.62,176.76,-85.94,125.37
53.050465,-1.767187,243.19,11.43,6,60.01,20 / 21,798714,2019-11-06 12:55:40:422,-0.1568,-1.2385,9.8754,-0.0062,0.0185,9.8066,-0.0254,0.3341,-0.1245,-11.25,-42.94,-8.75,177.45,-85.73,126.18
53.050465,-1.767187,243.19,11.43,6,60.01,20 / 21,798815,2019-11-06 12:55:40:523,-2.2111,1.9412,9.8424,-0.0169,0.0409,9.8065,-0.0164,0.3858,-0.2457,-10.94,-42.56,-8.5,180.86,-85.73,127.09
53.050465,-1.767187,243.19,11.43,6,60.01,20 / 21,798915,2019-11-06 12:55:40:623,1.5511,-1.8904,10.0922,-0.0171,0.0346,9.8065,-0.0321,0.149,-0.0966,-11.62,-42.25,-8.94,179.71,-85.49,126.51
53.050465,-1.767187,243.19,11.43,6,60.01,20 / 21,799015,2019-11-06 12:55:40:723,-3.3745,0.5831,10.2092,-0.0111,0.0039,9.8066,-0.0381,0.4147,-0.171,-11.5,-42.87,-8.75,178.9,-85.43,127.93
53.050465,-1.767187,243.19,11.43,6,60.01,20 / 21,799115,2019-11-06 12:55:40:823,2.8446,-1.6715,9.7289,-0.0285,0.0374,9.8065,-0.0291,-0.1586,0.1168,-11.31,-42.81,-8.94,178.61,-85.38,127.56
53.050465,-1.767187,243.19,11.43,6,60.01,20 / 21,799215,2019-11-06 12:55:40:923,-0.6281,-2.116,9.6952,0.0017,-0.0145,9.8066,-0.0048,0.2395,-0.1495,-10.44,-42.12,-8.5,179.33,-85.5,127.83
53.050465,-1.767187,243.19,11.43,6,60.01,20 / 21,799314,2019-11-06 12:55:41:022,1.7501,-3.5813,10.5402,-0.0157,0.026,9.8066,0.0613,-0.2767,0.2016,-10.75,-42.31,-8.25,180.68,-85.57,126.87
53.050465,-1.767187,243.19,11.43,6,60.01,20 / 21,799414,2019-11-06 12:55:41:122,-1.1061,-0.165,9.8316,0.0373,-0.0298,9.8065,0.0007,0.1411,-0.0166,-10.94,-43,-9.19,178.02,-85.72,126.87
53.050465,-1.767187,243.19,11.43,6,60.01,19 / 21,799514,2019-11-06 12:55:41:222,-2.4738,3.2971,9.8533,-0.0144,0.0057,9.8066,0.0414,-0.5486,0.3484,-10.81,-42.12,-9.12,178.52,-85.8,127.49
53.050465,-1.767187,243.19,11.43,6,60.01,19 / 21,799614,2019-11-06 12:55:41:322,-2.9228,0.6693,10.2997,0.047,-0.0582,9.8064,0.0327,-0.1247,0.0824,-11.25,-42.75,-9.5,180.28,-86.1,129.63
53.050465,-1.767187,243.19,11.43,6,60.01,19 / 21,799714,2019-11-06 12:55:41:422,-1.54,1.1904,9.9304,0.008,-0.0154,9.8066,0.0093,-0.4873,0.3137,-11.75,-42.5,-8.56,180.32,-86.11,127.26
53.050465,-1.767187,243.19,11.43,6,60.01,19 / 21,799814,2019-11-06 12:55:41:522,1.3652,-4.4085,10.3504,0.0618,-0.0456,9.8063,0.0676,-0.384,0.2484,-11.69,-42.31,-8.75,178.35,-86.09,124.91
53.050465,-1.767187,243.19,11.43,6,60.01,19 / 21,799914,2019-11-06 12:55:41:622,-0.7978,0.9267,10.0334,0.0552,-0.0279,9.8064,0.0216,-0.2036,0.1239,-11.06,-42.5,-8.69,182.71,-86.23,132.52
53.050465,-1.767187,243.19,11.43,6,60.01,19 / 21,800014,2019-11-06 12:55:41:722,1.0413,-4.238,9.7784,0.0319,-0.0296,9.8065,0.0291,-0.3897,0.3061,-11,-42.31,-8.94,182.76,-86.04,132.6
53.050465,-1.767187,243.19,11.43,6,60.01,19 / 21,800114,2019-11-06 12:55:41:822,-0.5311,1.1216,10.0236,0.0293,-0.047,9.8065,-0.1197,0.0449,0.039,-11.69,-43.37,-7.94,189.92,-86.18,135.55
53.050465,-1.767187,243.19,11.43,6,60.01,19 / 21,800214,2019-11-06 12:55:41:922,1.3832,-3.014,10.0503,-0.0156,-0.0116,9.8066,0.0234,-0.2418,0.1281,-11.69,-42.56,-8.62,184.13,-86.37,131.74
53.050465,-1.767187,243.19,11.43,6,60.01,19 / 21,800315,2019-11-06 12:55:42:023,-1.0325,0.1963,9.5568,0.0257,-0.0195,9.8065,-0.0092,0.3353,-0.1711,-11.31,-42.5,-9.37,182.78,-86.48,132.57
53.050465,-1.767187,243.19,11.43,6,60.01,19 / 21,800415,2019-11-06 12:55:42:123,-1.5844,1.7341,10.3748,-0.0168,0.0455,9.8064,0.0186,0.0485,-0.0579,-11.06,-42.25,-9.19,184.05,-86.57,134.05
53.050465,-1.767187,243.19,11.43,6,60.01,20 / 22,800515,2019-11-06 12:55:42:223,1.6465,-2.7027,10.3587,0.0089,0.0052,9.8066,-0.0122,0.3196,-0.2046,-11.69,-42.75,-9.31,187.08,-86.3,135.24
53.050465,-1.767187,243.19,11.43,6,60.01,20 / 22,800615,2019-11-06 12:55:42:323,-0.6599,-0.007,10.3659,-0.0322,0.0242,9.8066,-0.0469,0.2986,-0.1133,-11,-42.12,-8.56,187.47,-86.23,138.2
53.050465,-1.767187,243.19,11.43,6,60.01,20 / 22,800715,2019-11-06 12:55:42:423,0.074,-2.778,9.6359,-0.0141,0.0242,9.8066,-0.0797,0.1049,-0.0024,-11.87,-42.87,-8.25,189.72,-85.97,135.41
53.050465,-1.767187,243.19,11.43,6,60.01,20 / 22,800814,2019-11-06 12:55:42:522,-1.9313,0.7779,10.329,-0.0035,0.0038,9.8066,0.0461,0.2538,-0.1449,-11.19,-43.12,-8.94,185.17,-85.89,135.56
53.050465,-1.767187,243.19,11.43,6,60.01,20 / 22,800914,2019-11-06 12:55:42:622,-1.223,-0.5257,10.2598,-0.007,0.0512,9.8065,0.0376,-0.0821,0.0773,-10.62,-42.75,-9.19,185.52,-85.57,136.08
53.050465,-1.767187,243.19,11.43,6,60.01,20 / 22,801014,2019-11-06 12:55:42:722,-1.8981,1.4672,10.5648,0.0207,-0.0054,9.8065,0.0406,0.165,-0.1054,-10.75,-43.31,-8.62,186.76,-85.44,137.65
53.050465,-1.767187,243.19,11.43,6,60.01,20 / 22,801114,2019-11-06 12:55:42:822,1.213,-0.9818,9.3867,0.0023,0.0441,9.8065,-0.0735,-0.079,0.1048,-11.56,-43.56,-8.69,189.12,-85.14,138.22
53.050465,-1.767187,243.19,11.43,6,60.01,20 / 22,801214,2019-11-06 12:55:42:922,-0.9401,-1.625,10.3132,-0.0159,-0.0191,9.8066,0.0224,0.2202,-0.1975,-10.94,-43.25,-8.44,188.62,-85.27,136.86
53.050465,-1.767187,243.19,11.43,6,60.01,20 / 22,801314,2019-11-06 12:55:43:022,-0.4939,-2.6111,9.4964,-0.0259,0.0199,9.8065,-0.0351,-0.0948,-0.0654,-11.06,-43.25,-8.69,182.3,-85.63,132.11
53.050465,-1.767187,243.19,11.43,6,60.01,20 / 22,801415,2019-11-06 12:55:43:123,-1.4064,0.0995,10.6844,0.0086,0.009,9.8066,0.0418,0.229,-0.0914,-10.25,-43,-8.94,178.07,-85.86,129.62
53.050465,-1.767187,243.19,11.43,6,60.01,22 / 22,801515,2019-11-06 12:55:43:223,0.4812,2.6893,9.1845,-0.0162,0.0415,9.8065,0.1108,-0.2693,0.072,-10.62,-43,-8.81,178.16,-85.65,127.04
53.050465,-1.767187,243.19,11.43,6,60.01,22 / 22,801614,2019-11-06 12:55:43:322,-2.4402,1.8483,9.6999,0.0206,-0.0162,9.8066,-0.0682,0.09,0.0381,-10.44,-43,-9.31,176.11,-85.41,127.11
53.050465,-1.767187,243.19,11.43,6,60.01,22 / 22,801715,2019-11-06 12:55:43:423,-0.1833,1.5914,10.653,0.0004,0.0116,9.8066,0.0021,-0.369,0.3084,-10.37,-42.81,-9.19,176.45,-85.11,127.48
53.050465,-1.767187,243.19,11.43,6,60.01,22 / 22,801815,2019-11-06 12:55:43:523,1.1987,-4.1639,8.83,0.029,-0.0578,9.8064,-0.0694,-0.1852,0.1684,-10.25,-42.5,-8.69,177.4,-84.66,128.65
53.050465,-1.767187,243.19,11.43,6,60.01,22 / 22,801915,2019-11-06 12:55:43:623,-1.761,-2.8762,9.1729,0.008,-0.0243,9.8065,-0.1514,-0.3923,0.3508,-10,-43.31,-8.75,178.26,-84.73,129.75
53.050465,-1.767187,243.19,11.43,6,60.01,22 / 22,802015,2019-11-06 12:55:43:723,3.877,0.101,9.8147,0.0228,-0.0685,9.8064,-0.0153,-0.3801,0.2149,-9.69,-43.62,-9.81,174.82,-85.14,128.48
53.050465,-1.767187,243.19,11.43,6,60.01,22 / 22,802114,2019-11-06 12:55:43:822,-1.2054,0.6485,10.0791,0.0244,-0.0295,9.8065,-0.0984,-0.1193,0.1393,-9.94,-43.81,-9.94,173.01,-85.22,126.22
53.050465,-1.767187,243.19,11.43,6,60.01,22 / 22,802215,2019-11-06 12:55:43:923,0.8712,-1.7524,10.2915,-0.0006,-0.027,9.8066,0.0347,-0.2395,0.1138,-9.94,-43.25,-9.75,170.65,-85.29,123.35
53.050465,-1.767187,243.19,11.43,6,60.01,22 / 22,802315,2019-11-06 12:55:44:023,1.1814,0.239,9.8601,0.0105,-0.0144,9.8066,-0.0941,0.1193,-0.0835,-9.87,-42.75,-8.94,171.46,-85.55,121.36
53.050465,-1.767187,243.19,11.43,6,60.01,22 / 22,802414,2019-11-06 12:55:44:122,1.2571,2.4765,9.686,-0.0126,0.0144,9.8066,-0.0381,0.2475,-0.0682,-10.19,-43.56,-8.81,168.9,-85.61,118.16
53.05108,-1.765805,241.46,12.83,4,46.5,20 / 22,802514,2019-11-06 12:55:44:222,-2.6915,0.4405,9.9553,-0.0208,0.0191,9.8066,0.0153,-0.0019,-0.0251,-9.56,-42.75,-9.75,166.92,-85.55,118.9
53.05108,-1.765805,241.46,12.83,4,46.5,20 / 22,802614,2019-11-06 12:55:44:322,0.2508,2.9507,9.6095,-0.0115,0.0295,9.8066,0.0164,-0.0045,-0.0223,-9.5,-43.06,-9.37,167.85,-85.25,119.51
53.05108,-1.765805,241.46,12.83,4,46.5,20 / 22,802714,2019-11-06 12:55:44:422,0.8174,-4.8803,9.9554,-0.0277,0.0427,9.8065,0.0833,-0.3636,0.1868,-9.87,-42.94,-8.94,170.72,-85.05,120.19
53.05108,-1.765805,241.46,12.83,4,46.5,20 / 22,802814,2019-11-06 12:55:44:522,0.7788,-0.8965,10.2734,-0.0074,0.0044,9.8066,-0.1124,0.2015,-0.1268,-9.5,-43.37,-8.81,168.65,-85.02,120.38
53.05108,-1.765805,241.46,12.83,4,46.5,20 / 22,802914,2019-11-06 12:55:44:622,2.7906,-2.9895,10.0906,-0.0504,0.0359,9.8064,-0.0524,-0.2816,0.2003,-9.62,-42.75,-9.62,164.6,-84.9,115.54
53.05108,-1.765805,241.46,12.83,4,46.5,20 / 22,803014,2019-11-06 12:55:44:722,-0.7807,0.5977,10.4114,0.018,0.0065,9.8066,-0.0329,0.4,-0.1843,-9,-43.12,-9.19,164.44,-85,114.96
53.05108,-1.765805,241.46,12.83,4,46.5,20 / 22,803114,2019-11-06 12:55:44:822,-1.1152,-2.683,9.3921,-0.0067,0.0362,9.8065,-0.04,-0.0629,0.0482,-9.56,-42.94,-9.25,167.21,-84.76,115.55
53.05108,-1.765805,241.46,12.83,4,46.5,20 / 22,803214,2019-11-06 12:55:44:922,2.752,-1.8288,9.9625,0.0291,-0.0313,9.8065,-0.0643,0.4099,-0.2554,-9.25,-43.06,-9.25,165.4,-84.95,116.16
53.05108,-1.765805,241.46,12.83,4,46.5,20 / 22,803314,2019-11-06 12:55:45:022,2.0258,-0.8496,10.0701,-0.0118,0.0065,9.8066,0.0105,0.1818,-0.1261,-9.19,-43.69,-9.5,164.74,-84.81,115.08
53.05108,-1.765805,241.46,12.83,4,46.5,20 / 22,803414,2019-11-06 12:55:45:122,0.7432,-1.544,10.3114,0.0345,-0.0286,9.8065,0.0538,0.223,-0.2344,-9.12,-42.87,-9.37,165.7,-84.55,116.21
53.05108,-1.765805,241.46,12.83,4,46.5,19 / 22,803514,2019-11-06 12:55:45:222,-0.7706,0.8731,9.8046,0.0034,0.0262,9.8066,-0.0544,0.1393,-0.0428,-8.62,-43.37,-9.25,167.64,-84.44,118.68
53.05108,-1.765805,241.46,12.83,4,46.5,19 / 22,803614,2019-11-06 12:55:45:322,3.0169,-0.8086,9.9798,-0.0126,-0.0001,9.8066,0.0343,-0.1569,0.1148,-9,-42.94,-9.94,164.64,-84.49,118.05
53.05108,-1.765805,241.46,12.83,4,46.5,19 / 22,803714,2019-11-06 12:55:45:422,-1.5378,-2.4952,10.0718,0.0059,-0.0249,9.8066,0.0352,0.0451,0.0209,-9.19,-43.56,-9.25,166.05,-84.64,116.65
53.05108,-1.765805,241.46,12.83,4,46.5,19 / 22,803814,2019-11-06 12:55:45:522,-1.5808,2.5626,10.1405,-0.0132,0.0285,9.8065,-0.006,-0.4697,0.2884,-9.19,-43.12,-9,165.91,-84.55,116.48
53.05108,-1.765805,241.46,12.83,4,46.5,19 / 22,803914,2019-11-06 12:55:45:622,0.0197,1.3401,9.9534,-0.004,0.0094,9.8066,-0.0276,-0.3171,0.3319,-9.5,-42.81,-8.56,165.75,-84.94,116.6
53.05108,-1.765805,241.46,12.83,4,46.5,19 / 22,804014,2019-11-06 12:55:45:722,-2.433,-0.0622,10.2567,-0.0457,0.0542,9.8064,0.0842,-0.4643,0.3632,-8.94,-42.62,-9.25,166.48,-85.39,117.89
53.05108,-1.765805,241.46,12.83,4,46.5,19 / 22,804114,2019-11-06 12:55:45:822,4.9868,-2.8824,10.4352,0.0134,0.0339,9.8066,0.1088,-0.4194,0.202,-9.5,-42.56,-9.31,168.36,-85.14,120.09
53.05108,-1.765805,241.46,12.83,4,46.5,19 / 22,804214,2019-11-06 12:55:45:922,0.5824,1.6635,10.2128,-0.0167,0.0615,9.8063,0.0888,-0.2253,0.1266,-9.62,-42.75,-9.25,173.19,-84.96,123.29
53.05108,-1.765805,241.46,12.83,4,46.5,19 / 22,804314,2019-11-06 12:55:46:022,1.6809,-2.9517,9.5468,-0.0367,0.0573,9.8063,0.0166,-0.3475,0.223,-9.31,-42.75,-9.31,171.62,-84.43,123.91
53.05108,-1.765805,241.46,12.83,4,46.5,19 / 22,804414,2019-11-06 12:55:46:122,-1.0052,1.0294,9.9095,-0.0261,0.0336,9.8065,0.0159,-0.1386,0.074,-8.75,-42.5,-9.81,168.17,-84.35,122.63
53.05108,-1.765805,241.46,12.83,4,46.5,19 / 20,804514,2019-11-06 12:55:46:222,-0.5226,-3.1126,10.0094,-0.0276,0.029,9.8066,0.0086,-0.2532,0.1954,-9.75,-42.87,-8.94,172.9,-84.27,122.66
53.05108,-1.765805,241.46,12.83,4,46.5,19 / 20,804614,2019-11-06 12:55:46:322,0.8073,2.1572,10.0092,0.006,0.0289,9.8065,-0.093,-0.1573,0.1342,-9.94,-43.37,-8.5,176.03,-84.4,123.41
53.05108,-1.765805,241.46,12.83,4,46.5,19 / 20,804714,2019-11-06 12:55:46:422,-0.1904,-3.7891,9.8878,-0.0128,-0.0082,9.8066,-0.0324,-0.1326,0.1336,-9.81,-42.94,-8.31,175.97,-84.6,123.38
53.05108,-1.765805,241.46,12.83,4,46.5,19 / 20,804814,2019-11-06 12:55:46:522,1.8393,0.2861,8.8989,-0.0149,0.0042,9.8066,-0.0334,-0.1264,0.1839,-9.25,-43.37,-8.69,170.32,-84.91,122.47
53.05108,-1.765805,241.46,12.83,4,46.5,19 / 20,804914,2019-11-06 12:55:46:622,1.1842,-1.3338,10.7385,-0.0144,-0.0223,9.8066,0.1032,-0.1508,-0.0182,-9.69,-43.44,-8.19,175.3,-85.08,122.62
53.05108,-1.765805,241.46,12.83,4,46.5,19 / 20,805014,2019-11-06 12:55:46:722,0.9573,0.0341,9.0297,-0.0123,0.003,9.8066,0.0832,-0.1206,-0.0408,-10.44,-43.31,-8.25,174.55,-84.98,121.63
53.05108,-1.765805,241.46,12.83,4,46.5,19 / 20,805114,2019-11-06 12:55:46:822,-0.014,-1.3944,9.8172,-0.0105,0.0166,9.8066,0.1095,-0.1091,-0.0462,-9.69,-43.56,-8.5,175,-84.74,122.1
53.05108,-1.765805,241.46,12.83,4,46.5,19 / 20,805214,2019-11-06 12:55:46:922,-0.1791,-0.6247,10.6225,-0.0005,0.0295,9.8066,0.0591,-0.1088,-0.001,-10.25,-43.25,-8.81,172.55,-84.43,122.27
53.05108,-1.765805,241.46,12.83,4,46.5,19 / 20,805314,2019-11-06 12:55:47:022,1.2053,-1.3583,9.6946,-0.0023,0.0261,9.8066,0.04,-0.1576,0.0679,-10,-43.56,-7.75,175.85,-84.07,123.07
53.05108,-1.765805,241.46,12.83,4,46.5,19 / 20,805415,2019-11-06 12:55:47:123,2.1702,-1.1084,9.7837,-0.0141,0.0185,9.8066,-0.044,-0.1483,0.1695,-9.87,-43.25,-8.12,176.45,-84.17,123.92
53.05108,-1.765805,241.46,12.83,4,46.5,18 / 20,805515,2019-11-06 12:55:47:223,0.5381,-2.0411,10.1406,0.0183,-0.0128,9.8066,0.0288,-0.0979,0.1158,-10.62,-43.19,-8.19,178.41,-84.31,123.95
53.05108,-1.765805,241.46,12.83,4,46.5,18 / 20,805614,2019-11-06 12:55:47:322,1.3598,-2.1765,10.1116,-0.0029,0.0189,9.8066,0.0268,-0.2863,0.1981,-9.75,-43.06,-7.87,177.89,-84.51,125.88
53.05108,-1.765805,241.46,12.83,4,46.5,18 / 20,805715,2019-11-06 12:55:47:423,1.2206,-1.8508,9.8992,0.0286,0.0118,9.8065,-0.0136,-0.0368,-0.0225,-9.37,-43.31,-7.37,180.09,-84.41,128
53.05108,-1.765805,241.46,12.83,4,46.5,18 / 20,805814,2019-11-06 12:55:47:522,1.5464,-4.3237,11.0673,-0.0044,0.0145,9.8065,0.0462,-0.3436,0.1465,-10.56,-42.56,-7.5,184.59,-84.35,128.53
53.05108,-1.765805,241.46,12.83,4,46.5,18 / 20,805914,2019-11-06 12:55:47:622,1.8283,0.1199,9.1439,0.0131,0.0189,9.8065,-0.1067,-0.0599,0.1016,-10.87,-43.06,-8.5,182.34,-84.38,129.08
53.05108,-1.765805,241.46,12.83,4,46.5,18 / 20,806014,2019-11-06 12:55:47:722,-0.6159,0.3417,11.2032,-0.019,0.0531,9.8064,-0.1038,-0.3753,0.3213,-10.25,-43.94,-6.81,182.38,-84.68,128.15
53.05108,-1.765805,241.46,12.83,4,46.5,18 / 20,806114,2019-11-06 12:55:47:822,-1.9763,1.6222,10.088,0.0158,-0.0437,9.8065,-0.0366,0.0784,-0.089,-10.81,-43.31,-7,183,-84.75,126.36
53.05108,-1.765805,241.46,12.83,4,46.5,18 / 20,806214,2019-11-06 12:55:47:922,0.3514,-2.2546,9.6512,-0.031,-0.0038,9.8066,0.1077,-0.3312,0.1132,-10.87,-43.81,-6.81,181.63,-84.91,124.58
53.05108,-1.765805,241.46,12.83,4,46.5,18 / 20,806314,2019-11-06 12:55:48:022,4.0482,-1.2052,9.9191,0.0257,-0.0098,9.8066,0.0016,-0.2125,0.0928,-10.94,-43.56,-6.75,181.57,-84.99,124.5
53.05108,-1.765805,241.46,12.83,4,46.5,18 / 20,806414,2019-11-06 12:55:48:122,-2.0491,-1.5023,9.0761,-0.033,0.015,9.8065,0.0097,-0.457,0.2159,-10.81,-43,-7,180.39,-85.13,122.97
53.05108,-1.765805,241.46,12.83,4,46.5,18 / 20,806514,2019-11-06 12:55:48:222,1.8091,0.0968,9.5649,-0.0165,0.0303,9.8065,-0.0245,-0.3807,0.2508,-11,-43.06,-6.31,183.32,-85.42,122.83
53.05108,-1.765805,241.46,12.83,4,46.5,18 / 20,806614,2019-11-06 12:55:48:322,-0.976,0.4231,9.6086,-0.0223,0.0391,9.8065,-0.0247,-0.1939,0.1372,-10.75,-43.69,-6.81,180.45,-85.54,123.04
53.05108,-1.765805,241.46,12.83,4,46.5,18 / 20,806714,2019-11-06 12:55:48:422,1.0343,-2.6438,10.8575,-0.0113,0.0206,9.8066,0.1457,-0.3934,0.085,-11.19,-43,-6.44,182.49,-85.34,121.79
53.05108,-1.765805,241.46,12.83,4,46.5,18 / 20,806814,2019-11-06 12:55:48:522,-0.592,1.4161,10.4383,0.0047,0.0159,9.8066,0.0544,-0.0434,0.0056,-11.31,-43.62,-6,184.77,-85.08,124.8
53.05108,-1.765805,241.46,12.83,4,46.5,18 / 20,806914,2019-11-06 12:55:48:622,1.1997,-1.9593,9.6266,-0.0166,0.0328,9.8065,-0.0298,-0.1962,0.1649,-11.25,-43.62,-6.06,185.87,-85.01,126.25
53.05108,-1.765805,241.46,12.83,4,46.5,18 / 20,807014,2019-11-06 12:55:48:722,0.5351,-2.1054,10.9095,0.0199,-0.0045,9.8065,-0.1298,0.1841,-0.1066,-11.12,-42.94,-6.12,187.5,-85.14,128.26
53.05108,-1.765805,241.46,12.83,4,46.5,18 / 20,807115,2019-11-06 12:55:48:823,0.7484,-3.5305,10.2677,-0.0182,0.0031,9.8065,0.0478,-0.0184,-0.0053,-11.5,-42.87,-6.12,186.15,-85.15,126.52
53.05108,-1.765805,241.46,12.83,4,46.5,18 / 20,807215,2019-11-06 12:55:48:923,0.2202,-1.7072,9.8799,0.0285,-0.0382,9.8065,-0.0223,0.3797,-0.2494,-11.5,-42.69,-6.37,186.09,-84.99,126.5
53.05108,-1.765805,241.46,12.83,4,46.5,18 / 20,807315,2019-11-06 12:55:49:023,-0.7546,2.9784,9.7619,0.0126,0.0031,9.8066,-0.0101,0.0919,-0.0953,-11.87,-43.44,-5.81,189.09,-85.01,128.14
53.05108,-1.765805,241.46,12.83,4,46.5,18 / 20,807415,2019-11-06 12:55:49:123,-0.7319,0.1135,10.1814,0.0526,-0.0471,9.8064,-0.063,0.3079,-0.2117,-10.94,-43.12,-5.5,193.84,-85.16,132.35
53.05108,-1.765805,241.46,12.83,4,46.5,18 / 20,807515,2019-11-06 12:55:49:223,0.2713,-0.0611,8.924,0.0169,-0.0057,9.8066,-0.1127,0.1357,-0.0079,-11.62,-43.12,-5.37,195.1,-85.25,131.76
53.05108,-1.765805,241.46,12.83,4,46.5,18 / 20,807615,2019-11-06 12:55:49:323,0.7891,-4.1288,10.6151,0.0116,-0.0177,9.8066,-0.0778,0.1082,-0.0006,-12.06,-42.69,-5.56,191.55,-85.48,130.98
53.05108,-1.765805,241.46,12.83,4,46.5,18 / 20,807714,2019-11-06 12:55:49:422,-1.4726,0.4751,9.952,0.0213,-0.0259,9.8066,-0.0861,0.3609,-0.2838,-12.12,-43.31,-5.75,191.58,-85.58,130.95
53.05108,-1.765805,241.46,12.83,4,46.5,18 / 20,807814,2019-11-06 12:55:49:522,1.3966,-4.9444,9.4172,-0.0126,0.0001,9.8065,0.0487,-0.0866,-0.0084,-12.12,-43.25,-5.37,191.84,-85.37,127.56
53.05108,-1.765805,241.46,12.83,4,46.5,18 / 20,807915,2019-11-06 12:55:49:623,-0.0629,-0.3238,10.263,0.0206,-0.0443,9.8065,-0.04,0.3837,-0.3023,-10.69,-43.31,-5.81,185.6,-85.3,125.76
53.05108,-1.765805,241.46,12.83,4,46.5,18 / 20,808015,2019-11-06 12:55:49:723,2.1441,-3.603,10.443,-0.0172,0.0028,9.8066,0.0901,-0.3277,0.076,-11.44,-43.12,-5.06,185.48,-85.11,121.57
53.05108,-1.765805,241.46,12.83,4,46.5,18 / 20,808115,2019-11-06 12:55:49:823,-2.2052,-0.7296,10.1425,0.0372,-0.0096,9.8065,0.0478,0.132,-0.0439,-11.25,-43.56,-4.87,186.88,-84.97,123.48
53.05108,-1.765805,241.46,12.83,4,46.5,18 / 20,808215,2019-11-06 12:55:49:923,-0.3329,3.0192,9.4947,0.0109,0.032,9.8065,0.2133,-0.467,0.2179,-11.25,-43.69,-4.94,189.37,-84.75,126.88
53.05108,-1.765805,241.46,12.83,4,46.5,18 / 20,808315,2019-11-06 12:55:50:023,-1.0892,0.8199,10.0563,0.0291,0.0109,9.8065,-0.0422,-0.1659,0.1682,-11.12,-43.12,-5.06,192.61,-84.57,131.22
53.05108,-1.765805,241.46,12.83,4,46.5,18 / 20,808414,2019-11-06 12:55:50:122,-0.1521,-1.2421,10.1916,0.0138,-0.0232,9.8065,-0.1149,0.2761,-0.1255,-11.75,-43.19,-4.56,195.58,-84.72,132.83
53.05108,-1.765805,241.46,12.83,4,46.5,18 / 20,808514,2019-11-06 12:55:50:222,2.1921,-3.1237,10.3191,0.0337,-0.0478,9.8064,0.0131,0.3526,-0.1941,-11.62,-43,-4.12,198.72,-84.72,132.85
53.05108,-1.765805,241.46,12.83,4,46.5,18 / 20,808615,2019-11-06 12:55:50:323,-3.1278,2.2215,10.0374,0.0413,-0.0338,9.8065,-0.0289,0.5935,-0.3605,-11.12,-43.37,-5.69,193.91,-84.75,136.79
53.05108,-1.765805,241.46,12.83,4,46.5,18 / 20,808715,2019-11-06 12:55:50:423,-0.8593,-4.4122,9.5207,0.0093,-0.0584,9.8065,-0.0801,0.3686,-0.1791,-11.75,-43.5,-3.81,200.85,-84.83,135.47
53.05108,-1.765805,241.46,12.83,4,46.5,18 / 20,808815,2019-11-06 12:55:50:523,-3.2667,7.0326,10.4955,0.0095,-0.1293,9.8057,0.0052,0.8794,-0.5812,-11.56,-43.06,-5,196.16,-85.13,133.22
53.05108,-1.765805,241.46,12.83,4,46.5,18 / 20,808915,2019-11-06 12:55:50:623,1.3424,-1.9336,9.4227,0.0234,-0.0275,9.8065,0.0184,-0.0915,0.0702,-12,-43.75,-5.37,193.78,-84.98,130.39
53.05108,-1.765805,241.46,12.83,4,46.5,18 / 20,809014,2019-11-06 12:55:50:722,-3.7102,5.7759,10.185,0.0442,-0.1105,9.8058,-0.0479,0.653,-0.4138,-12.06,-43.56,-5.06,196.85,-85.27,134.06
53.05108,-1.765805,241.46,12.83,4,46.5,18 / 20,809114,2019-11-06 12:55:50:822,1.4128,-3.5863,9.8588,-0.0325,0.042,9.8065,0.0724,-0.6613,0.3969,-11.87,-43.37,-4.44,199.39,-85.33,133.04
53.05108,-1.765805,241.46,12.83,4,46.5,18 / 20,809214,2019-11-06 12:55:50:922,3.6025,-4.6446,10.1679,0.0075,-0.0371,9.8065,0.0364,0.1045,-0.0287,-11.25,-43.12,-5.62,190.15,-85.35,131.55
53.05108,-1.765805,241.46,12.83,4,46.5,18 / 20,809315,2019-11-06 12:55:51:023,0.7184,-5.9262,9.9299,-0.0646,0.08,9.806,0.0969,-0.8614,0.41,-12.12,-43.37,-4.75,191.48,-84.89,127.41
53.05108,-1.765805,241.46,12.83,4,46.5,18 / 20,809414,2019-11-06 12:55:51:122,1.7371,-3.8312,10.1702,-0.0054,0.021,9.8066,0.076,-0.4635,0.2696,-11.69,-43.87,-5.06,192.37,-85.01,128.56
53.05108,-1.765805,241.46,12.83,4,46.5,18 / 19,809514,2019-11-06 12:55:51:222,-3.5044,6.4556,9.6193,-0.0388,0.1074,9.8059,-0.0268,0.6955,-0.4287,-11.62,-44.25,-4.19,198.52,-85.19,132.21
53.05108,-1.765805,241.46,12.83,4,46.5,18 / 19,809614,2019-11-06 12:55:51:322,1.1961,-3.9092,10.7848,-0.0267,0.093,9.8062,0.0384,0.6007,-0.2844,-11.37,-43.81,-4.12,194.72,-84.65,129.75
53.05108,-1.765805,241.46,12.83,4,46.5,18 / 19,809714,2019-11-06 12:55:51:422,-5.0784,5.0049,9.5435,-0.0112,0.0659,9.8063,-0.0811,0.8005,-0.5812,-11.06,-44.31,-4.19,196.1,-85,131.24
53.05108,-1.765805,241.46,12.83,4,46.5,18 / 19,809814,2019-11-06 12:55:51:522,-1.5229,-1.6126,9.781,-0.0328,0.0548,9.8064,0.1038,-0.2511,0.164,-11.44,-43.19,-5,192.88,-84.77,131.42
53.05108,-1.765805,241.46,12.83,4,46.5,18 / 19,809914,2019-11-06 12:55:51:622,-2.3133,1.757,9.3215,0.0173,-0.0309,9.8065,-0.0702,0.1848,-0.1028,-12.06,-42.81,-4.12,201.38,-85.03,135.91
53.05108,-1.765805,241.46,12.83,4,46.5,18 / 19,810014,2019-11-06 12:55:51:722,0.0228,-1.0211,9.3689,-0.035,0.0023,9.8065,-0.0784,-0.2212,0.0611,-11.75,-43.25,-4.31,199.87,-85.09,133.91
53.05108,-1.765805,241.46,12.83,4,46.5,18 / 19,810114,2019-11-06 12:55:51:822,-1.2116,-2.7091,10.3835,-0.007,-0.0152,9.8066,0.0068,0.027,-0.0295,-11.87,-43.56,-3.62,196.9,-85.19,130.14
53.05108,-1.765805,241.46,12.83,4,46.5,18 / 19,810214,2019-11-06 12:55:51:922,0.8477,-2.2783,9.7653,-0.0008,0.0233,9.8066,0.0817,-0.2857,0.1346,-11.44,-44.19,-4.56,190,-85.13,127.49
53.05108,-1.765805,241.46,12.83,4,46.5,18 / 19,810314,2019-11-06 12:55:52:022,-0.2267,-2.5598,9.8272,0.0204,-0.0116,9.8066,0.0616,-0.2156,0.0684,-11,-43.31,-4.44,192.43,-84.86,126.43
53.05108,-1.765805,241.46,12.83,4,46.5,18 / 19,810415,2019-11-06 12:55:52:123,-2.0797,0.8642,9.8474,0.0168,-0.0074,9.8066,0.0795,-0.1189,-0.003,-11.5,-43.31,-4,193.51,-84.61,128.06
53.05108,-1.765805,241.46,12.83,4,46.5,18 / 19,810514,2019-11-06 12:55:52:222,-1.9795,-3.209,9.2995,0.016,0.0114,9.8066,0.045,-0.2014,0.0964,-11.12,-43.69,-3.75,193.6,-84.3,128.56
53.05108,-1.765805,241.46,12.83,4,46.5,18 / 19,810615,2019-11-06 12:55:52:323,-3.6257,-1.0111,9.8961,0.0063,-0.0117,9.8066,-0.0955,0.0773,-0.0435,-11.5,-44.37,-4.12,193.19,-84.21,128.07
53.05108,-1.765805,241.46,12.83,4,46.5,18 / 19,810714,2019-11-06 12:55:52:422,-5.3146,-2.7492,9.2512,-0.0236,0.0035,9.8066,-0.0742,-0.0266,0.0182,-10.31,-44.06,-4.31,190.82,-84.05,127.12
53.05108,-1.765805,241.46,12.83,4,46.5,18 / 19,810814,2019-11-06 12:55:52:522,-7.7059,-3.0442,9.2532,-0.0061,-0.0041,9.8066,-0.1546,0.1414,-0.011,-11.37,-44.25,-4.44,190.98,-83.93,125.25
53.05108,-1.765805,241.46,12.83,4,46.5,18 / 19,810915,2019-11-06 12:55:52:623,-3.7199,-0.5778,9.5093,-0.0398,0.003,9.8065,-0.066,0.0939,-0.0588,-10,-43.94,-3.69,188.69,-83.97,124.16
53.05108,-1.765805,241.46,12.83,4,46.5,18 / 19,811014,2019-11-06 12:55:52:722,-4.8349,-1.9385,9.5495,-0.0255,0.0031,9.8066,-0.0073,0.0332,-0.0048,-10.19,-43.94,-4.12,186.12,-83.98,120.51
53.05108,-1.765805,241.46,12.83,4,46.5,18 / 19,811114,2019-11-06 12:55:52:822,-3.7017,-1.91,10.1647,-0.0128,-0.002,9.8065,-0.0574,-0.0138,0.0061,-10.12,-44.12,-4.69,181.94,-84.12,119.28
53.05108,-1.765805,241.46,12.83,4,46.5,18 / 19,811214,2019-11-06 12:55:52:922,-2.8994,1.1608,9.6338,0.0006,-0.0137,9.8065,-0.0894,-0.1029,0.0943,-10.37,-43.75,-4.62,181.57,-84.11,118.77
53.05108,-1.765805,241.46,12.83,4,46.5,18 / 19,811314,2019-11-06 12:55:53:022,-2.7552,-2.7549,9.6383,0.0099,-0.0301,9.8065,0.0633,-0.1682,0.082,-9.94,-43.87,-3.75,184.38,-83.91,118.06
53.05108,-1.765805,241.46,12.83,4,46.5,18 / 19,811414,2019-11-06 12:55:53:122,-3.3785,-0.5141,9.7457,0.0185,0.0173,9.8066,0.0722,0.0877,-0.0499,-10.12,-44.44,-3.62,185.12,-83.8,119.14
53.051704,-1.764472,241.14,7.49,4,57.48,19 / 19,811514,2019-11-06 12:55:53:222,-2.2628,-0.2406,9.5781,0.0027,0.0248,9.8065,-0.0714,0.1265,0.0463,-9.62,-43.87,-4.62,181.56,-83.67,118.79
53.051704,-1.764472,241.14,7.49,4,57.48,19 / 19,811614,2019-11-06 12:55:53:322,-3.8596,-0.7255,9.7312,0.0022,0.001,9.8066,-0.0073,0.2452,-0.1289,-9,-44.31,-4.19,183.35,-83.48,118.98
53.051704,-1.764472,241.14,7.49,4,57.48,19 / 19,811714,2019-11-06 12:55:53:422,-1.6237,-3.0673,9.4892,0.0009,0.0174,9.8066,0.0428,-0.1968,0.1294,-9.5,-44.44,-4.31,183.11,-83.19,118.69
53.051704,-1.764472,241.14,7.49,4,57.48,19 / 19,811814,2019-11-06 12:55:53:522,-2.7814,-1.2467,9.9887,0.0077,-0.013,9.8065,0.0278,0.1233,0.0772,-9.56,-44.69,-4.94,182.2,-83.25,119.79
53.051704,-1.764472,241.14,7.49,4,57.48,19 / 19,811915,2019-11-06 12:55:53:623,-4.1182,3.5152,10.1778,-0.0148,0.0656,9.8064,0.0022,-0.3273,0.2093,-9.25,-44,-4.31,184.35,-83.33,120.54
53.051704,-1.764472,241.14,7.49,4,57.48,19 / 19,812015,2019-11-06 12:55:53:723,-2.9626,0.0647,9.879,-0.0127,0.043,9.8065,0.0324,-0.1433,0.2433,-8.87,-44.19,-4.81,180.5,-82.92,119.81
53.051704,-1.764472,241.14,7.49,4,57.48,19 / 19,812115,2019-11-06 12:55:53:823,-4.6051,3.1999,9.8682,-0.0227,0.0569,9.8064,0.017,-0.0455,0.1304,-8.94,-44.12,-5.44,180.96,-83.03,120.5
53.051704,-1.764472,241.14,7.49,4,57.48,19 / 19,812215,2019-11-06 12:55:53:923,-0.9212,-2.2711,9.2669,-0.0009,0.0342,9.8065,0.0364,-0.1744,0.299,-9.12,-43.81,-5.87,178.03,-82.79,120.73
53.051704,-1.764472,241.14,7.49,4,57.48,19 / 19,812315,2019-11-06 12:55:54:023,-3.9644,1.1788,9.5487,-0.0024,-0.0174,9.8065,0.011,0.0685,0.1997,-9.31,-44.06,-5.87,179.77,-83.31,123.35
53.051704,-1.764472,241.14,7.49,4,57.48,19 / 19,812415,2019-11-06 12:55:54:123,-0.6451,-4.1101,9.7652,-0.0136,-0.011,9.8065,-0.0437,-0.2529,0.3467,-10,-44.25,-5.5,186.21,-83.89,125.33
53.051704,-1.764472,241.14,7.49,4,57.48,19 / 21,812515,2019-11-06 12:55:54:223,-4.1835,0.8678,9.4057,0.0089,-0.0513,9.8065,-0.0433,0.3496,0.0329,-9.62,-44.37,-6.37,185.04,-84.59,127.77
53.051704,-1.764472,241.14,7.49,4,57.48,19 / 21,812614,2019-11-06 12:55:54:322,-2.9297,-0.4104,9.3511,-0.0047,-0.0122,9.8066,-0.0229,0.0072,0.2133,-10.19,-43.44,-6.75,185.05,-85.33,131.48
53.051704,-1.764472,241.14,7.49,4,57.48,19 / 21,812714,2019-11-06 12:55:54:422,-3.2334,0.9359,9.3821,0.046,-0.0635,9.8063,-0.083,0.5004,-0.0573,-10.31,-43.69,-7.5,187.79,-85.85,134.78
53.051704,-1.764472,241.14,7.49,4,57.48,19 / 21,812814,2019-11-06 12:55:54:522,-1.2999,-0.9563,10.1357,0.0105,-0.0461,9.8065,-0.0062,0.186,0.1188,-10.87,-42.94,-7.75,194.81,-86.63,143.53
53.051704,-1.764472,241.14,7.49,4,57.48,19 / 21,812914,2019-11-06 12:55:54:622,-0.0673,-3.1926,9.7928,0.0371,-0.0564,9.8063,0.0261,0.4081,-0.0974,-10.87,-43,-7.75,207.5,-87.14,157.67
53.051704,-1.764472,241.14,7.49,4,57.48,19 / 21,813015,2019-11-06 12:55:54:723,-0.2423,-1.1823,9.5175,0.0248,-0.0128,9.8065,-0.026,0.3309,-0.0281,-11.25,-43.12,-7.12,213.67,-87.12,161.37
53.051704,-1.764472,241.14,7.49,4,57.48,19 / 21,813115,2019-11-06 12:55:54:823,0.6345,-1.6126,9.9586,0.0302,-0.0322,9.8065,0.0113,0.304,-0.1056,-11.56,-43.87,-7.69,216.19,-87.2,164.89
53.051704,-1.764472,241.14,7.49,4,57.48,19 / 21,813215,2019-11-06 12:55:54:923,-1.1309,0.2482,10.6252,0.0124,-0.0116,9.8066,-0.0256,0.4115,-0.1513,-10.19,-42.94,-8.56,212.69,-87.29,169.34
53.051704,-1.764472,241.14,7.49,4,57.48,19 / 21,813315,2019-11-06 12:55:55:023,0.7423,-0.3658,10.2135,-0.0029,0.0007,9.8066,0.0348,0.2322,-0.0889,-10.25,-43.31,-8.69,207.8,-87.25,163.86
53.051704,-1.764472,241.14,7.49,4,57.48,19 / 21,813415,2019-11-06 12:55:55:123,-1.8126,1.0398,9.4004,0.0138,-0.0039,9.8066,-0.0256,0.3696,-0.1162,-9.56,-43.06,-9.44,204.82,-87.18,160.56
53.051704,-1.764472,241.14,7.49,4,57.48,19 / 19,813515,2019-11-06 12:55:55:223,-1.1741,-0.2013,9.2825,-0.0054,-0.0114,9.8066,0.0196,0.1103,0.0698,-9.75,-43.5,-9.19,202.94,-87.28,158.29
53.051704,-1.764472,241.14,7.49,4,57.48,19 / 19,813614,2019-11-06 12:55:55:322,-2.0329,0.3524,9.4747,0.0332,-0.0262,9.8065,-0.0254,0.3008,-0.0265,-8.94,-43.31,-9.31,203.9,-87.39,162.46
53.051704,-1.764472,241.14,7.49,4,57.48,19 / 19,813714,2019-11-06 12:55:55:422,0.7946,-0.3976,9.8871,0.0039,-0.0088,9.8066,0.0208,0.0396,0.1358,-9.81,-42.75,-9.87,209.08,-87.51,167.74
53.051704,-1.764472,241.14,7.49,4,57.48,19 / 19,813814,2019-11-06 12:55:55:522,0.6469,-1.8325,10.12,0.0286,-0.0073,9.8065,0.0275,0.1587,0.0245,-9.12,-43.12,-9.37,215.73,-87.52,175.61
53.051704,-1.764472,241.14,7.49,4,57.48,19 / 19,813914,2019-11-06 12:55:55:622,0.7716,-1.3865,9.7902,-0.0126,0.0099,9.8066,0.0583,0.0337,0.0861,-9.19,-43.56,-9.5,218.05,-87.44,178.5
53.051704,-1.764472,241.14,7.49,4,57.48,19 / 19,814014,2019-11-06 12:55:55:722,0.3947,-0.7528,10.0152,-0.0025,-0.0002,9.8066,0.069,0.1326,-0.0236,-9.31,-44.25,-9.5,216.66,-87.32,177.17
53.051704,-1.764472,241.14,7.49,4,57.48,19 / 19,814114,2019-11-06 12:55:55:822,-0.8045,-0.2819,9.8478,-0.023,0.0118,9.8066,0.0092,-0.0198,0.0434,-8.5,-43.81,-9.94,206.42,-87.26,171.93
53.051704,-1.764472,241.14,7.49,4,57.48,19 / 19,814218,2019-11-06 12:55:55:926,-0.3243,-0.1662,10.0008,-0.0069,0.0044,9.8066,0.0612,0.013,0.0304,-8.44,-43.81,-9.69,205.72,-87.24,171.15
53.051704,-1.764472,241.14,7.49,4,57.48,19 / 19,814314,2019-11-06 12:55:56:022,-0.5774,0.2825,9.8049,-0.0198,0.0177,9.8066,0.0326,0.026,0.0569,-8,-43.06,-9.62,205.31,-87.14,170.72
53.051704,-1.764472,241.14,7.49,4,57.48,19 / 19,814414,2019-11-06 12:55:56:122,0.9935,-1.0014,9.498,-0.0436,0.0197,9.8065,0.0016,-0.1645,0.1068,-8.5,-43.87,-10.5,199.32,-87.06,163.99
53.051704,-1.764472,241.14,7.49,4,57.48,19 / 20,814514,2019-11-06 12:55:56:222,-0.4938,0.0546,9.7466,-0.0142,-0.0023,9.8066,-0.0168,0.1777,-0.0679,-7.94,-44,-10.12,196.63,-87.1,160.81
53.051704,-1.764472,241.14,7.49,4,57.48,19 / 20,814614,2019-11-06 12:55:56:322,0.1431,-0.5726,9.7151,-0.0296,0.0108,9.8066,0.004,0.1002,-0.0692,-7.37,-43.94,-9.69,187.85,-87.1,154.27
53.051704,-1.764472,241.14,7.49,4,57.48,19 / 20,814714,2019-11-06 12:55:56:422,0.8809,0.0228,10.0666,-0.0001,0.003,9.8066,-0.0087,0.1751,-0.0915,-6.87,-44.25,-9.06,185.45,-87,148.66
53.051704,-1.764472,241.14,7.49,4,57.48,19 / 20,814814,2019-11-06 12:55:56:522,0.7691,-0.0212,9.8025,-0.0025,0.0154,9.8066,0.0241,0.0452,0.035,-7.5,-44.19,-9.19,184.37,-86.87,147.41
53.051704,-1.764472,241.14,7.49,4,57.48,19 / 20,814914,2019-11-06 12:55:56:622,0.5405,-0.0035,9.9368,0.0111,-0.0036,9.8065,0.0707,-0.0457,0.0548,-7.31,-44.31,-9.31,186.33,-86.82,149.79
53.051704,-1.764472,241.14,7.49,4,57.48,19 / 20,815014,2019-11-06 12:55:56:722,1.5776,-1.0911,9.9628,0.0072,0.0081,9.8066,0.0002,-0.0205,0.0685,-7,-44.06,-9.5,189.75,-86.77,153.96
53.051704,-1.764472,241.14,7.49,4,57.48,19 / 20,815114,2019-11-06 12:55:56:822,1.3175,-0.0079,9.8319,-0.0143,0.0083,9.8066,0.0027,0.0312,-0.0092,-6.81,-45,-9.56,187.88,-86.82,154.49
53.051704,-1.764472,241.14,7.49,4,57.48,19 / 20,815214,2019-11-06 12:55:56:922,1.3379,0.3175,10.2596,-0.0129,0.0123,9.8066,0.0643,0.0242,-0.0549,-7,-44.19,-9.87,184.4,-86.64,150.32
53.051704,-1.764472,241.14,7.49,4,57.48,19 / 20,815314,2019-11-06 12:55:57:022,1.5695,0.7075,9.8785,-0.0091,0.0227,9.8065,0.0634,0.019,-0.0772,-6.75,-44,-9.25,183.81,-86.24,146.89
53.051704,-1.764472,241.14,7.49,4,57.48,19 / 20,815414,2019-11-06 12:55:57:122,1.8034,1.0803,9.6156,0.0003,0.0268,9.8066,0.0327,-0.0028,-0.048,-6.87,-43.69,-9.37,182.65,-85.93,145.49
53.051704,-1.764472,241.14,7.49,4,57.48,18 / 20,815514,2019-11-06 12:55:57:222,1.6341,-0.0233,9.6595,0.0069,-0.0045,9.8065,0.0052,0.0247,-0.0327,-6.81,-43.56,-9.06,182.06,-85.71,144.77
53.051704,-1.764472,241.14,7.49,4,57.48,18 / 20,815614,2019-11-06 12:55:57:322,0.4975,-0.0492,10.061,-0.0025,-0.023,9.8066,-0.0165,0.0185,-0.0544,-7.44,-43.5,-8.81,181.73,-85.85,144.32
53.051704,-1.764472,241.14,7.49,4,57.48,18 / 20,815714,2019-11-06 12:55:57:422,1.1375,-0.9485,9.5732,-0.0109,-0.0116,9.8066,-0.0304,-0.1084,0.0102,-7.06,-44.19,-8.44,182.83,-85.93,142.47
53.051704,-1.764472,241.14,7.49,4,57.48,18 / 20,815814,2019-11-06 12:55:57:522,0.5239,-0.6759,9.2975,-0.0052,-0.013,9.8066,-0.0214,-0.0626,-0.0261,-7.12,-43.75,-8.19,180.83,-86.12,139.88
53.051704,-1.764472,241.14,7.49,4,57.48,18 / 20,815916,2019-11-06 12:55:57:624,0.5679,-0.9902,9.4457,-0.0244,-0.0046,9.8066,-0.0398,-0.1611,0.0044,-7.5,-44.44,-8.69,174.3,-86.25,135.01
53.051704,-1.764472,241.14,7.49,4,57.48,18 / 20,816014,2019-11-06 12:55:57:722,1.4338,-1.7207,10.4486,-0.038,-0.0032,9.8065,-0.0158,-0.3733,0.1148,-7.25,-43.87,-8.69,168.19,-86.34,127.45
53.051704,-1.764472,241.14,7.49,4,57.48,18 / 20,816114,2019-11-06 12:55:57:822,-0.2204,-0.4401,9.7168,-0.0157,-0.0049,9.8065,0.0284,-0.164,-0.0281,-7.81,-44.56,-8.12,170.09,-86.44,122.68
53.051704,-1.764472,241.14,7.49,4,57.48,18 / 20,816214,2019-11-06 12:55:57:922,0.2238,0.1175,9.9365,-0.022,0.0085,9.8066,0.012,-0.0666,-0.0696,-7.31,-44.69,-8.75,162.01,-86.32,119.68
53.051704,-1.764472,241.14,7.49,4,57.48,18 / 20,816314,2019-11-06 12:55:58:022,0.1798,-0.9284,9.5534,-0.0123,-0.0016,9.8065,-0.0235,-0.1187,-0.0107,-7.25,-44.94,-9,159.77,-86.32,116.91
53.051704,-1.764472,241.14,7.49,4,57.48,18 / 20,816415,2019-11-06 12:55:58:123,0.095,-0.2164,9.8334,-0.0189,-0.0284,9.8065,-0.0131,-0.0862,-0.0159,-7.87,-44.56,-8.94,158.77,-86.38,112.27
53.051704,-1.764472,241.14,7.49,4,57.48,19 / 21,816515,2019-11-06 12:55:58:223,0.545,-1.0214,9.8303,0.0064,-0.0097,9.8066,0.0069,-0.1746,0.0036,-8.19,-44.12,-8.37,159.82,-86.47,110.13
53.051704,-1.764472,241.14,7.49,4,57.48,19 / 21,816614,2019-11-06 12:55:58:322,0.5643,0.2972,10.3633,-0.0185,-0.0373,9.8065,-0.0094,-0.0019,-0.0586,-7.94,-43.37,-8.69,153.12,-86.63,106.08
53.051704,-1.764472,241.14,7.49,4,57.48,19 / 21,816714,2019-11-06 12:55:58:422,0.9034,-1.2473,9.3825,-0.0123,-0.0087,9.8066,-0.0026,-0.121,0.008,-8,-43.62,-8.69,151.24,-86.63,103.72
53.051704,-1.764472,241.14,7.49,4,57.48,19 / 21,816814,2019-11-06 12:55:58:522,0.6651,0.2333,9.8016,-0.0026,-0.0235,9.8065,-0.0148,-0.0546,-0.0837,-7.81,-44.12,-8.81,148.07,-86.65,99.98
53.051704,-1.764472,241.14,7.49,4,57.48,19 / 21,816915,2019-11-06 12:55:58:623,1.0436,-0.7941,9.7775,-0.0102,-0.0097,9.8066,-0.016,-0.1798,0.0121,-8.12,-43.94,-8.81,144.56,-86.59,95.73
53.051704,-1.764472,241.14,7.49,4,57.48,19 / 21,817015,2019-11-06 12:55:58:723,1.1012,0.4245,9.8799,-0.007,-0.0153,9.8066,-0.0117,-0.1033,-0.0219,-8.94,-43.75,-8.37,148.2,-86.61,93.35
53.051704,-1.764472,241.14,7.49,4,57.48,19 / 21,817115,2019-11-06 12:55:58:823,1.2349,0.2956,9.8663,-0.0079,-0.0048,9.8066,-0.0225,-0.2085,0.0406,-8.87,-43.62,-7.62,145.83,-86.64,90.59
53.051704,-1.764472,241.14,7.49,4,57.48,19 / 21,817215,2019-11-06 12:55:58:923,1.6708,0.3033,9.9036,-0.0029,-0.0082,9.8066,-0.0105,-0.1896,0.0466,-9.06,-43.81,-7.75,142.36,-86.7,86.67
53.051704,-1.764472,241.14,7.49,4,57.48,19 / 21,817315,2019-11-06 12:55:59:023,1.2687,-0.0816,9.9374,-0.0201,0.0032,9.8065,-0.0216,-0.2208,0.0861,-9.37,-44.06,-7.56,139.12,-86.79,83.1
53.051704,-1.764472,241.14,7.49,4,57.48,19 / 21,817414,2019-11-06 12:55:59:122,1.1897,-1.2359,9.8268,-0.0177,-0.0073,9.8066,-0.0558,-0.2272,0.025,-9.37,-44.19,-7.37,138.34,-86.73,77.85
53.051704,-1.764472,241.14,7.49,4,57.48,19 / 20,817515,2019-11-06 12:55:59:223,0.9265,-0.1013,9.7655,-0.0225,-0.0063,9.8066,-0.0317,-0.2245,0.0176,-9.81,-43.37,-7.31,134.9,-86.64,71.51
53.051704,-1.764472,241.14,7.49,4,57.48,19 / 20,817615,2019-11-06 12:55:59:323,1.3241,-0.5015,9.6311,-0.0154,-0.0069,9.8066,-0.0295,-0.2356,0.0544,-10.25,-43.87,-7.31,131.65,-86.61,67.53
53.051704,-1.764472,241.14,7.49,4,57.48,19 / 20,817714,2019-11-06 12:55:59:422,1.2305,-0.1809,9.6614,-0.0078,-0.0236,9.8066,-0.0364,-0.162,0.0379,-10.5,-43.94,-7.62,123.15,-86.66,62.2
53.051704,-1.764472,241.14,7.49,4,57.48,19 / 20,817814,2019-11-06 12:55:59:522,1.1984,-1.0482,9.8402,-0.0037,-0.0242,9.8066,-0.0437,-0.2963,0.0478,-10.94,-44.19,-7.25,121.16,-86.76,54.29
53.051704,-1.764472,241.14,7.49,4,57.48,19 / 20,817915,2019-11-06 12:55:59:623,0.6413,-0.469,9.8081,-0.0133,-0.0227,9.8066,-0.0344,-0.1874,0.0366,-11.25,-43.12,-6.81,115.03,-86.83,48
53.051704,-1.764472,241.14,7.49,4,57.48,19 / 20,818014,2019-11-06 12:55:59:722,0.8387,-1.4282,9.7481,-0.0044,-0.0177,9.8065,-0.0661,-0.2124,0.0499,-11.25,-42.87,-7.19,107.65,-86.81,40.07
53.051704,-1.764472,241.14,7.49,4,57.48,19 / 20,818114,2019-11-06 12:55:59:822,0.8753,-1.219,9.6897,-0.0034,0.0036,9.8066,-0.0387,-0.3466,0.0882,-11.5,-42.75,-6.56,103.65,-86.77,35.7
53.051704,-1.764472,241.14,7.49,4,57.48,19 / 20,818214,2019-11-06 12:55:59:922,0.7692,-0.8011,9.9186,-0.0066,-0.0147,9.8065,0.0099,-0.2873,0.0338,-11.62,-43.25,-6.5,104.85,-86.74,31.28
53.051704,-1.764472,241.14,7.49,4,57.48,19 / 20,818314,2019-11-06 12:56:00:022,0.3289,0.6768,9.7139,-0.0129,0.0028,9.8066,0.0045,-0.3246,0.0757,-11.62,-42.19,-6.56,97.7,-86.75,28.16
53.051704,-1.764472,241.14,7.49,4,57.48,19 / 20,818414,2019-11-06 12:56:00:122,0.5743,-0.3419,9.8172,-0.0078,-0.0048,9.8066,-0.0115,-0.2963,0.0582,-12.19,-42.31,-6.19,98.6,-86.68,24.83
53.051704,-1.764472,241.14,7.49,4,57.48,20 / 21,818514,2019-11-06 12:56:00:222,0.2533,-0.085,9.8062,-0.0052,-0.0076,9.8066,0.0045,-0.28,0.055,-12.5,-42.81,-6.19,95.56,-86.67,21.42
53.051704,-1.764472,241.14,7.49,4,57.48,20 / 21,818614,2019-11-06 12:56:00:322,0.7614,-0.7556,10.0109,-0.003,-0.0078,9.8066,0.0018,-0.3029,0.052,-13.12,-43,-5.44,96.45,-86.66,17.2
53.051704,-1.764472,241.14,7.49,4,57.48,20 / 21,818714,2019-11-06 12:56:00:422,0.39,0.0302,9.7493,-0.0007,-0.0093,9.8066,-0.0218,-0.2308,0.0063,-13.19,-42.44,-4.44,96.69,-86.67,13.53
53.051704,-1.764472,241.14,7.49,4,57.48,20 / 21,818814,2019-11-06 12:56:00:522,1.0171,-0.6558,9.9171,-0.0018,-0.0018,9.8066,0.0026,-0.27,0.048,-13.44,-42.87,-5.25,90.79,-86.65,11.41
53.051704,-1.764472,241.14,7.49,4,57.48,20 / 21,818915,2019-11-06 12:56:00:623,0.6658,-0.1397,9.7153,-0.0037,-0.0108,9.8066,-0.0003,-0.2098,-0.0034,-13.69,-43,-4.5,92.94,-86.63,8.9
53.051704,-1.764472,241.14,7.49,4,57.48,20 / 21,819014,2019-11-06 12:56:00:722,0.7694,-0.7207,9.773,-0.0047,-0.0043,9.8066,0.0266,-0.2534,0.0458,-14,-42.75,-4.31,89.91,-86.62,5.83
53.051704,-1.764472,241.14,7.49,4,57.48,20 / 21,819114,2019-11-06 12:56:00:822,0.7032,-0.2413,9.8454,-0.0012,-0.0118,9.8066,0.0045,-0.1921,0.0083,-13.87,-42.56,-3.31,91.18,-86.66,3.19
53.051704,-1.764472,241.14,7.49,4,57.48,20 / 21,819214,2019-11-06 12:56:00:922,0.7103,-0.021,9.8492,0.0032,-0.0082,9.8066,-0.0105,-0.2129,-0.002,-14.56,-42.81,-3.62,84.34,-86.66,0
53.051704,-1.764472,241.14,7.49,4,57.48,20 / 21,819314,2019-11-06 12:56:01:022,0.6016,0.1912,9.8513,0.0059,-0.0147,9.8066,-0.0244,-0.1533,-0.0125,-14.56,-42.69,-3.56,81.25,-86.68,-2.98
53.051704,-1.764472,241.14,7.49,4,57.48,20 / 21,819415,2019-11-06 12:56:01:123,0.9071,0.004,9.838,-0.0012,-0.0098,9.8066,0.0063,-0.1769,0.0053,-14,-42.31,-3.19,82.82,-86.65,-4.9
53.051704,-1.764472,241.14,7.49,4,57.48,19 / 20,819514,2019-11-06 12:56:01:222,1.0742,-0.6351,9.7865,0.0015,-0.0198,9.8065,-0.0075,-0.1404,-0.0217,-14.06,-42.81,-2.25,84.94,-86.68,-7.05
53.051704,-1.764472,241.14,7.49,4,57.48,19 / 20,819614,2019-11-06 12:56:01:322,0.7912,0.2307,9.8031,0.0048,-0.0154,9.8066,-0.0047,-0.161,-0.0112,-14.69,-42.81,-2.44,80.54,-86.69,-11.23
53.051704,-1.764472,241.14,7.49,4,57.48,19 / 20,819714,2019-11-06 12:56:01:422,0.7492,-0.4108,9.7477,0.0071,-0.0203,9.8065,-0.0016,-0.1776,0.0063,-14.94,-42.81,-1.87,75.9,-86.71,-15.64
53.051704,-1.764472,241.14,7.49,4,57.48,19 / 20,819814,2019-11-06 12:56:01:522,1.3384,0.2113,9.7996,0.0023,-0.0194,9.8066,0.0018,-0.1593,-0.0143,-15.06,-42.69,-0.94,77.01,-86.73,-18.36
53.051704,-1.764472,241.14,7.49,4,57.48,19 / 20,819915,2019-11-06 12:56:01:623,0.939,-0.421,9.6891,0.0049,-0.0129,9.8065,-0.0003,-0.222,0.0142,-15.25,-42.31,-0.75,74.35,-86.73,-20.72
53.051704,-1.764472,241.14,7.49,4,57.48,19 / 20,820015,2019-11-06 12:56:01:723,0.9044,0.52,9.7195,0.0036,-0.0245,9.8065,0.0194,-0.1512,-0.015,-15.94,-41.75,-0.44,73.03,-86.75,-25.2
53.051704,-1.764472,241.14,7.49,4,57.48,19 / 20,820114,2019-11-06 12:56:01:822,1.0337,-0.7673,9.9487,0.0044,-0.0085,9.8066,0.004,-0.2553,0.0539,-15.56,-41.25,-0.19,69.52,-86.77,-28.3
53.051704,-1.764472,241.14,7.49,4,57.48,19 / 20,820214,2019-11-06 12:56:01:922,0.7734,-0.5233,9.9352,0.0101,-0.0257,9.8065,0.0079,-0.1504,-0.009,-15.87,-41.75,0.81,68.42,-86.77,-33.08
53.051704,-1.764472,241.14,7.49,4,57.48,19 / 20,820314,2019-11-06 12:56:02:022,0.8792,-1.0749,9.9991,0.0022,-0.0054,9.8066,0.032,-0.2936,0.0714,-15.81,-41.31,1.69,67.79,-86.81,-36.89
53.051704,-1.764472,241.14,7.49,4,57.48,19 / 20,820415,2019-11-06 12:56:02:123,0.8432,0.0967,9.7598,0.0104,-0.0184,9.8066,-0.015,-0.168,0.0036,-16.75,-41.44,1.13,59.13,-86.81,-40.89
53.051815,-1.764274,241.27,1.23,4,92.33,19 / 21,820514,2019-11-06 12:56:02:222,0.5377,-0.1905,9.7808,0.0062,0.0025,9.8066,0.0204,-0.2725,0.0685,-16.06,-42.31,2.31,60.88,-86.8,-43.59
53.051815,-1.764274,241.27,1.23,4,92.33,19 / 21,820614,2019-11-06 12:56:02:322,0.9149,-0.8112,9.9923,0.0081,-0.0164,9.8066,-0.0103,-0.1636,0.0152,-16.31,-42.19,2.31,56.69,-86.83,-47.4
53.051815,-1.764274,241.27,1.23,4,92.33,19 / 21,820714,2019-11-06 12:56:02:422,0.4517,-0.4874,9.8233,0.0078,0.0017,9.8066,-0.0039,-0.2616,0.0713,-16.56,-42.25,2.25,52.97,-86.86,-49.94
53.051815,-1.764274,241.27,1.23,4,92.33,19 / 21,820814,2019-11-06 12:56:02:522,0.5089,-0.1057,9.8828,0.0028,-0.0064,9.8066,0.0197,-0.1776,0.0122,-16.56,-42.12,2.69,53.91,-86.81,-52.42
53.051815,-1.764274,241.27,1.23,4,92.33,19 / 21,820914,2019-11-06 12:56:02:622,0.5024,0.1347,9.8748,0.004,0.0074,9.8066,-0.0066,-0.1921,-0.0107,-16.31,-42.5,3.63,56.51,-86.84,-54.3
53.051815,-1.764274,241.27,1.23,4,92.33,19 / 21,821014,2019-11-06 12:56:02:722,0.1318,0.3113,9.9339,0.0086,0.0079,9.8066,-0.0046,-0.1475,0.0004,-16.06,-42.12,4.06,56.83,-86.97,-53.71
53.051815,-1.764274,241.27,1.23,4,92.33,19 / 21,821114,2019-11-06 12:56:02:822,0.1326,0.4785,9.7529,0.0084,0.0141,9.8065,0,-0.1556,-0.0099,-16.62,-41.94,4.38,55.37,-87.06,-53.74
53.051815,-1.764274,241.27,1.23,4,92.33,19 / 21,821214,2019-11-06 12:56:02:922,0.3029,0.3975,9.7987,0.0081,0.0019,9.8066,0.0231,-0.1316,-0.031,-16.31,-42.06,4.56,60.15,-87.26,-53.2
53.051815,-1.764274,241.27,1.23,4,92.33,19 / 21,821314,2019-11-06 12:56:03:022,0.0322,0.4434,9.7686,0.011,0.0029,9.8066,0.008,-0.1264,0.0106,-16.62,-42.44,4.81,56.54,-87.45,-54.93
53.051815,-1.764274,241.27,1.23,4,92.33,19 / 21,821414,2019-11-06 12:56:03:122,0.2307,0.5738,9.7296,0.0056,-0.0061,9.8066,0.004,-0.0867,0.0078,-15.87,-42.31,4.5,55.56,-87.48,-57.03
53.051815,-1.764274,241.27,1.23,4,92.33,19 / 21,821514,2019-11-06 12:56:03:222,0.0666,0.3107,9.8467,0.0023,-0.0069,9.8066,-0.0019,-0.1085,0.0142,-15.81,-42.75,4.25,49.9,-87.47,-59.21
53.051815,-1.764274,241.27,1.23,4,92.33,19 / 21,821615,2019-11-06 12:56:03:323,-0.1175,0.3503,9.74,0.0028,-0.0053,9.8066,0.0123,-0.0773,0.0044,-16.12,-41.12,4.94,50.55,-87.45,-61.66
53.051815,-1.764274,241.27,1.23,4,92.33,19 / 21,821714,2019-11-06 12:56:03:422,0.1145,0.6012,9.8534,0.0042,0.0012,9.8066,-0.0118,-0.064,-0.0076,-16.56,-41.75,4.81,47.53,-87.48,-63.31
53.051815,-1.764274,241.27,1.23,4,92.33,19 / 21,821814,2019-11-06 12:56:03:522,-0.3056,0.5646,9.8958,0.0051,0.0009,9.8066,-0.0062,-0.0734,0.0142,-16.12,-42.06,4.88,47.73,-87.52,-64.25
53.051815,-1.764274,241.27,1.23,4,92.33,19 / 21,821914,2019-11-06 12:56:03:622,0.1109,0.5616,9.8287,0.0034,-0.0036,9.8066,0.0046,-0.0457,-0.0042,-16.69,-41.81,5.19,44.59,-87.53,-65.95
53.051815,-1.764274,241.27,1.23,4,92.33,19 / 21,822014,2019-11-06 12:56:03:722,0.1818,0.2624,9.7935,0.0055,-0.0032,9.8066,0.0076,-0.0535,0.0129,-16.69,-42.19,5.38,42.47,-87.54,-67.89
53.051815,-1.764274,241.27,1.23,4,92.33,19 / 21,822114,2019-11-06 12:56:03:822,0.3414,0.4119,9.7551,0.0081,0.0008,9.8066,0.0003,-0.0383,0.0238,-16.37,-42.5,5.94,44.87,-87.54,-69.98
53.051815,-1.764274,241.27,1.23,4,92.33,19 / 21,822214,2019-11-06 12:56:03:922,0.3571,0.3421,9.7907,0.0041,-0.0037,9.8066,0.0118,-0.0292,-0.0095,-16.75,-41.94,5.5,40.38,-87.58,-72.74
53.051815,-1.764274,241.27,1.23,4,92.33,19 / 21,822314,2019-11-06 12:56:04:022,0.2759,0.3812,9.8088,0.007,-0.0014,9.8066,0.0079,-0.0495,0.0094,-17.06,-41.81,6,38.26,-87.62,-74.63
53.051815,-1.764274,241.27,1.23,4,92.33,19 / 21,822414,2019-11-06 12:56:04:122,0.1785,0.1111,9.8032,0.0052,0.0012,9.8066,-0.0065,-0.0194,0.0172,-16.62,-41.31,5.69,35.24,-87.66,-77.29
53.051815,-1.764274,241.27,1.23,4,92.33,19 / 20,822514,2019-11-06 12:56:04:222,-0.1603,0.4845,9.8531,0.0031,0.0025,9.8066,-0.0076,-0.0307,0.0006,-17.06,-41.94,5.81,34.33,-87.71,-78.14
53.051815,-1.764274,241.27,1.23,4,92.33,19 / 20,822614,2019-11-06 12:56:04:322,-0.0906,0.2844,9.8782,0.0027,0.0036,9.8066,0.0115,-0.0311,0.01,-16.5,-41.5,5.38,31.68,-87.75,-78.59
53.051815,-1.764274,241.27,1.23,4,92.33,19 / 20,822714,2019-11-06 12:56:04:422,0.0802,0.5817,9.7925,0.004,0.0046,9.8066,-0.0044,-0.0028,0.0158,-16.81,-42,5.81,32.05,-87.76,-80.18
53.051815,-1.764274,241.27,1.23,4,92.33,19 / 20,822814,2019-11-06 12:56:04:522,0.0716,0.0732,9.8333,0.0067,0.0021,9.8066,0.0094,-0.0285,0.0201,-16.56,-42.06,5.25,26.84,-87.82,-81.91
53.051815,-1.764274,241.27,1.23,4,92.33,19 / 20,822914,2019-11-06 12:56:04:622,0.7271,0.3681,9.7128,0.0097,0.0014,9.8066,-0.0131,0.003,0.0002,-16.69,-41.19,6.25,26.74,-87.86,-84.91
53.051815,-1.764274,241.27,1.23,4,92.33,19 / 20,823014,2019-11-06 12:56:04:722,0.6248,-0.0988,9.8346,0.0046,0.0048,9.8066,0.0208,-0.028,0.0184,-16.87,-41.25,5.88,25.45,-87.88,-86.08
53.051815,-1.764274,241.27,1.23,4,92.33,19 / 20,823114,2019-11-06 12:56:04:822,0.6151,0.3337,9.7498,0.0081,0.0009,9.8066,-0.0193,0.0162,-0.0038,-17,-41.75,5.75,23.32,-87.9,-88.07
53.051815,-1.764274,241.27,1.23,4,92.33,19 / 20,823214,2019-11-06 12:56:04:922,0.6482,-0.3683,9.9088,0.0041,0.0054,9.8066,0.017,-0.0272,0.0245,-16.44,-41.56,6,22.28,-87.94,-90.21
53.051815,-1.764274,241.27,1.23,4,92.33,19 / 20,823314,2019-11-06 12:56:05:022,1.0326,-0.1865,9.9132,0.0061,-0.001,9.8066,-0.0075,0.0005,-0.0094,-16.56,-41.44,5.31,15.65,-87.94,-92.03
53.051815,-1.764274,241.27,1.23,4,92.33,19 / 20,823414,2019-11-06 12:56:05:122,0.6927,-0.5132,9.8768,0.0045,0.0052,9.8066,0.0221,-0.0398,0.0103,-16.69,-42.12,5.88,16.87,-87.97,-93.95
53.051815,-1.764274,241.27,1.23,4,92.33,19 / 21,823514,2019-11-06 12:56:05:222,1.0357,0.217,9.8674,0.0036,-0.0014,9.8065,-0.0044,0.0123,-0.0191,-16.87,-41.25,6.19,13.95,-87.99,-96.6
53.051815,-1.764274,241.27,1.23,4,92.33,19 / 21,823614,2019-11-06 12:56:05:322,1.1501,-0.1875,9.8924,0.0021,0.0096,9.8066,0.0256,-0.0233,0.0195,-17.06,-41.69,6.81,16.24,-88.03,-97.41
53.051815,-1.764274,241.27,1.23,4,92.33,19 / 21,823714,2019-11-06 12:56:05:422,0.8399,0.0085,9.8907,0.0039,-0.0015,9.8066,0.0074,0.0104,-0.0081,-17.12,-41.56,6.63,14.08,-88.03,-99.4
53.051815,-1.764274,241.27,1.23,4,92.33,19 / 21,823814,2019-11-06 12:56:05:522,1.3448,-0.1523,9.8011,0.0027,-0.0023,9.8066,0.0046,-0.0085,-0.0186,-17,-41.12,6.88,11.48,-88.03,-101.78
53.051815,-1.764274,241.27,1.23,4,92.33,19 / 21,823914,2019-11-06 12:56:05:622,0.8388,-0.5437,9.8873,0.008,-0.0073,9.8066,-0.0075,0.0215,-0.0131,-16.44,-41.69,6.25,7.79,-88.04,-103.43
53.051815,-1.764274,241.27,1.23,4,92.33,19 / 21,824015,2019-11-06 12:56:05:723,0.7164,-0.1396,9.976,0.0126,-0.0073,9.8066,-0.0183,-0.0009,-0.0118,-16.94,-41.37,6.31,2.26,-87.98,-107.36
53.051815,-1.764274,241.27,1.23,4,92.33,19 / 21,824115,2019-11-06 12:56:05:823,2.5037,-0.7483,9.7758,0.0069,-0.0081,9.8066,-0.0092,-0.0233,-0.0056,-16.56,-41.44,5.94,358.54,-87.91,-110.78
53.051815,-1.764274,241.27,1.23,4,92.33,19 / 21,824215,2019-11-06 12:56:05:923,2.6993,-0.7666,9.784,0.0116,-0.0051,9.8066,0.0335,-0.0088,-0.0051,-16.56,-41.06,6.06,356.52,-87.88,-112.62
53.051815,-1.764274,241.27,1.23,4,92.33,19 / 21,824315,2019-11-06 12:56:06:023,1.8322,-0.6825,9.8055,0.0022,0.0049,9.8066,0.0201,-0.038,0.0068,-16.37,-40.94,6.44,355.35,-87.84,-114.78
53.051815,-1.764274,241.27,1.23,4,92.33,19 / 21,824415,2019-11-06 12:56:06:123,1.7905,-0.3976,9.8408,0.0021,0.0036,9.8066,-0.0188,-0.0299,-0.0115,-16,-40.75,6.56,355.95,-87.89,-117.32
53.051815,-1.764274,241.27,1.23,4,92.33,20 / 22,824515,2019-11-06 12:56:06:223,0.6129,0.0896,9.9357,0.0006,0.0058,9.8066,-0.0187,-0.0475,-0.0099,-16.06,-40.94,6.19,351.25,-87.95,-118.55
53.051815,-1.764274,241.27,1.23,4,92.33,20 / 22,824614,2019-11-06 12:56:06:322,0.8179,0.0512,9.8446,0.0089,0.0001,9.8066,-0.0113,-0.0243,0.0074,-16.5,-42,6.81,352.6,-88.01,-120.41
53.051815,-1.764274,241.27,1.23,4,92.33,20 / 22,824714,2019-11-06 12:56:06:422,1.1272,0.4517,9.7472,-0.0016,-0.0002,9.8066,-0.0034,-0.0223,-0.0028,-16.44,-41.19,7.06,352.4,-87.98,-120.59
53.051815,-1.764274,241.27,1.23,4,92.33,20 / 22,824814,2019-11-06 12:56:06:522,0.1326,-0.4279,9.9274,-0.004,0.0052,9.8066,0.0047,-0.0985,0.0819,-15.81,-41.56,6.38,350.17,-87.96,-119.52
53.051815,-1.764274,241.27,1.23,4,92.33,20 / 22,824914,2019-11-06 12:56:06:622,-0.0097,0.2049,9.8212,-0.0035,-0.0069,9.8066,0.0022,0.0304,0.0152,-16.44,-41,6.75,355.35,-87.82,-117.87
53.051815,-1.764274,241.27,1.23,4,92.33,20 / 22,825014,2019-11-06 12:56:06:722,-0.588,-0.5078,9.9864,0.0025,-0.0003,9.8066,-0.012,-0.053,0.0204,-16.56,-41.31,7.31,354.95,-87.7,-116.98
53.051815,-1.764274,241.27,1.23,4,92.33,20 / 22,825114,2019-11-06 12:56:06:822,-0.3334,0.1141,9.8738,0.0047,-0.0165,9.8065,-0.006,0.0641,-0.051,-16.31,-41.62,6.81,356.24,-87.65,-117.02
53.051815,-1.764274,241.27,1.23,4,92.33,20 / 22,825214,2019-11-06 12:56:06:922,-0.123,0.8896,9.6657,0.0059,0.008,9.8066,0.0067,-0.0052,-0.014,-16.25,-41.19,6.38,350.42,-87.61,-119.17
53.051815,-1.764274,241.27,1.23,4,92.33,20 / 22,825316,2019-11-06 12:56:07:024,-0.4166,0.9424,9.7827,0.0026,-0.0098,9.8066,-0.0203,0.0936,-0.0795,-16.37,-41.31,5.75,348.23,-87.59,-121.14
53.051815,-1.764274,241.27,1.23,4,92.33,20 / 22,825415,2019-11-06 12:56:07:123,-0.7128,0.7147,9.8243,0.0014,-0.0004,9.8066,-0.0039,0.0904,-0.0412,-16.44,-41.5,6.06,346.85,-87.68,-122.43
53.051815,-1.764274,241.27,1.23,4,92.33,19 / 22,825514,2019-11-06 12:56:07:222,-0.9342,-0.233,9.8751,0.001,-0.0077,9.8066,0.0105,0.0335,-0.0264,-16.69,-41.5,6.13,344.67,-87.71,-123.38
53.051815,-1.764274,241.27,1.23,4,92.33,19 / 22,825615,2019-11-06 12:56:07:323,-0.6117,0.8269,9.7769,0.0011,-0.0132,9.8066,-0.0094,0.0901,-0.0482,-16.44,-41.69,6.69,348.29,-87.66,-124.19
53.051815,-1.764274,241.27,1.23,4,92.33,19 / 22,825715,2019-11-06 12:56:07:423,-0.8764,-0.2174,9.9782,0.0004,-0.0046,9.8066,0.0089,-0.0305,0.007,-16.37,-41.44,7.13,347.74,-87.68,-124.72
53.051815,-1.764274,241.27,1.23,4,92.33,19 / 22,825815,2019-11-06 12:56:07:523,-0.097,0.8024,9.6626,0.003,-0.0098,9.8066,-0.0015,0.0688,-0.0443,-16.31,-40.75,6.56,346.78,-87.63,-125.56
53.051815,-1.764274,241.27,1.23,4,92.33,19 / 22,825915,2019-11-06 12:56:07:623,-0.0334,0.5535,9.7524,0.0015,0.0049,9.8066,0.0108,-0.041,0.0225,-16.37,-40.87,6.75,344.6,-87.68,-127.57
53.051815,-1.764274,241.27,1.23,4,92.33,19 / 22,826015,2019-11-06 12:56:07:723,0.1927,0.8655,9.7837,0.0032,-0.0047,9.8066,-0.0004,0.03,-0.0085,-17.19,-41.69,6.25,339.05,-87.65,-128.42
53.051815,-1.764274,241.27,1.23,4,92.33,19 / 22,826115,2019-11-06 12:56:07:823,-0.0829,0.1675,9.7629,0.002,0.0062,9.8066,0.0124,-0.0519,0.0352,-16.5,-41.25,6.69,342.82,-87.65,-129.17
