GPS LATITUDE (degrees), GPS LONGITUDE (degrees), GPS ALTITUDE (m), GPS SPEED (Kmh), GPS ACCURACY (m), GPS ORIENTATION (Â°),GPS SATELLITES IN RANGE, TIME SINCE START (ms), DATE (YYYY-MO-DD HH-MI-SS_SSS), ACCELEROMETER X (m/s²) , ACCELEROMETER Y (m/s²), ACCELEROMETER Z (m/s²), GRAVITY X (m/s²), GRAVITY Y (m/s²), GRAVITY Z (m/s²), GYROSCOPE Yaw (rad/s), GYROSCOPE Pitch (rad/s), GYROSCOPE Roll (rad/s), MAGNETIC FIELD X (Î¼T), MAGNETIC FIELD Y (Î¼T), MAGNETIC FIELD Z (Î¼T), ORIENTATION (Yaw) (Â°), ORIENTATION (Pitch) (Â°), ORIENTATION (Roll ) (Â°)
52.568546,-1.516579,137.05,18.27,4,116.46,22 / 22,8052914,2019-11-06 18:20:33:376,-1.6135,-2.5561,8.7989,-0.0577,-0.0232,9.8064,0.0452,-0.2196,-0.0021,-24.87,-37,22.06,266.35,-88.73,136.41
52.568546,-1.516579,137.05,18.27,4,116.46,22 / 22,8053014,2019-11-06 18:20:33:476,1.0395,2.7414,8.5335,-0.0053,0.0446,9.8065,-0.0991,0.1813,-0.052,-25.06,-36.81,21.69,276.44,-89.16,146.02
52.568546,-1.516579,137.05,18.27,4,116.46,22 / 22,8053114,2019-11-06 18:20:33:576,-1.5334,0.5324,9.0906,0.0283,-0.0003,9.8065,-0.0646,0.294,-0.0024,-25.19,-36.44,22.19,274.62,-89,144.35
52.568546,-1.516579,137.05,18.27,4,116.46,22 / 22,8053214,2019-11-06 18:20:33:676,2.9859,1.8212,11.3423,0.0371,0.0165,9.8065,0.1353,0.3244,-0.2728,-25.12,-37.12,22,276.71,-89.09,146.37
52.568546,-1.516579,137.05,18.27,4,116.46,22 / 22,8053314,2019-11-06 18:20:33:776,-0.572,0.8742,9.248,0.0342,0.028,9.8066,0.0825,-0.2178,0.0124,-25,-36.44,22.38,266.74,-88.98,136.49
52.568546,-1.516579,137.05,18.27,4,116.46,22 / 22,8053414,2019-11-06 18:20:33:876,2.873,3.5694,10.5495,-0.0516,-0.0072,9.8065,-0.1738,0.1832,0.0866,-24.87,-36.81,21.5,261.65,-89.34,131.03
52.568546,-1.516579,137.05,18.27,4,116.46,22 / 22,8053513,2019-11-06 18:20:33:975,-0.0882,-0.6122,9.5645,0.0036,0.0228,9.8066,-0.1222,-0.7663,0.6211,-24.19,-36.69,21.94,252.97,-89.02,121.52
52.568546,-1.516579,137.05,18.27,4,116.46,22 / 22,8053613,2019-11-06 18:20:34:075,-3.2598,-5.2668,10.1447,-0.0571,-0.0937,9.806,0.2567,-0.0665,-0.0486,-24.87,-36.56,22.38,252.42,-88.88,122.26
52.568546,-1.516579,137.05,18.27,4,116.46,22 / 22,8053713,2019-11-06 18:20:34:175,-3.3481,-3.8048,11.0402,0.0406,-0.0086,9.8065,0.3012,-1.0128,0.4299,-24.25,-36.25,21.75,267.78,-89.12,136.24
52.568546,-1.516579,137.05,18.27,4,116.46,22 / 22,8053813,2019-11-06 18:20:34:275,-2.5205,-2.9766,10.1037,-0.018,-0.1198,9.8059,0.0833,-0.465,0.2948,-25.75,-36.25,22.13,244.74,-89.31,115.16
52.568546,-1.516579,137.05,18.27,4,116.46,23 / 23,8053913,2019-11-06 18:20:34:375,6.3549,5.3791,9.4159,-0.0472,-0.0414,9.8064,-0.0168,-0.8968,0.5091,-25.19,-36.62,21.75,294.92,-89.45,164.12
52.568546,-1.516579,137.05,18.27,4,116.46,23 / 23,8054013,2019-11-06 18:20:34:475,1.4035,-0.3493,10.7734,-0.0807,-0.0837,9.8059,0.0897,-0.6192,0.3351,-25.12,-36.75,22.06,340.88,-89.46,-150.27
52.568546,-1.516579,137.05,18.27,4,116.46,23 / 23,8054114,2019-11-06 18:20:34:576,2.4737,3.8797,8.8358,0.0038,-0.0484,9.8065,0.0674,-0.5495,0.2217,-25.25,-36.44,21.44,303.38,-89.47,173.85
52.568546,-1.516579,137.05,18.27,4,116.46,23 / 23,8054213,2019-11-06 18:20:34:675,-2.7303,-3.6874,10.2679,-0.032,-0.0487,9.8064,0.0535,-0.5682,0.3411,-25,-36.62,21.88,274.24,-89.5,143.44
52.568546,-1.516579,137.05,18.27,4,116.46,23 / 23,8054314,2019-11-06 18:20:34:776,0.8132,1.1805,9.65,-0.0437,-0.0404,9.8065,-0.0164,-0.3364,0.1905,-25.5,-36.62,21.38,289.07,-89.69,159.37
52.568546,-1.516579,137.05,18.27,4,116.46,23 / 23,8054414,2019-11-06 18:20:34:876,-2.3176,-3.0797,10.7038,-0.0273,-0.0241,9.8065,0.0874,-0.5274,0.2228,-25.37,-36.31,21.56,265.15,-89.59,134.25
52.568546,-1.516579,137.05,18.27,4,116.46,23 / 23,8054514,2019-11-06 18:20:34:976,0.8204,0.6226,9.2432,-0.018,-0.0529,9.8064,0.0938,0.0916,-0.0655,-25.25,-36.62,21.88,300.85,-89.73,169.75
52.568546,-1.516579,137.05,18.27,4,116.46,23 / 23,8054614,2019-11-06 18:20:35:076,-2.4549,-3.6034,9.8477,0.0132,-0.0035,9.8066,0.001,-0.4043,0.231,-25.5,-36.37,21.38,290.81,-89.66,161.13
52.568546,-1.516579,137.05,18.27,4,116.46,23 / 23,8054714,2019-11-06 18:20:35:176,2.3051,1.6825,10.0265,-0.0386,-0.0358,9.8065,-0.0329,0.1466,-0.035,-25.5,-36.56,20.56,312.35,-89.74,-177.46
52.568546,-1.516579,137.05,18.27,4,116.46,23 / 23,8054814,2019-11-06 18:20:35:276,0.0944,0.6383,9.006,-0.0114,0.0095,9.8066,0.0453,-0.3334,0.119,-25.94,-36.44,20.88,303.8,-89.61,175.21
52.568546,-1.516579,137.05,18.27,4,116.46,23 / 23,8054914,2019-11-06 18:20:35:376,2.3619,1.9848,9.0852,-0.0199,-0.0353,9.8065,-0.0005,0.1716,-0.0874,-25.44,-36.62,20.5,337.39,-89.65,-152.49
52.568546,-1.516579,137.05,18.27,4,116.46,23 / 23,8055014,2019-11-06 18:20:35:476,-2.3731,-1.6393,9.7566,0.008,0.0196,9.8066,0.015,-0.3321,0.1434,-25.12,-37.12,21.06,4.59,-89.75,-125.46
52.568546,-1.516579,137.05,18.27,4,116.46,23 / 23,8055113,2019-11-06 18:20:35:575,0.1217,-1.3615,10.4098,-0.0261,-0.0315,9.8065,-0.0117,0.2632,-0.1033,-25.87,-36.5,21.38,2.36,-89.77,-126.57
52.568546,-1.516579,137.05,18.27,4,116.46,23 / 23,8055213,2019-11-06 18:20:35:675,-1.2193,-2.5819,10.9038,0.0077,0.0238,9.8065,0.0246,-0.1216,0.0531,-25.62,-36.5,20.94,291.01,-89.67,162.41
52.568546,-1.516579,137.05,18.27,4,116.46,23 / 23,8055313,2019-11-06 18:20:35:775,-1.6176,0.056,9.3642,0.0234,-0.0184,9.8065,0.0184,0.4023,-0.1857,-25.44,-36.62,20.94,301.42,-89.44,171.93
52.568546,-1.516579,137.05,18.27,4,116.46,23 / 23,8055414,2019-11-06 18:20:35:876,2.6065,2.9089,10.9042,0.0608,0.0373,9.8063,0.0745,0.1936,-0.1974,-25.56,-36.94,21.31,314.09,-89.55,-174.47
52.568546,-1.516579,137.05,18.27,4,116.46,23 / 23,8055514,2019-11-06 18:20:35:976,1.722,1.1048,10.5235,-0.0133,0.0196,9.8066,-0.0063,0.3959,-0.3035,-25.69,-36.75,20.81,299.59,-89.63,171.02
52.568546,-1.516579,137.05,18.27,4,116.46,23 / 23,8055614,2019-11-06 18:20:36:076,-0.204,0.0964,8.3414,-0.0153,0.0446,9.8065,-0.2072,0.0739,0.0264,-25.62,-36.75,20.88,315.24,-89.72,-173.47
52.568546,-1.516579,137.05,18.27,4,116.46,23 / 23,8055714,2019-11-06 18:20:36:176,-0.5967,-3.3276,10.904,0.0014,-0.0103,9.8066,-0.1291,0.3893,-0.1504,-25.37,-36.69,21.5,319.47,-89.77,-171.71
52.568546,-1.516579,137.05,18.27,4,116.46,23 / 23,8055813,2019-11-06 18:20:36:275,-1.125,-2.7481,10.1502,0.0257,0.0343,9.8065,0.0957,0.1306,-0.1394,-25.44,-36.81,21.31,293.36,-89.61,163.73
52.568546,-1.516579,137.05,18.27,4,116.46,23 / 23,8055914,2019-11-06 18:20:36:376,-1.6525,-2.8007,10.3621,0.0153,0.0247,9.8066,0.0937,0.4366,-0.3623,-25.25,-36.75,21.44,312.56,-89.71,-177.23
52.568546,-1.516579,137.05,18.27,4,116.46,23 / 23,8056013,2019-11-06 18:20:36:475,2.1442,2.7492,9.5931,0.0385,0.0531,9.8064,-0.1611,0.3789,-0.1376,-25.81,-36.62,21.06,330.01,-89.75,-158.78
52.568546,-1.516579,137.05,18.27,4,116.46,23 / 23,8056114,2019-11-06 18:20:36:576,-1.3766,-1.3416,9.1058,0.0042,0.0463,9.8065,-0.1808,0.3187,-0.0806,-25.12,-36.44,21.69,262.47,-89.64,131.51
52.568546,-1.516579,137.05,18.27,4,116.46,23 / 23,8056214,2019-11-06 18:20:36:676,2.6249,2.8009,10.0652,-0.0015,0.0357,9.8066,-0.0015,0.482,-0.3031,-25.12,-36.75,21.44,244.16,-89.62,114.52
52.568546,-1.516579,137.05,18.27,4,116.46,23 / 23,8056314,2019-11-06 18:20:36:776,-1.5053,-2.5135,9.7753,0.0536,0.046,9.8063,0.0343,0.083,-0.1387,-25.25,-36.62,21.44,244.24,-89.57,114.65
52.568546,-1.516579,137.05,18.27,4,116.46,23 / 23,8056414,2019-11-06 18:20:36:876,0.1441,1.8508,8.9976,0.0223,0.0029,9.8066,-0.0657,0.3004,-0.1587,-24.87,-36.75,21.19,232.5,-89.67,102.77
52.568546,-1.516579,137.05,18.27,4,116.46,23 / 23,8056514,2019-11-06 18:20:36:976,-0.7502,-2.4001,10.7633,0.0043,0.0372,9.8066,-0.0702,0.0214,0.0037,-25,-37.12,21.63,234.22,-89.52,103.3
52.568546,-1.516579,137.05,18.27,4,116.46,23 / 23,8056614,2019-11-06 18:20:37:076,-0.9493,1.0616,9.586,-0.025,0.0161,9.8066,-0.0978,0.3578,-0.1432,-25.12,-36.87,21.5,252.73,-89.39,122.03
52.568546,-1.516579,137.05,18.27,4,116.46,23 / 23,8056713,2019-11-06 18:20:37:175,-0.5486,-3.5855,10.9091,0.0337,0.039,9.8065,0.0979,-0.0435,-0.0046,-24.94,-36.56,21.06,236.28,-89.3,106.9
52.568546,-1.516579,137.05,18.27,4,116.46,23 / 23,8056814,2019-11-06 18:20:37:276,2.9886,2.2226,8.9404,0.0064,-0.001,9.8066,-0.0607,0.4346,-0.1624,-24.75,-36.37,21.44,243.69,-89.47,114.18
52.568546,-1.516579,137.05,18.27,4,116.46,23 / 23,8056914,2019-11-06 18:20:37:376,2.1767,1.0253,9.8275,0.0013,0.0465,9.8065,-0.1186,-0.1725,0.3279,-25.06,-36.62,21.44,223.6,-89.49,93.96
52.568546,-1.516579,137.05,18.27,4,116.46,23 / 23,8057013,2019-11-06 18:20:37:475,4.4934,2.0614,10.0901,-0.0208,-0.0187,9.8065,0.0671,0.3926,-0.2376,-25.37,-37,21.5,278.25,-89.58,147.36
52.568546,-1.516579,137.05,18.27,4,116.46,23 / 23,8057114,2019-11-06 18:20:37:576,1.028,-3.0271,9.9226,0.006,0.0178,9.8065,-0.0287,-0.207,0.0924,-25.37,-36.19,21.94,318.63,-89.58,-172.42
52.568546,-1.516579,137.05,18.27,4,116.46,23 / 23,8057214,2019-11-06 18:20:37:676,-2.7541,-2.2225,9.8321,-0.0489,-0.0248,9.8064,-0.1435,0.2032,0.0362,-25.31,-36.75,21.75,6.24,-89.74,-125.14
52.568546,-1.516579,137.05,18.27,4,116.46,23 / 23,8057313,2019-11-06 18:20:37:775,-2.5001,-2.2921,9.3883,-0.0062,0.0183,9.8065,-0.0535,-0.5399,0.2798,-25.87,-36.37,21.31,57.73,-89.67,-71.5
52.568546,-1.516579,137.05,18.27,4,116.46,23 / 23,8057414,2019-11-06 18:20:37:876,0.4258,-2.1138,10.0761,-0.0378,-0.0483,9.8064,0.0985,-0.1584,0.0816,-25.75,-36.75,21.38,52.76,-89.41,-76.69
52.568546,-1.516579,137.05,18.27,4,116.46,23 / 23,8057514,2019-11-06 18:20:37:976,2.3701,3.2417,9.2433,-0.0024,-0.0156,9.8066,0.0248,-0.3717,0.1261,-25.25,-37.06,21.06,69.01,-89.54,-61.5
52.568546,-1.516579,137.05,18.27,4,116.46,23 / 23,8057613,2019-11-06 18:20:38:075,0.5623,-0.1373,9.8937,-0.005,-0.0493,9.8065,0.0415,-0.2909,0.1563,-25.44,-36.62,21.63,86.23,-89.66,-45.49
52.568546,-1.516579,137.05,18.27,4,116.46,23 / 23,8057718,2019-11-06 18:20:38:180,3.5326,1.7498,9.9779,-0.0103,-0.0474,9.8065,-0.0876,-0.1612,0.0812,-25.44,-36.5,21.13,28.76,-89.6,-101.49
52.568546,-1.516579,137.05,18.27,4,116.46,23 / 23,8057814,2019-11-06 18:20:38:276,-0.2051,-1.188,10.7323,-0.0099,-0.0215,9.8065,0.1442,-0.3554,0.1397,-25.56,-36.44,21.88,16.47,-89.72,-113.85
52.568546,-1.516579,137.05,18.27,4,116.46,23 / 23,8057914,2019-11-06 18:20:38:376,1.5596,2.4247,9.5976,-0.0156,0.0342,9.8066,0.0353,0.1916,-0.0964,-25.5,-36.31,21.75,38.98,-89.48,-92.72
52.568546,-1.516579,137.05,18.27,4,116.46,23 / 23,8058014,2019-11-06 18:20:38:476,-2.8112,-0.7097,8.2868,0.0051,0.0063,9.8066,0.016,0.0341,0.0251,-26.12,-36.81,21.5,60.09,-89.52,-70.6
52.568546,-1.516579,137.05,18.27,4,116.46,23 / 23,8058114,2019-11-06 18:20:38:576,1.108,-3.5343,11.9932,-0.0472,-0.0668,9.8062,0.1266,0.2606,-0.2118,-26,-36.06,21.25,54.55,-89.01,-75.25
52.568546,-1.516579,137.05,18.27,4,116.46,23 / 23,8058214,2019-11-06 18:20:38:676,1.6334,1.2199,8.8087,0.0258,-0.0445,9.8065,-0.1695,0.4668,0.0035,-25.94,-36.37,21.38,45.73,-89.05,-83.93
52.568546,-1.516579,137.05,18.27,4,116.46,23 / 23,8058314,2019-11-06 18:20:38:776,-2.3013,-4.3875,9.4321,0.0215,-0.0318,9.8065,-0.1604,-0.0953,0.0918,-25.94,-36.69,22.75,48.35,-88.87,-84.05
52.568546,-1.516579,137.05,18.27,4,116.46,23 / 23,8058414,2019-11-06 18:20:38:876,2.0449,3.6248,8.0144,-0.0289,-0.0394,9.8065,-0.1704,0.5721,-0.2128,-25.94,-35.5,21.44,48.23,-88.75,-81.68
52.568546,-1.516579,137.05,18.27,4,116.46,23 / 23,8058514,2019-11-06 18:20:38:976,-1.0645,0.1646,9.6155,-0.0045,0.0289,9.8066,0.0563,-0.2804,0.158,-26.12,-35.62,21.63,54.33,-89,-76.77
52.568546,-1.516579,137.05,18.27,4,116.46,23 / 23,8058614,2019-11-06 18:20:39:076,6.0074,6.2898,8.1279,-0.0309,-0.1145,9.8059,-0.0043,0.797,-0.4024,-25.75,-35.94,21.56,48.94,-89.02,-82.08
52.568546,-1.516579,137.05,18.27,4,116.46,23 / 23,8058714,2019-11-06 18:20:39:176,-2.4712,-4.1591,11.0622,-0.0062,0.0357,9.8065,0.1667,-0.6373,0.3143,-26.19,-35.44,21.38,21.67,-89.28,-107.54
52.568546,-1.516579,137.05,18.27,4,116.46,23 / 23,8058814,2019-11-06 18:20:39:276,-1.8792,-2.544,11.7837,-0.0424,-0.0828,9.8062,-0.0529,0.4718,-0.186,-25.75,-36.06,21.25,22.67,-89.07,-106.64
52.568546,-1.516579,137.05,18.27,4,116.46,22 / 22,8058914,2019-11-06 18:20:39:376,-1.7443,-5.4985,10.4532,-0.0006,0.0806,9.8063,0.1864,-0.7613,0.3226,-25.44,-36.44,21.81,22.5,-89.02,-109.26
52.568546,-1.516579,137.05,18.27,4,116.46,22 / 22,8059014,2019-11-06 18:20:39:476,-1.5096,-0.9297,9.8686,-0.0292,-0.0119,9.8065,0.0709,-0.1256,0.116,-25.87,-36.31,21.31,40.75,-89.15,-88.78
52.568546,-1.516579,137.05,18.27,4,116.46,22 / 22,8059113,2019-11-06 18:20:39:575,4.6047,5.2335,8.1351,0.0327,0.0907,9.8061,0.2515,-0.8079,0.3074,-25.87,-36.56,22.06,51.46,-89.44,-79.26
52.568546,-1.516579,137.05,18.27,4,116.46,22 / 22,8059214,2019-11-06 18:20:39:676,-0.2268,-1.7951,9.5568,0.0437,0.0441,9.8064,0.2037,-0.8833,0.4734,-25.94,-36,21.69,16.12,-89.26,-114.33
52.568546,-1.516579,137.05,18.27,4,116.46,22 / 22,8059314,2019-11-06 18:20:39:776,6.3189,4.2447,10.3525,0.0546,0.1071,9.8058,0.05,-0.6745,0.415,-25.69,-36.25,21.25,11.07,-88.63,-118.15
52.568546,-1.516579,137.05,18.27,4,116.46,22 / 22,8059414,2019-11-06 18:20:39:876,-6.0642,-6.3374,10.1472,0.0477,0.0807,9.8062,-0.0894,-0.9001,0.5407,-25.94,-36.19,21.94,12.81,-89.16,-117.62
52.568546,-1.516579,137.05,18.27,4,116.46,22 / 22,8059514,2019-11-06 18:20:39:976,4.5187,3.8994,9.499,0.069,0.0633,9.8061,-0.0798,-0.4666,0.3497,-25.56,-36.75,20.94,29.63,-88.87,-99.92
52.568546,-1.516579,137.05,18.27,4,116.46,22 / 22,8059614,2019-11-06 18:20:40:076,-1.4529,-3.8475,10.104,0.0327,0.1085,9.806,0.1614,-0.9167,0.3821,-24.94,-36.94,21.44,17.13,-89.22,-113.16
52.568546,-1.516579,137.05,18.27,4,116.46,22 / 22,8059714,2019-11-06 18:20:40:176,3.5551,5.4937,9.0557,0.0009,0.0533,9.8064,0.2266,-0.1947,0.0099,-25.81,-36.25,21.63,6.33,-89.19,-124
52.568546,-1.516579,137.05,18.27,4,116.46,22 / 22,8059814,2019-11-06 18:20:40:276,-2.6273,-3.8789,10.4741,0.0597,0.0898,9.806,-0.083,-0.8044,0.4823,-26.31,-36.19,21.31,353.13,-89.22,-135.69
52.568546,-1.516579,137.05,18.27,4,116.46,23 / 23,8059914,2019-11-06 18:20:40:376,2.0132,1.9525,10.3784,0.0485,0.0549,9.8064,-0.0194,-0.3712,0.1943,-26.25,-36.56,21.13,11.93,-89.07,-117.21
52.568546,-1.516579,137.05,18.27,4,116.46,23 / 23,8060013,2019-11-06 18:20:40:475,-4.6167,-2.5722,8.3559,0.0893,0.0598,9.806,-0.1981,-0.5552,0.4383,-25.56,-36.37,21.25,0.86,-89.29,-128.08
52.568546,-1.516579,137.05,18.27,4,116.46,23 / 23,8060114,2019-11-06 18:20:40:576,4.1367,2.3166,10.883,0.0819,0.0451,9.8062,-0.0162,-0.355,0.2111,-25.56,-36.31,21.25,15.85,-89.04,-113.36
52.568546,-1.516579,137.05,18.27,4,116.46,23 / 23,8060214,2019-11-06 18:20:40:676,0.6855,0.4116,9.836,0.0247,0.0369,9.8065,0.1165,-0.3546,0.1341,-24.94,-35.81,21.56,350.84,-89.17,-140.37
52.568546,-1.516579,137.05,18.27,4,116.46,23 / 23,8060314,2019-11-06 18:20:40:776,0.6946,1.4207,9.8152,0.0297,0.0299,9.8065,0.004,-0.4678,0.2432,-25.87,-36.94,21.5,334.46,-89.01,-155.31
52.568546,-1.516579,137.05,18.27,4,116.46,23 / 23,8060414,2019-11-06 18:20:40:876,-3.2051,-4.1733,10.7885,-0.0179,0.0221,9.8066,0.2931,-0.3367,0.2219,-25.75,-36.06,22.44,348.22,-88.9,-141.78
52.568546,-1.516579,137.05,18.27,4,116.46,23 / 23,8060513,2019-11-06 18:20:40:975,-2.3977,-2.9691,9.4694,-0.0229,0.0986,9.806,0.2281,-0.7738,0.3656,-26,-36.44,21.38,349.55,-88.33,-139.05
52.568546,-1.516579,137.05,18.27,4,116.46,23 / 23,8060614,2019-11-06 18:20:41:076,-2.6054,-2.9868,10.6096,-0.0211,0.0068,9.8066,0.0616,-0.3428,0.1587,-26.25,-36.94,21.25,351.49,-88.49,-137.19
52.568546,-1.516579,137.05,18.27,4,116.46,23 / 23,8060714,2019-11-06 18:20:41:176,3.2464,3.6303,8.696,0.0453,0.0799,9.8061,0.1402,-0.5531,0.3063,-25.37,-36.31,21.31,352.74,-88.33,-137.05
52.568546,-1.516579,137.05,18.27,4,116.46,23 / 23,8060814,2019-11-06 18:20:41:276,-0.0811,0.763,9.873,0.0315,0.0299,9.8065,0.0259,-0.6142,0.2576,-25.44,-35.87,21.88,339.07,-88.48,-151.69
52.568546,-1.516579,137.05,18.27,4,116.46,23 / 23,8060917,2019-11-06 18:20:41:379,2.8416,4.5467,7.0686,0.038,0.1119,9.8059,-0.0715,-0.7193,0.3851,-26.19,-37.12,21.63,321.06,-88.97,-168.47
52.568546,-1.516579,137.05,18.27,4,116.46,23 / 23,8061013,2019-11-06 18:20:41:475,-0.5539,-4.0893,12.2779,-0.0369,0.082,9.8062,0.2783,-0.6373,0.1855,-25.69,-36.06,21,339.27,-89.15,-149.33
52.568546,-1.516579,137.05,18.27,4,116.46,23 / 23,8061113,2019-11-06 18:20:41:575,2.8549,5.004,9.0535,0.0204,0.0688,9.8064,0.2176,-0.522,0.0556,-25.44,-36.37,21.25,332.12,-88.89,-157.33
52.568546,-1.516579,137.05,18.27,4,116.46,23 / 23,8061214,2019-11-06 18:20:41:676,-1.347,-1.2935,8.7139,0.0656,0.0765,9.8061,-0.0578,-0.7121,0.521,-25.69,-36.62,21.44,305.35,-88.93,177.39
52.568546,-1.516579,137.05,18.27,4,116.46,23 / 23,8061314,2019-11-06 18:20:41:776,5.0287,5.0218,10.8275,0.0556,0.0671,9.8062,-0.0808,-0.4547,0.235,-25.19,-36.06,21.19,298.42,-88.95,169.41
52.568546,-1.516579,137.05,18.27,4,116.46,23 / 23,8061414,2019-11-06 18:20:41:876,-3.1861,-2.8341,9.8232,0.0608,0.0798,9.8061,0.0608,-0.7222,0.4794,-25.75,-36.37,21.56,300.64,-89.06,171.26
52.568546,-1.516579,137.05,18.27,4,116.46,23 / 23,8061514,2019-11-06 18:20:41:976,2.1601,3.4362,9.5081,0.0282,0.0595,9.8064,-0.0128,-0.3307,0.2199,-25.31,-35.94,21.06,327.77,-88.91,-161.61
52.568546,-1.516579,137.05,18.27,4,116.46,23 / 23,8061614,2019-11-06 18:20:42:076,0.5204,-0.2217,9.7122,-0.0015,0.0507,9.8065,0.106,-0.3762,0.1541,-25.44,-36.31,21.5,315.5,-89.15,-175.2
52.568546,-1.516579,137.05,18.27,4,116.46,23 / 23,8061714,2019-11-06 18:20:42:176,2.1163,2.2694,8.5286,-0.0005,0.0533,9.8064,-0.0097,-0.4021,0.2422,-25.44,-36.56,21,320.74,-88.97,-168.54
52.568546,-1.516579,137.05,18.27,4,116.46,23 / 23,8061814,2019-11-06 18:20:42:276,-2.2985,-0.8987,8.937,0.0001,0.0176,9.8066,-0.0559,-0.3122,0.1776,-25.12,-36.12,21.06,332.46,-89.3,-157.22
52.56788,-1.514279,138.41,20.02,4,115.66,22 / 23,8061914,2019-11-06 18:20:42:376,-1.4142,-0.9912,9.7423,0.0418,0.0385,9.8065,0.0141,0.4072,-0.214,-25.62,-36.06,20.75,342.27,-89.18,-146.39
52.56788,-1.514279,138.41,20.02,4,115.66,22 / 23,8062014,2019-11-06 18:20:42:476,0.4086,0.5028,10.3754,0.0142,0.0211,9.8066,0.0142,0.1354,-0.2005,-25.94,-37.06,21.13,335.12,-89.17,-153.42
52.56788,-1.514279,138.41,20.02,4,115.66,22 / 23,8062113,2019-11-06 18:20:42:575,-1.0499,1.9723,8.8158,-0.0221,0.0142,9.8066,-0.2372,0.2414,0.0598,-25.75,-37.31,21,345.79,-89.36,-142.96
52.56788,-1.514279,138.41,20.02,4,115.66,22 / 23,8062213,2019-11-06 18:20:42:675,1.5533,1.4,12.2098,-0.0136,0.0132,9.8066,-0.2937,-0.225,0.1403,-25.31,-36.31,20.63,324.72,-89.19,-164.79
52.56788,-1.514279,138.41,20.02,4,115.66,22 / 23,8062314,2019-11-06 18:20:42:776,3.2008,-0.9196,12.0125,-0.0613,-0.0225,9.8064,0.13,-0.0543,0.1701,-25.5,-36.44,21.81,317.98,-89.06,-172.68
52.56788,-1.514279,138.41,20.02,4,115.66,22 / 23,8062413,2019-11-06 18:20:42:875,-1.8024,0.4044,8.2722,0.0551,-0.0182,9.8064,0.0851,0.1353,-0.016,-25.56,-36.12,21.19,322.52,-88.93,-165.71
52.56788,-1.514279,138.41,20.02,4,115.66,22 / 23,8062513,2019-11-06 18:20:42:975,2.8888,1.2158,10.8972,0.0834,0.0088,9.8063,0.1728,0.1502,-0.153,-25.81,-36.25,21.13,317.29,-88.58,-170.59
52.56788,-1.514279,138.41,20.02,4,115.66,22 / 23,8062614,2019-11-06 18:20:43:076,1.0905,-1.2732,10.5327,-0.0018,-0.0099,9.8066,0.0678,0.1476,-0.0029,-26,-36.5,21.38,326.22,-88.56,-161.84
52.56788,-1.514279,138.41,20.02,4,115.66,22 / 23,8062713,2019-11-06 18:20:43:175,0.3375,1.0221,9.4321,-0.0053,0.016,9.8066,-0.0914,0.1825,-0.0578,-25.75,-36.37,21.56,329.56,-88.51,-159.87
52.56788,-1.514279,138.41,20.02,4,115.66,22 / 23,8062814,2019-11-06 18:20:43:276,-1.4668,-0.1399,8.6727,0.0206,0.0254,9.8065,0.063,-0.0417,0.1486,-25.75,-36.12,21.13,323.76,-88.72,-164.34
52.56788,-1.514279,138.41,20.02,4,115.66,22 / 23,8062914,2019-11-06 18:20:43:376,-0.2693,3.4673,9.4131,0.0413,0.0142,9.8065,0.0445,0.356,-0.387,-25.12,-36.75,21.31,334.05,-88.9,-155.43
52.56788,-1.514279,138.41,20.02,4,115.66,22 / 23,8063013,2019-11-06 18:20:43:475,-0.203,-2.0215,10.1886,0.0094,0.0418,9.8065,0.1288,-0.1836,0.0722,-25.44,-36.62,21.38,330.9,-89.01,-158.58
52.56788,-1.514279,138.41,20.02,4,115.66,22 / 23,8063115,2019-11-06 18:20:43:577,-1.7957,-1.0415,9.5882,-0.0318,-0.0231,9.8065,-0.178,0.2037,-0.0318,-26,-36.56,21.63,340.84,-89.02,-149.04
52.56788,-1.514279,138.41,20.02,4,115.66,22 / 23,8063214,2019-11-06 18:20:43:676,-1.7055,-2.4479,9.4573,-0.009,0.0264,9.8066,-0.0467,-0.3622,0.2151,-25.87,-36.37,21.38,333.37,-88.99,-155.06
52.56788,-1.514279,138.41,20.02,4,115.66,22 / 23,8063313,2019-11-06 18:20:43:775,-0.6081,0.621,9.8953,-0.0132,-0.0414,9.8065,0.0672,-0.0232,-0.0425,-26,-36.12,21.44,338.42,-88.92,-150.07
52.56788,-1.514279,138.41,20.02,4,115.66,22 / 23,8063415,2019-11-06 18:20:43:877,0.7098,0.2167,10.4524,-0.013,0.0141,9.8065,0.1045,-0.3235,0.0702,-25.62,-36.44,22.06,354.77,-88.8,-135.35
52.56788,-1.514279,138.41,20.02,4,115.66,22 / 23,8063514,2019-11-06 18:20:43:976,-2.1088,-2.4328,9.551,-0.0314,-0.0328,9.8064,-0.0654,-0.2149,0.1929,-26.5,-36.62,21.69,351.94,-88.75,-138.11
52.56788,-1.514279,138.41,20.02,4,115.66,22 / 23,8063615,2019-11-06 18:20:44:077,-0.9842,-0.9136,9.5888,-0.0119,-0.0085,9.8066,-0.0931,-0.3,0.1579,-26.19,-36.69,21.75,350.31,-88.6,-139.66
52.56788,-1.514279,138.41,20.02,4,115.66,22 / 23,8063714,2019-11-06 18:20:44:176,-1.7251,-2.4126,11.1314,-0.0274,-0.0302,9.8065,0.1333,-0.3103,0.1422,-25,-36.62,21.56,345.15,-88.29,-145.71
52.56788,-1.514279,138.41,20.02,4,115.66,22 / 23,8063813,2019-11-06 18:20:44:275,2.1051,-0.8167,10.0103,0.0174,-0.0424,9.8064,-0.0321,-0.0807,-0.018,-26.12,-36.37,22,338.54,-88.18,-150.98
52.56788,-1.514279,138.41,20.02,4,115.66,22 / 23,8063913,2019-11-06 18:20:44:375,-1.4589,-1.868,10.301,-0.008,-0.0086,9.8066,0.1158,-0.3754,0.1589,-25.56,-35.94,21.94,338.39,-88.29,-151.17
52.56788,-1.514279,138.41,20.02,4,115.66,22 / 23,8064014,2019-11-06 18:20:44:476,0.8957,1.0849,8.8923,-0.0125,-0.0233,9.8066,0.037,0.0771,-0.1187,-26.25,-37.06,21.94,339.99,-88.45,-149.66
52.56788,-1.514279,138.41,20.02,4,115.66,22 / 23,8064114,2019-11-06 18:20:44:576,0.4176,0.4075,9.9012,0.0067,0.0096,9.8066,-0.0331,-0.2349,0.1358,-25.56,-36.19,20.94,339.1,-88.73,-149.33
52.56788,-1.514279,138.41,20.02,4,115.66,22 / 23,8064213,2019-11-06 18:20:44:675,2.4528,1.6174,10.8645,-0.0137,-0.0377,9.8066,0.1013,0.0644,-0.1022,-26.19,-36.62,21.13,344.17,-88.57,-144.32
52.56788,-1.514279,138.41,20.02,4,115.66,22 / 23,8064313,2019-11-06 18:20:44:775,-0.8848,-0.8762,10.6423,0.0234,0.0007,9.8066,0.0262,-0.1313,0.0811,-26.25,-36.31,21.5,335.25,-88.36,-154.25
52.56788,-1.514279,138.41,20.02,4,115.66,22 / 23,8064413,2019-11-06 18:20:44:875,-0.1736,-2.1204,10.4113,0.0125,-0.0151,9.8066,-0.1398,0.321,-0.059,-25.75,-36.31,21.31,324.48,-88.11,-163.25
52.56788,-1.514279,138.41,20.02,4,115.66,22 / 23,8064513,2019-11-06 18:20:44:975,-0.7316,-1.5216,9.5832,0.0271,0.0372,9.8065,0.139,0.0844,-0.1473,-25.56,-36.56,21.63,330.77,-88.32,-158.56
52.56788,-1.514279,138.41,20.02,4,115.66,22 / 23,8064613,2019-11-06 18:20:45:075,-1.1125,-0.804,10.4392,0.0022,0.0083,9.8065,0.1292,0.2603,-0.2083,-25.5,-36.62,21.88,332.55,-88.53,-158.04
52.56788,-1.514279,138.41,20.02,4,115.66,22 / 23,8064713,2019-11-06 18:20:45:175,1.3315,1.2369,7.9322,-0.0039,0.0288,9.8065,-0.233,0.2205,-0.0054,-25.56,-36.62,21.88,324.08,-88.41,-165.13
52.56788,-1.514279,138.41,20.02,4,115.66,22 / 23,8064813,2019-11-06 18:20:45:275,-1.1429,0.9489,8.0751,-0.016,0.0201,9.8066,-0.3843,0.2513,0.027,-25.62,-36.94,21.31,319.19,-88.13,-168.36
52.56788,-1.514279,138.41,20.02,4,115.66,23 / 23,8064917,2019-11-06 18:20:45:379,1.4847,-0.0692,11.482,-0.0369,0.0291,9.8065,0.141,0.0752,-0.0948,-25.31,-36.44,21.69,320.97,-87.99,-169
52.56788,-1.514279,138.41,20.02,4,115.66,23 / 23,8065013,2019-11-06 18:20:45:475,-1.443,-0.3978,8.9191,0.0598,-0.0143,9.8064,-0.0069,0.1309,-0.0995,-26,-36.12,21.56,321.9,-88.08,-167.07
52.56788,-1.514279,138.41,20.02,4,115.66,23 / 23,8065113,2019-11-06 18:20:45:575,-0.7471,-0.5594,9.2704,0.0287,0.0096,9.8065,0.1453,0.0659,-0.134,-25.81,-36.44,22,328.54,-88.23,-160.7
52.56788,-1.514279,138.41,20.02,4,115.66,23 / 23,8065214,2019-11-06 18:20:45:676,-0.691,0.0202,10.0915,0.0091,0.0099,9.8066,0.0341,0.1636,-0.1852,-25.44,-37,21.06,328.5,-88.24,-160.48
52.56788,-1.514279,138.41,20.02,4,115.66,23 / 23,8065314,2019-11-06 18:20:45:776,1.0059,1.8652,9.1857,-0.0054,0.0257,9.8066,-0.0787,0.171,0.0355,-25.31,-36.62,21.94,326.35,-88.15,-163.85
52.56788,-1.514279,138.41,20.02,4,115.66,23 / 23,8065414,2019-11-06 18:20:45:876,-0.9531,0.9201,8.9052,0.035,0.0086,9.8065,-0.1322,0.2321,-0.0487,-25.75,-36.5,21.5,320.11,-87.96,-168.73
52.56788,-1.514279,138.41,20.02,4,115.66,23 / 23,8065513,2019-11-06 18:20:45:975,2.8037,1.128,11.121,0.0376,0.0138,9.8065,0.1694,0.3248,-0.2199,-25.69,-36.81,22,324.54,-87.88,-164.34
52.56788,-1.514279,138.41,20.02,4,115.66,23 / 23,8065613,2019-11-06 18:20:46:075,-3.6595,-1.7083,9.9839,0.0167,0.0333,9.8065,0.0667,0.2391,-0.2805,-25.5,-36.62,22,322.83,-88.02,-167.17
52.56788,-1.514279,138.41,20.02,4,115.66,23 / 23,8065713,2019-11-06 18:20:46:175,-1.5124,0.4763,9.1498,0.0192,0.0389,9.8065,-0.2133,0.2973,0.0529,-25.56,-36.75,21.5,327.86,-87.97,-161.19
52.56788,-1.514279,138.41,20.02,4,115.66,23 / 23,8065813,2019-11-06 18:20:46:275,-0.2799,-1.0031,11.9983,-0.0347,0.0353,9.8064,-0.0982,0.18,-0.0291,-25.25,-36.5,21.69,319.82,-88.14,-170.22
52.56788,-1.514279,138.41,20.02,4,115.66,23 / 23,8065913,2019-11-06 18:20:46:375,0.4505,0.7177,9.0041,0.0014,0.0365,9.8065,-0.0223,0.062,-0.0949,-25.44,-36.37,22.13,310.77,-87.9,-178.84
52.56788,-1.514279,138.41,20.02,4,115.66,23 / 23,8066016,2019-11-06 18:20:46:478,-1.0806,-0.9318,9.0877,0.0029,0.0082,9.8066,-0.1005,-0.0675,0.0749,-25.25,-36.5,21.13,305.73,-87.8,177.68
52.56788,-1.514279,138.41,20.02,4,115.66,23 / 23,8066113,2019-11-06 18:20:46:575,1.007,0.2444,9.3594,-0.0244,0.0202,9.8066,-0.0308,0.051,-0.1084,-24.94,-36.37,21.81,302.23,-87.93,172.79
52.56788,-1.514279,138.41,20.02,4,115.66,23 / 23,8066213,2019-11-06 18:20:46:675,-0.6738,0.1689,8.1118,0.0243,-0.0008,9.8066,0.0909,0.0991,0.0366,-25.19,-36.81,21.38,297.53,-88.09,169.43
52.56788,-1.514279,138.41,20.02,4,115.66,23 / 23,8066314,2019-11-06 18:20:46:776,-0.9933,0.1842,9.0405,0.058,-0.0071,9.8064,0.1201,0.0789,-0.176,-25.62,-36.69,21.38,301.48,-88.44,174.04
52.56788,-1.514279,138.41,20.02,4,115.66,23 / 23,8066413,2019-11-06 18:20:46:875,-0.4815,-0.1645,10.3644,-0.0227,-0.0094,9.8066,0.117,0.2091,-0.1235,-25.44,-36.87,21.56,314.79,-88.38,-175.27
52.56788,-1.514279,138.41,20.02,4,115.66,23 / 23,8066514,2019-11-06 18:20:46:976,1.086,1.1469,10.3124,0.017,0.0003,9.8066,-0.0251,0.1301,0.0114,-24.81,-36.56,21.56,318.46,-88.14,-171.5
52.56788,-1.514279,138.41,20.02,4,115.66,23 / 23,8066614,2019-11-06 18:20:47:076,-0.0757,-0.9388,9.481,0.026,0.0137,9.8065,-0.0512,0.1364,-0.0425,-25.69,-36.56,21.69,314.88,-87.93,-173.75
52.56788,-1.514279,138.41,20.02,4,115.66,23 / 23,8066714,2019-11-06 18:20:47:176,-0.5433,-1.7601,9.7716,0.0219,-0.009,9.8066,-0.0366,0.2529,-0.1371,-25.56,-36.56,21.63,314.75,-87.81,-173.77
52.56788,-1.514279,138.41,20.02,4,115.66,23 / 23,8066813,2019-11-06 18:20:47:275,-0.2801,-0.639,9.6694,-0.0066,-0.0049,9.8066,-0.0506,0.0163,-0.0127,-25.44,-37.37,21.81,311.81,-87.87,-177.76
52.56788,-1.514279,138.41,20.02,4,115.66,23 / 23,8066913,2019-11-06 18:20:47:375,0.4624,2.2412,9.8516,-0.0027,-0.0129,9.8066,-0.0413,0.1591,-0.0352,-25.81,-36.44,20.69,311.72,-87.99,-175.58
52.56788,-1.514279,138.41,20.02,4,115.66,23 / 23,8067013,2019-11-06 18:20:47:475,-1.3973,-0.0251,8.827,0.0168,0.0022,9.8066,-0.0202,-0.0115,0.0749,-25.31,-36.31,21.13,313.03,-87.89,-175.28
52.56788,-1.514279,138.41,20.02,4,115.66,23 / 23,8067113,2019-11-06 18:20:47:575,0.8645,1.1699,11.3881,-0.044,-0.0214,9.8065,0.1023,0.2535,-0.2116,-25.81,-36,21.31,313.81,-87.74,-173.34
52.56788,-1.514279,138.41,20.02,4,115.66,23 / 23,8067214,2019-11-06 18:20:47:676,-0.3537,0.4632,10.4305,-0.0469,0.0056,9.8065,0.1289,0.0338,-0.1348,-25.5,-36.31,21.44,314.93,-87.8,-173.36
52.56788,-1.514279,138.41,20.02,4,115.66,23 / 23,8067314,2019-11-06 18:20:47:776,-0.4589,2.27,8.5185,0.0066,-0.0208,9.8066,-0.1618,0.2698,-0.0349,-25.62,-36.81,21.13,311.45,-87.67,-175.52
52.56788,-1.514279,138.41,20.02,4,115.66,23 / 23,8067413,2019-11-06 18:20:47:875,-0.4724,0.0361,10.861,0.0195,-0.0129,9.8066,-0.1366,-0.0044,0.0314,-25.44,-36.62,21.81,315.05,-87.85,-174.59
52.56788,-1.514279,138.41,20.02,4,115.66,23 / 23,8067516,2019-11-06 18:20:47:978,1.54,2.3429,10.8675,-0.0071,-0.0064,9.8066,0.0512,0.226,-0.0666,-25.69,-36.81,21.06,312.02,-87.84,-175.11
52.56788,-1.514279,138.41,20.02,4,115.66,23 / 23,8067614,2019-11-06 18:20:48:076,-2.2211,-0.8943,8.2958,-0.0064,0.0029,9.8066,-0.0636,-0.0534,0.0073,-25.37,-37.06,21.06,312.4,-87.89,-175.85
52.56788,-1.514279,138.41,20.02,4,115.66,23 / 23,8067714,2019-11-06 18:20:48:176,1.0702,0.3407,10.7489,-0.0555,-0.0028,9.8064,0.1892,0.166,-0.1412,-25.25,-36.56,21.06,313.92,-88.12,-174.56
52.56788,-1.514279,138.41,20.02,4,115.66,23 / 23,8067814,2019-11-06 18:20:48:276,-0.1673,-0.8272,11.183,-0.0234,-0.0026,9.8066,0.1824,-0.0434,-0.027,-25.25,-36.25,21.44,312.79,-88.01,-175.62
52.56788,-1.514279,138.41,20.02,4,115.66,23 / 23,8067914,2019-11-06 18:20:48:376,0.1887,2.7194,9.966,-0.003,-0.0344,9.8065,-0.0228,0.3023,-0.0704,-25.81,-36.56,20.94,312.92,-87.71,-174.13
52.56788,-1.514279,138.41,20.02,4,115.66,23 / 23,8068014,2019-11-06 18:20:48:476,-1.3052,-0.4219,9.6949,-0.0133,-0.0055,9.8066,-0.0955,0.094,0.0193,-25.81,-36.25,21.31,314.99,-87.76,-172.21
52.56788,-1.514279,138.41,20.02,4,115.66,23 / 23,8068114,2019-11-06 18:20:48:576,-0.0261,1.3947,9.7843,-0.0481,-0.0242,9.8064,0.1154,0.3347,-0.2629,-25.56,-36.62,21.69,320.34,-87.87,-168.4
52.56788,-1.514279,138.41,20.02,4,115.66,23 / 23,8068213,2019-11-06 18:20:48:675,-2.2427,-0.188,10.0998,-0.0217,-0.0109,9.8066,0.2035,0.1018,-0.1068,-25.5,-36.62,20.94,312.23,-87.62,-175.78
52.56788,-1.514279,138.41,20.02,4,115.66,23 / 23,8068314,2019-11-06 18:20:48:776,0.3249,2.0044,9.5402,0.0099,-0.0369,9.8066,-0.1338,0.2502,-0.0815,-25.31,-37,21.38,313.67,-87.38,-174.18
52.56788,-1.514279,138.41,20.02,4,115.66,23 / 23,8068414,2019-11-06 18:20:48:876,-2.1527,-0.7796,9.4809,0.0055,-0.0031,9.8066,-0.0815,-0.0298,0.155,-25.19,-36.56,21.63,316.79,-87.45,-172.59
52.56788,-1.514279,138.41,20.02,4,115.66,23 / 23,8068514,2019-11-06 18:20:48:976,1.0568,1.9127,10.8289,-0.0469,-0.0237,9.8064,0.0741,0.2058,-0.1615,-25.81,-37,21.38,321.88,-87.56,-165.36
52.56788,-1.514279,138.41,20.02,4,115.66,23 / 23,8068614,2019-11-06 18:20:49:076,-0.3427,0.5762,8.6873,-0.0224,0.0078,9.8065,0.0997,-0.1385,0.0472,-25.62,-36.69,20.94,320.22,-87.49,-166.9
52.56788,-1.514279,138.41,20.02,4,115.66,23 / 23,8068715,2019-11-06 18:20:49:177,1.8882,1.8991,9.6508,-0.0315,-0.01,9.8065,0.1332,0.0633,-0.0966,-25.75,-36.87,20.81,323.45,-87.51,-163.81
52.56788,-1.514279,138.41,20.02,4,115.66,23 / 23,8068814,2019-11-06 18:20:49:276,-0.7608,0.8624,9.5342,-0.0011,0.0295,9.8066,0.1348,-0.3134,0.1521,-26,-36.94,21.06,319.69,-87.34,-167.31
52.56788,-1.514279,138.41,20.02,4,115.66,23 / 23,8068914,2019-11-06 18:20:49:376,-2.2921,-2.6857,10.2696,0.001,-0.0099,9.8066,-0.0424,-0.1102,0.073,-25.81,-37.06,22.06,320.91,-87.25,-167.41
52.56788,-1.514279,138.41,20.02,4,115.66,23 / 23,8069014,2019-11-06 18:20:49:476,-0.7927,-1.1877,9.1076,-0.0071,-0.0005,9.8066,-0.0287,-0.4065,0.2046,-25.87,-36.56,21.75,321.53,-87.41,-166.93
52.56788,-1.514279,138.41,20.02,4,115.66,23 / 23,8069114,2019-11-06 18:20:49:576,-0.5013,-2.5795,10.5116,-0.0329,-0.0413,9.8065,0.063,-0.2497,0.1409,-25.37,-36.44,21.31,318.42,-87.42,-169.69
52.56788,-1.514279,138.41,20.02,4,115.66,23 / 23,8069214,2019-11-06 18:20:49:676,1.0199,1.845,9.1445,0.0211,-0.0225,9.8066,0.0186,-0.3051,0.1069,-25.31,-36.75,22.06,323.62,-87.41,-165.99
52.56788,-1.514279,138.41,20.02,4,115.66,23 / 23,8069314,2019-11-06 18:20:49:776,-0.4277,-0.7735,9.9579,0.0093,-0.0379,9.8065,0.1179,-0.2962,0.12,-25.94,-36.25,20.75,323.75,-87.43,-163.51
52.56788,-1.514279,138.41,20.02,4,115.66,23 / 23,8069414,2019-11-06 18:20:49:876,1.7987,1.1262,10.0912,-0.0098,-0.0275,9.8065,-0.0023,-0.3219,0.1696,-25.62,-36.25,22.25,324.14,-87.46,-164.49
52.56788,-1.514279,138.41,20.02,4,115.66,23 / 23,8069514,2019-11-06 18:20:49:976,-2.9572,-3.0531,9.8023,-0.0361,-0.0495,9.8064,0.0417,-0.3674,0.2254,-25.56,-35.87,22.13,318.27,-87.44,-170.14
52.56788,-1.514279,138.41,20.02,4,115.66,23 / 23,8069614,2019-11-06 18:20:50:076,-1.6683,0.1159,8.9425,-0.0007,-0.0232,9.8066,-0.0384,-0.4347,0.2262,-25.5,-36.25,22.25,323.25,-87.37,-166.37
52.56788,-1.514279,138.41,20.02,4,115.66,23 / 23,8069714,2019-11-06 18:20:50:176,-1.3962,-2.5642,11.13,-0.0458,-0.0511,9.8063,0.0872,-0.3541,0.2583,-26.19,-36.19,21.5,321.07,-87.49,-167.47
52.56788,-1.514279,138.41,20.02,4,115.66,23 / 23,8069814,2019-11-06 18:20:50:276,1.3197,1.6672,9.9086,0.0146,-0.032,9.8066,0.0458,-0.2295,0.1308,-25.87,-36.56,21.94,325.29,-87.41,-163.32
52.56788,-1.514279,138.41,20.02,4,115.66,22 / 23,8069917,2019-11-06 18:20:50:379,-0.226,-1.2172,10.3136,-0.0093,-0.0209,9.8065,-0.0189,-0.2402,0.1599,-26.56,-36.94,22.19,326.63,-87.3,-160.94
52.56788,-1.514279,138.41,20.02,4,115.66,22 / 23,8070013,2019-11-06 18:20:50:475,0.6932,0.3334,9.96,-0.0177,-0.0217,9.8066,-0.1363,-0.0633,0.2427,-25.56,-35.94,22.06,325.45,-87.22,-163.09
52.56788,-1.514279,138.41,20.02,4,115.66,22 / 23,8070114,2019-11-06 18:20:50:576,0.0167,1.2252,10.2171,-0.0036,0.0034,9.8066,0.1021,0.0637,-0.1444,-25.56,-36.44,21.81,325.03,-87.22,-163.49
52.56788,-1.514279,138.41,20.02,4,115.66,22 / 23,8070214,2019-11-06 18:20:50:676,0.3333,-0.8843,10.2682,0.0579,0.0075,9.8064,0.2382,0.0495,-0.0877,-25.75,-36.31,21.94,323.79,-87.18,-164.65
52.56788,-1.514279,138.41,20.02,4,115.66,22 / 23,8070314,2019-11-06 18:20:50:776,0.9719,1.6701,9.6691,0.0603,0.009,9.8064,0.0633,0.2005,-0.2062,-25.31,-36.37,22,330.8,-87.25,-159.07
52.56788,-1.514279,138.41,20.02,4,115.66,22 / 23,8070413,2019-11-06 18:20:50:875,-0.0813,-0.3731,9.6167,-0.0206,0.0291,9.8066,-0.0098,0.047,-0.0029,-25.56,-35.87,21.94,327.98,-87.29,-160.71
52.56788,-1.514279,138.41,20.02,4,115.66,22 / 23,8070513,2019-11-06 18:20:50:975,0.9237,2.0181,10.1898,-0.0244,0.0067,9.8066,-0.051,0.2313,-0.0776,-26.25,-36.69,21,325.48,-87.34,-161.75
52.56788,-1.514279,138.41,20.02,4,115.66,22 / 23,8070614,2019-11-06 18:20:51:076,-2.8517,-1.9348,9.3158,0.0459,0.0223,9.8065,0.0126,0.0437,0.0064,-26.12,-36.19,21.94,322.08,-87.16,-166.28
52.56788,-1.514279,138.41,20.02,4,115.66,22 / 23,8070713,2019-11-06 18:20:51:175,2.0829,0.7083,12.0518,0.0465,-0.0013,9.8065,0.1418,0.4064,-0.3003,-25.94,-36.37,21.75,327.2,-87.28,-161.46
52.56788,-1.514279,138.41,20.02,4,115.66,22 / 23,8070813,2019-11-06 18:20:51:275,-1.8112,-1.6671,11.2551,0.02,0.0497,9.8065,0.0828,0.0551,-0.1404,-25.19,-36.37,22.19,326.06,-87.23,-163.59
52.56717,-1.511848,139.36,20,4,115.72,23 / 23,8070914,2019-11-06 18:20:51:376,2.9452,3.1083,8.9587,-0.0269,-0.0164,9.8066,-0.0412,0.5859,-0.2449,-25.75,-36.69,22,328.56,-87.16,-160.04
52.56717,-1.511848,139.36,20,4,115.72,23 / 23,8071014,2019-11-06 18:20:51:476,-4.1855,-4.3909,10.6648,-0.0208,-0.0161,9.8065,-0.0707,0.0734,-0.1358,-25.37,-36.19,21.69,326.21,-87.36,-163.52
52.56717,-1.511848,139.36,20,4,115.72,23 / 23,8071114,2019-11-06 18:20:51:576,-1.0626,2.0437,9.1245,-0.0084,-0.0696,9.8063,-0.1616,0.6377,-0.1085,-25.94,-36.19,21,324.52,-87.4,-162.76
52.56717,-1.511848,139.36,20,4,115.72,23 / 23,8071214,2019-11-06 18:20:51:676,-1.4054,-2.8005,11.88,0.0258,-0.0024,9.8066,0.0022,-0.0718,-0.0848,-25.62,-36.5,21.88,325.27,-87.3,-163.31
52.56717,-1.511848,139.36,20,4,115.72,23 / 23,8071313,2019-11-06 18:20:51:775,0.0507,1.7616,7.6521,0.0273,-0.0598,9.8064,-0.2923,0.3531,-0.0746,-25.87,-36.37,22.13,320.71,-87.24,-167.64
52.56717,-1.511848,139.36,20,4,115.72,23 / 23,8071413,2019-11-06 18:20:51:875,0.9158,0.4659,11.8258,0.0431,0.0095,9.8065,-0.1418,-0.0868,0.2044,-25.81,-36.44,22.19,321.15,-87.36,-167.3
52.56717,-1.511848,139.36,20,4,115.72,23 / 23,8071513,2019-11-06 18:20:51:975,1.7189,0.6991,10.9828,-0.0184,-0.0208,9.8066,0.0126,0.0936,-0.1061,-25.87,-36.25,21.5,320.83,-87.42,-167.65
52.56717,-1.511848,139.36,20,4,115.72,23 / 23,8071613,2019-11-06 18:20:52:075,-3.1823,-1.697,8.6927,-0.0225,0.0108,9.8066,0.2125,-0.1172,0.0841,-25.75,-36,21.25,318.06,-87.35,-168.93
52.56717,-1.511848,139.36,20,4,115.72,23 / 23,8071714,2019-11-06 18:20:52:176,1.0051,0.342,10.0784,-0.0349,-0.0487,9.8064,-0.0471,0.296,-0.2565,-25.31,-36.25,21.5,323.75,-87.2,-165.78
52.56717,-1.511848,139.36,20,4,115.72,23 / 23,8071814,2019-11-06 18:20:52:276,-2.7319,-2.8043,9.6095,-0.0309,0.0029,9.8065,0.0073,-0.1347,0.1018,-25.87,-36.31,21.06,322.11,-87.56,-165.18
52.56717,-1.511848,139.36,20,4,115.72,23 / 23,8071915,2019-11-06 18:20:52:377,4.0077,1.9069,9.9435,-0.0461,-0.0221,9.8065,-0.0331,0.3863,-0.2293,-25.69,-36.12,21.81,328.99,-87.66,-159.95
52.56717,-1.511848,139.36,20,4,115.72,23 / 23,8072013,2019-11-06 18:20:52:475,-0.1707,1.6221,10.0817,0.0109,0.0177,9.8066,0.0942,-0.372,0.1719,-25.81,-36.81,21.94,326.95,-87.8,-161.96
52.56717,-1.511848,139.36,20,4,115.72,23 / 23,8072113,2019-11-06 18:20:52:575,3.3781,3.9112,8.9978,-0.0382,-0.0396,9.8065,0.1179,0.2374,-0.1462,-26.12,-36.25,22.19,327.63,-87.67,-161.27
52.56717,-1.511848,139.36,20,4,115.72,23 / 23,8072213,2019-11-06 18:20:52:675,-0.3143,0.6855,10.2731,-0.0147,0.0578,9.8065,0.1626,-0.6993,0.2631,-25.69,-35.81,22.88,327.07,-87.41,-162.94
52.56717,-1.511848,139.36,20,4,115.72,23 / 23,8072314,2019-11-06 18:20:52:776,-3.4557,-3.8085,9.7304,0.0089,-0.0062,9.8066,-0.0768,0.0321,0.1359,-25.87,-36.69,22,328.77,-87.55,-160.06
52.56717,-1.511848,139.36,20,4,115.72,23 / 23,8072414,2019-11-06 18:20:52:876,-2.2341,-1.5583,9.5443,0.0078,0.0459,9.8065,0.0361,-0.4669,0.1678,-25.56,-36.37,22.5,332.55,-87.81,-157.88
52.56717,-1.511848,139.36,20,4,115.72,23 / 23,8072514,2019-11-06 18:20:52:976,-0.4948,-1.6862,11.9762,-0.0164,0.0107,9.8066,0.2321,-0.1992,0.091,-26,-36.56,22.63,332.44,-87.66,-157.88
52.56717,-1.511848,139.36,20,4,115.72,23 / 23,8072614,2019-11-06 18:20:53:076,0.9643,-0.6179,10.3065,0.009,0.0132,9.8065,0.0501,-0.1118,-0.0435,-25,-36.75,22.19,331.59,-87.38,-158.35
52.56717,-1.511848,139.36,20,4,115.72,23 / 23,8072714,2019-11-06 18:20:53:176,0.1873,-1.8822,10.2271,0.0211,0.0147,9.8066,-0.0155,-0.1678,0.196,-25.31,-36.12,22.69,325.92,-87.44,-165.14
52.56717,-1.511848,139.36,20,4,115.72,23 / 23,8072813,2019-11-06 18:20:53:275,-0.7253,-0.627,9.7377,0.006,0.0098,9.8066,-0.0443,0.0831,0.0761,-25.75,-36.56,22.19,328.86,-87.43,-159.91
52.56717,-1.511848,139.36,20,4,115.72,23 / 23,8072913,2019-11-06 18:20:53:375,-0.1364,0.8655,10.9342,-0.0251,-0.0227,9.8066,0.0635,0.1406,-0.1218,-25.87,-36.25,22.13,331.59,-87.51,-157.38
52.56717,-1.511848,139.36,20,4,115.72,23 / 23,8073015,2019-11-06 18:20:53:477,-0.2722,-0.3415,11.2001,-0.0161,-0.0139,9.8066,0.104,0.2695,-0.1246,-25.62,-36.25,22.25,328.32,-87.51,-160.51
52.56717,-1.511848,139.36,20,4,115.72,23 / 23,8073114,2019-11-06 18:20:53:576,1.7983,1.7109,8.6928,-0.0142,-0.0425,9.8065,-0.1327,0.3567,-0.1728,-25.56,-36,21.75,329.7,-87.46,-159.16
52.56717,-1.511848,139.36,20,4,115.72,23 / 23,8073213,2019-11-06 18:20:53:675,-1.1961,-0.9577,10.5763,-0.0003,-0.0233,9.8066,-0.0663,0.12,-0.0264,-25.94,-36.56,22.25,330.9,-87.74,-158.13
52.56717,-1.511848,139.36,20,4,115.72,23 / 23,8073314,2019-11-06 18:20:53:776,1.1952,0.2899,10.9179,0.0022,-0.0293,9.8065,0.0139,0.1908,-0.1166,-26.25,-36.06,22.44,333.54,-87.62,-155.55
52.56717,-1.511848,139.36,20,4,115.72,23 / 23,8073414,2019-11-06 18:20:53:876,-0.3384,-1.0455,8.5414,0.0174,0.0167,9.8066,-0.0614,-0.124,0.1302,-25.31,-35.62,22.31,326.88,-87.53,-162.99
52.56717,-1.511848,139.36,20,4,115.72,23 / 23,8073514,2019-11-06 18:20:53:976,-0.8133,0.0801,10.7332,-0.0547,0.0029,9.8065,0.0856,0.0795,-0.2017,-24.94,-35.87,22.56,332.23,-87.7,-159.23
52.56717,-1.511848,139.36,20,4,115.72,23 / 23,8073613,2019-11-06 18:20:54:075,0.9946,-1.917,10.6289,-0.0327,0.01,9.8065,0.2414,-0.2642,-0.0776,-25.06,-36.5,22.25,327.17,-87.92,-162.95
52.56717,-1.511848,139.36,20,4,115.72,23 / 23,8073713,2019-11-06 18:20:54:175,-2.5827,-1.0622,10.0562,0.0404,0.0038,9.8065,-0.0183,-0.1671,0.2096,-25,-36.31,22.13,322.88,-87.77,-166.99
52.56717,-1.511848,139.36,20,4,115.72,23 / 23,8073814,2019-11-06 18:20:54:276,2.7708,2.5574,9.875,0.0528,0.0342,9.8064,-0.0007,-0.3577,0.2319,-25.12,-36.06,22,325.35,-87.48,-164.42
52.56717,-1.511848,139.36,20,4,115.72,21 / 23,8073913,2019-11-06 18:20:54:375,2.3712,0.1138,9.295,0.0018,0.0267,9.8066,0.0584,-0.3042,0.1134,-25.12,-36.44,21.81,318.7,-87.45,-170.8
52.56717,-1.511848,139.36,20,4,115.72,21 / 23,8074014,2019-11-06 18:20:54:476,1.1699,2.4936,8.7269,0.004,0.0663,9.8064,0.0331,-0.4022,0.2459,-25.25,-37.44,22,315.23,-87.63,-174.23
52.56717,-1.511848,139.36,20,4,115.72,21 / 23,8074114,2019-11-06 18:20:54:576,-2.6632,-1.711,9.2497,-0.0125,0.025,9.8066,-0.0257,-0.2425,0.1655,-25.56,-37.25,22.06,320.42,-87.71,-168.21
52.56717,-1.511848,139.36,20,4,115.72,21 / 23,8074214,2019-11-06 18:20:54:676,-0.3467,-0.1009,9.9865,0.0349,0.0352,9.8065,0.0303,-0.2419,0.2112,-25,-36.5,22.19,328.83,-87.7,-161.21
52.56717,-1.511848,139.36,20,4,115.72,21 / 23,8074313,2019-11-06 18:20:54:775,-1.6558,0.105,10.087,0.0232,-0.0018,9.8066,0.0161,-0.1467,-0.0005,-25.44,-36.75,22.38,323.55,-87.57,-166.17
52.56717,-1.511848,139.36,20,4,115.72,21 / 23,8074414,2019-11-06 18:20:54:876,1.9025,0.7043,10.3754,0.0192,0.0178,9.8065,-0.0385,-0.1287,0.1035,-25.37,-36.37,22.69,321.77,-87.37,-169.09
52.56717,-1.511848,139.36,20,4,115.72,21 / 23,8074514,2019-11-06 18:20:54:976,0.3688,0.9937,10.6136,0.008,0.0091,9.8066,-0.061,-0.0524,0.0829,-25.87,-36.62,22,317.85,-87.42,-170.48
52.56717,-1.511848,139.36,20,4,115.72,21 / 23,8074614,2019-11-06 18:20:55:076,0.0339,-0.2761,9.5882,0.018,0.0218,9.8065,0.0309,-0.1764,0.0648,-26,-36.37,22.38,315.99,-87.57,-172.44
52.56717,-1.511848,139.36,20,4,115.72,21 / 23,8074714,2019-11-06 18:20:55:176,-1.1669,0.0167,9.6524,-0.0116,0.0041,9.8066,-0.0579,0.0312,-0.0029,-25.25,-36.75,21.88,316.86,-87.62,-172.66
52.56717,-1.511848,139.36,20,4,115.72,21 / 23,8074814,2019-11-06 18:20:55:276,0.2373,-0.1201,9.4649,0.0003,0.0135,9.8066,0.0083,-0.0505,0.1105,-25,-36.56,22,317.55,-87.72,-172.06
52.56717,-1.511848,139.36,20,4,115.72,21 / 23,8074914,2019-11-06 18:20:55:376,-0.976,1.6498,9.7595,-0.0084,-0.0112,9.8065,-0.0275,0.0586,-0.0712,-25.25,-35.56,21.88,320.95,-87.74,-168.84
52.56717,-1.511848,139.36,20,4,115.72,21 / 23,8075013,2019-11-06 18:20:55:475,-0.0885,-0.5576,9.8237,-0.002,-0.0154,9.8066,0.0557,0.1875,-0.0916,-25.81,-36.5,21.31,316.78,-87.68,-170.41
52.56717,-1.511848,139.36,20,4,115.72,21 / 23,8075113,2019-11-06 18:20:55:575,-1.9866,-2.2408,8.9848,0.0095,0.0075,9.8066,0.0641,-0.1122,-0.0885,-25.5,-36.75,22.63,319.57,-87.5,-171.25
52.56717,-1.511848,139.36,20,4,115.72,21 / 23,8075214,2019-11-06 18:20:55:676,1.963,2.1448,9.8234,-0.0255,-0.0169,9.8066,-0.0013,0.1717,-0.1448,-25.69,-36.75,22.25,315.21,-87.45,-173.05
52.56717,-1.511848,139.36,20,4,115.72,21 / 23,8075313,2019-11-06 18:20:55:775,0.3848,1.0496,8.9963,0.0339,0.0355,9.8065,-0.0704,-0.0967,0.1105,-24.87,-36.75,22.44,314.4,-87.48,-174.92
52.56717,-1.511848,139.36,20,4,115.72,21 / 23,8075413,2019-11-06 18:20:55:875,-0.0039,0.9211,9.3157,-0.0045,-0.037,9.8065,-0.0639,0.158,-0.1355,-25.31,-37,22.94,317.54,-87.64,-173.31
52.56717,-1.511848,139.36,20,4,115.72,21 / 23,8075513,2019-11-06 18:20:55:975,-0.4454,0.1555,9.7943,-0.0039,0.001,9.8066,-0.0134,0.0621,0.052,-25.12,-36.19,22.25,318.72,-87.56,-170.86
52.56717,-1.511848,139.36,20,4,115.72,21 / 23,8075613,2019-11-06 18:20:56:075,-0.8171,-0.3982,10.4029,0.0022,-0.0151,9.8066,-0.0203,0.0511,-0.0132,-25.12,-36.37,22.25,320.05,-87.51,-169.54
52.56717,-1.511848,139.36,20,4,115.72,21 / 23,8075713,2019-11-06 18:20:56:175,-0.0131,0.4971,10.2465,0.0014,-0.0179,9.8066,0.0381,0.1225,-0.0765,-25.19,-36.62,22.38,321.62,-87.43,-167.93
52.56717,-1.511848,139.36,20,4,115.72,21 / 23,8075813,2019-11-06 18:20:56:275,0.5581,-1.2554,10.2054,-0.0184,-0.0162,9.8066,-0.0521,0.2829,-0.1114,-25.37,-36.44,22.31,325.06,-87.36,-164.63
52.56717,-1.511848,139.36,20,4,115.72,23 / 23,8075913,2019-11-06 18:20:56:375,-1.1782,2.6217,9.5305,-0.0071,-0.0142,9.8066,-0.1066,0.2138,0,-25.81,-36.25,22.06,324.61,-87.45,-164.04
52.56717,-1.511848,139.36,20,4,115.72,23 / 23,8076013,2019-11-06 18:20:56:475,-0.0154,0.9113,9.0264,-0.0005,-0.021,9.8065,-0.0571,0.2181,-0.0743,-25.37,-36.06,22.06,328.67,-87.6,-161.31
52.56717,-1.511848,139.36,20,4,115.72,23 / 23,8076114,2019-11-06 18:20:56:576,0.7036,0.2331,11.014,-0.0306,-0.002,9.8066,0.1393,0.0791,-0.1144,-25.75,-36.19,22.25,328.95,-87.57,-159.94
52.56717,-1.511848,139.36,20,4,115.72,23 / 23,8076214,2019-11-06 18:20:56:676,-0.9325,-1.1654,9.6857,-0.0254,-0.0134,9.8065,0.0231,0.1663,-0.1437,-25.12,-37.06,22.06,329.04,-87.44,-160.82
52.56717,-1.511848,139.36,20,4,115.72,23 / 23,8076314,2019-11-06 18:20:56:776,-1.3925,-1.6483,10.0682,0.0057,0.0153,9.8066,-0.0862,-0.0968,0.1234,-25.19,-36.37,22.63,328.2,-87.55,-163.03
52.56717,-1.511848,139.36,20,4,115.72,23 / 23,8076414,2019-11-06 18:20:56:876,-0.3963,0.8762,9.6644,-0.0047,-0.0031,9.8066,-0.0116,-0.0051,-0.016,-25.75,-36.19,22.13,329.29,-87.68,-159.67
52.56717,-1.511848,139.36,20,4,115.72,23 / 23,8076514,2019-11-06 18:20:56:976,-0.7279,0.3031,10.0059,-0.0015,0.0177,9.8066,-0.0003,-0.0712,0.0511,-25.56,-36.5,21.81,330.22,-87.71,-158.8
52.56717,-1.511848,139.36,20,4,115.72,23 / 23,8076613,2019-11-06 18:20:57:075,0.1366,0.277,10.6649,-0.0019,0.002,9.8066,0.0487,0.0365,-0.0191,-25.75,-36.31,22.19,330.98,-87.7,-158.05
52.56717,-1.511848,139.36,20,4,115.72,23 / 23,8076713,2019-11-06 18:20:57:175,1.5459,0.11,9.0607,0.0047,-0.0134,9.8066,-0.0999,0.1455,-0.0909,-25.69,-36.75,22.06,331.59,-87.67,-157.42
52.56717,-1.511848,139.36,20,4,115.72,23 / 23,8076813,2019-11-06 18:20:57:275,0.2285,-0.3221,9.0841,-0.0211,-0.0164,9.8066,-0.0954,0.1964,-0.1044,-25.69,-36.06,22.13,331.96,-87.92,-157.23
52.56717,-1.511848,139.36,20,4,115.72,23 / 23,8076914,2019-11-06 18:20:57:376,0.8212,1.4232,9.9546,-0.0132,0.0003,9.8066,0.0009,0.1249,-0.0786,-25.75,-36.19,22.38,339.37,-88.07,-150.14
52.56717,-1.511848,139.36,20,4,115.72,23 / 23,8077014,2019-11-06 18:20:57:476,2.3869,0.4403,10.9434,-0.0531,-0.0292,9.8064,0.1421,0.1866,-0.2485,-25.87,-36.37,22.44,335.85,-88.16,-153.58
52.56717,-1.511848,139.36,20,4,115.72,23 / 23,8077114,2019-11-06 18:20:57:576,-0.5979,-0.9343,9.3928,0.0347,0.0157,9.8065,-0.1369,-0.0531,0.198,-25.25,-36.37,21.69,339.96,-88.19,-150.71
52.56717,-1.511848,139.36,20,4,115.72,23 / 23,8077214,2019-11-06 18:20:57:676,0.6344,-0.6379,10.6944,0.0302,-0.0143,9.8066,0.0081,0.0891,-0.0093,-25.62,-36.69,22.19,341.3,-87.97,-148.22
52.56717,-1.511848,139.36,20,4,115.72,23 / 23,8077313,2019-11-06 18:20:57:775,0.7321,-2.099,10.7756,-0.0232,0.0152,9.8065,0.0547,-0.1333,0.0168,-25.75,-36.12,21.94,341.92,-88.03,-147.66
52.56717,-1.511848,139.36,20,4,115.72,23 / 23,8077413,2019-11-06 18:20:57:875,-1.0213,1.4905,8.8764,-0.0337,0.0198,9.8065,0.0577,0.217,-0.0825,-25.75,-36.06,21.56,344.63,-88.07,-145.06
52.56717,-1.511848,139.36,20,4,115.72,23 / 23,8077513,2019-11-06 18:20:57:975,0.6843,0.5854,10.2063,-0.0105,0.0149,9.8066,-0.0125,-0.0838,-0.0004,-26,-36.12,21.44,346.4,-88.33,-142.1
52.56717,-1.511848,139.36,20,4,115.72,23 / 23,8077613,2019-11-06 18:20:58:075,0.9332,-0.6703,9.6283,0.0097,0.0258,9.8066,-0.0319,0.0328,0.0658,-24.62,-35.81,21.94,347,-88.37,-143.95
52.56717,-1.511848,139.36,20,4,115.72,23 / 23,8077714,2019-11-06 18:20:58:176,2.7205,1.4137,10.6108,-0.0124,-0.0139,9.8066,-0.0517,0.2456,-0.1133,-25.94,-36,21.88,350.4,-88.56,-139.58
52.56717,-1.511848,139.36,20,4,115.72,23 / 23,8077814,2019-11-06 18:20:58:276,-0.6553,0.1414,9.0204,-0.0051,-0.0076,9.8066,0.0668,0.0062,0.0478,-25.75,-36.12,21.75,354.3,-88.58,-135.78
52.56717,-1.511848,139.36,20,4,115.72,22 / 23,8077914,2019-11-06 18:20:58:376,-0.3189,1.0111,9.5116,-0.0582,-0.0159,9.8064,0.1566,0.1668,-0.2354,-25,-36.19,22,353.81,-88.42,-137.36
52.56717,-1.511848,139.36,20,4,115.72,22 / 23,8078014,2019-11-06 18:20:58:476,-1.411,-0.117,9.2139,-0.0508,0.0087,9.8064,0.0933,0.1079,-0.1186,-25.37,-36.37,22.19,341.65,-88.4,-149.14
52.56717,-1.511848,139.36,20,4,115.72,22 / 23,8078114,2019-11-06 18:20:58:576,-0.081,0.047,9.2475,-0.018,-0.0039,9.8066,-0.11,0.0461,-0.0401,-25.94,-36.69,22.06,352.78,-88.63,-137.26
52.56717,-1.511848,139.36,20,4,115.72,22 / 23,8078213,2019-11-06 18:20:58:675,-0.4871,0.07,10.2087,0.0024,-0.0073,9.8066,0.0394,-0.0079,0.0449,-25.19,-36.62,21.81,0.47,-88.83,-130.89
52.56717,-1.511848,139.36,20,4,115.72,22 / 23,8078314,2019-11-06 18:20:58:776,0.5415,0.5204,10.1746,0.0077,-0.0137,9.8066,0.005,0.0343,-0.0685,-25.69,-36.19,21.31,357.28,-88.65,-131.58
52.56717,-1.511848,139.36,20,4,115.72,22 / 23,8078413,2019-11-06 18:20:58:875,-0.4778,0.6002,10.8239,0.0139,-0.0079,9.8066,-0.0336,-0.0289,-0.0268,-25,-36.94,22.44,349.84,-88.59,-141.23
52.56717,-1.511848,139.36,20,4,115.72,22 / 23,8078513,2019-11-06 18:20:58:975,-1.6679,-0.0392,10.3947,-0.0064,0.0187,9.8065,0.0258,0.0221,0.0536,-25.5,-36.37,22.44,353.66,-88.74,-137.54
52.56717,-1.511848,139.36,20,4,115.72,22 / 23,8078613,2019-11-06 18:20:59:075,-0.9882,0.4922,9.7036,0.0057,0.0229,9.8065,-0.0088,-0.119,0.0103,-25.75,-36.44,22.25,354.79,-88.75,-135.32
52.56717,-1.511848,139.36,20,4,115.72,22 / 23,8078713,2019-11-06 18:20:59:175,0.2253,-0.75,9.9117,-0.0088,0.0189,9.8066,0.0634,-0.0506,0.0884,-25.25,-36.5,21.44,352.52,-88.99,-137.36
52.56717,-1.511848,139.36,20,4,115.72,22 / 23,8078813,2019-11-06 18:20:59:275,0.1702,1.9478,9.2455,-0.0039,0.0329,9.8065,0.0375,-0.2159,0.1449,-25.69,-36.44,21.19,353.11,-88.81,-135.66
52.56717,-1.511848,139.36,20,4,115.72,22 / 22,8078914,2019-11-06 18:20:59:376,-0.5857,0.7756,10.297,-0.0078,-0.0186,9.8066,-0.0591,-0.0161,0.0332,-25.06,-36.5,21.31,0.63,-88.87,-129.41
52.56717,-1.511848,139.36,20,4,115.72,22 / 22,8079013,2019-11-06 18:20:59:475,0.1405,0.0402,9.4308,0.0231,0.0225,9.8066,-0.0345,-0.1696,0.1585,-25.37,-36.19,21.44,355.53,-88.92,-134.41
52.56717,-1.511848,139.36,20,4,115.72,22 / 22,8079113,2019-11-06 18:20:59:575,-0.2746,-0.6634,8.4779,-0.0135,0.0015,9.8066,-0.103,-0.0003,-0.0632,-25.44,-36.31,20.94,4.77,-88.9,-125.36
52.56717,-1.511848,139.36,20,4,115.72,22 / 22,8079214,2019-11-06 18:20:59:676,-0.0565,0.2905,9.7277,0.0033,0.0267,9.8065,0.0329,-0.132,0.0811,-26.25,-36.75,20.88,10.74,-89,-118.39
52.56717,-1.511848,139.36,20,4,115.72,22 / 22,8079314,2019-11-06 18:20:59:776,-1.3768,0.5461,9.7791,0.0151,-0.0099,9.8066,-0.0928,-0.011,0.0616,-25.87,-36.31,21.25,13.21,-89.01,-115.96
52.56717,-1.511848,139.36,20,4,115.72,22 / 22,8079413,2019-11-06 18:20:59:875,0.0715,0.8231,11.0257,0.0247,-0.0097,9.8065,-0.0359,-0.0679,0.0816,-25.94,-36.44,21.44,14.34,-88.95,-114.87
52.56717,-1.511848,139.36,20,4,115.72,22 / 22,8079514,2019-11-06 18:20:59:976,0.7217,1.5367,9.6167,-0.0064,-0.0004,9.8066,-0.0713,0.1241,-0.0675,-26,-35.87,21.19,5.4,-88.8,-123.65
52.56717,-1.511848,139.36,20,4,115.72,22 / 22,8079614,2019-11-06 18:21:00:076,-1.442,0.494,8.593,-0.0163,-0.0225,9.8065,-0.1306,0.2183,-0.0414,-25.81,-36.94,22.38,19.44,-88.71,-111.27
52.56717,-1.511848,139.36,20,4,115.72,22 / 22,8079714,2019-11-06 18:21:00:176,1.9942,1.9086,9.7107,-0.0455,-0.015,9.8065,0.0382,0.2989,-0.2103,-25.87,-36.31,22,31.29,-88.7,-99.67
52.56717,-1.511848,139.36,20,4,115.72,22 / 22,8079814,2019-11-06 18:21:00:276,-3.676,-1.8963,9.1209,-0.045,-0.0374,9.8065,0.1289,0.255,-0.2743,-25.87,-36.62,21.38,24.7,-88.94,-104.72
52.56645,-1.509434,140.06,19.85,4,116.6,22 / 22,8079913,2019-11-06 18:21:00:375,1.812,2.682,9.502,-0.0025,-0.0417,9.8066,-0.0346,0.4264,-0.1193,-26.06,-36.81,21.44,15.43,-88.75,-113.87
52.56645,-1.509434,140.06,19.85,4,116.6,22 / 22,8080014,2019-11-06 18:21:00:476,0.0387,-0.783,9.8402,0.0013,0.0007,9.8066,0.029,-0.2369,0.1452,-25.44,-35.94,21.88,19.12,-88.73,-112.68
52.56645,-1.509434,140.06,19.85,4,116.6,22 / 22,8080113,2019-11-06 18:21:00:575,5.1548,4.7556,9.9657,-0.0488,-0.0659,9.8063,-0.0408,0.5486,-0.2594,-25.5,-36.69,21.19,22.76,-88.49,-107.95
52.56645,-1.509434,140.06,19.85,4,116.6,22 / 22,8080214,2019-11-06 18:21:00:676,-4.5683,-3.2629,9.5171,0.0163,0.0396,9.8065,0.1025,-0.4561,0.2753,-24.94,-35.94,21.94,21.01,-88.58,-110.89
52.56645,-1.509434,140.06,19.85,4,116.6,22 / 22,8080314,2019-11-06 18:21:00:776,0.0737,-0.5742,10.5368,-0.0471,-0.0761,9.8062,0.0091,0.56,-0.3327,-25,-36.94,22.25,14.99,-88.54,-116.78
52.56645,-1.509434,140.06,19.85,4,116.6,22 / 22,8080413,2019-11-06 18:21:00:875,-3.0843,-4.9291,10.7695,0.0177,0.0363,9.8065,0.0721,-0.5015,0.2647,-25.31,-36.44,22.06,5.73,-88.83,-125.74
52.56645,-1.509434,140.06,19.85,4,116.6,22 / 22,8080514,2019-11-06 18:21:00:976,1.5553,3.6112,9.3683,-0.0155,-0.069,9.8064,-0.1137,0.4315,-0.1827,-25.56,-36.31,21.19,7.96,-88.51,-121.19
52.56645,-1.509434,140.06,19.85,4,116.6,22 / 22,8080613,2019-11-06 18:21:01:075,1.358,1.7781,10.2647,0.0351,0.0244,9.8065,0.0754,-0.4711,0.2518,-25.44,-36.5,22,11.47,-88.6,-120.19
52.56645,-1.509434,140.06,19.85,4,116.6,22 / 22,8080713,2019-11-06 18:21:01:175,3.9129,4.6095,8.7907,-0.022,-0.0554,9.8064,0.0407,0.4149,-0.2269,-25.37,-36.81,21.63,2.45,-88.44,-128.98
52.56645,-1.509434,140.06,19.85,4,116.6,22 / 22,8080814,2019-11-06 18:21:01:276,-1.5431,-2.226,10.3129,-0.0065,0.0251,9.8065,0.0804,-0.4384,0.1935,-25.81,-36.25,22.06,356.14,-88.42,-133.98
52.56645,-1.509434,140.06,19.85,4,116.6,23 / 23,8080914,2019-11-06 18:21:01:376,-1.6031,-2.0702,9.3935,-0.0206,-0.0304,9.8065,-0.0902,0.1496,-0.0467,-25.62,-36.25,21.63,2.11,-88.42,-128.19
52.56645,-1.509434,140.06,19.85,4,116.6,23 / 23,8081013,2019-11-06 18:21:01:475,-3.6119,-2.8292,8.6834,0.0248,0.054,9.8064,-0.0779,-0.5108,0.3153,-25.87,-36.19,21.13,359.5,-88.73,-129.41
52.56645,-1.509434,140.06,19.85,4,116.6,23 / 23,8081113,2019-11-06 18:21:01:575,0.3692,0.1101,10.7652,-0.0353,-0.0076,9.8065,0.0558,0.0142,-0.0508,-26.06,-36.12,22,13.37,-88.59,-117.21
52.56645,-1.509434,140.06,19.85,4,116.6,23 / 23,8081213,2019-11-06 18:21:01:675,1.8302,2.2091,9.4297,0.0415,0.0465,9.8064,0.065,-0.4263,0.1987,-25.87,-36.31,21.88,10.72,-88.66,-119.79
52.56645,-1.509434,140.06,19.85,4,116.6,23 / 23,8081314,2019-11-06 18:21:01:776,2.27,0.8614,9.9042,-0.0254,0.002,9.8066,0.2053,-0.1078,-0.0497,-25.69,-36.44,22.19,357.42,-88.82,-132.76
52.56645,-1.509434,140.06,19.85,4,116.6,23 / 23,8081414,2019-11-06 18:21:01:876,-0.2488,0.5352,8.4561,-0.0222,0.0517,9.8065,0.179,-0.2863,0.0234,-25.12,-36.62,21.81,348.7,-88.73,-142.37
52.56645,-1.509434,140.06,19.85,4,116.6,23 / 23,8081514,2019-11-06 18:21:01:976,-0.9227,-2.2495,11.0866,-0.0146,0.0058,9.8066,0.0287,-0.2122,0.0469,-24.94,-35.69,21.81,347.46,-88.96,-143.64
52.56645,-1.509434,140.06,19.85,4,116.6,23 / 23,8081614,2019-11-06 18:21:02:076,1.4736,-0.2273,10.4174,0.0193,0.0348,9.8065,0.0393,-0.3609,0.1584,-25.25,-35.81,22.31,337.27,-89.15,-153.72
52.56645,-1.509434,140.06,19.85,4,116.6,23 / 23,8081714,2019-11-06 18:21:02:176,-3.989,-2.629,9.2396,0.0716,0.013,9.8063,-0.1464,-0.4721,0.3741,-25.25,-35.31,21.44,336.85,-88.93,-152.72
52.56645,-1.509434,140.06,19.85,4,116.6,23 / 23,8081814,2019-11-06 18:21:02:276,3.1341,2.5605,8.8157,0.0653,0.0432,9.8063,-0.1806,-0.3731,0.2879,-25.37,-36.62,20.38,355.97,-88.84,-132.59
52.56645,-1.509434,140.06,19.85,4,116.6,23 / 23,8081914,2019-11-06 18:21:02:376,-1.7209,-2.8128,10.7468,-0.0015,0.0154,9.8066,0.1961,-0.4343,0.136,-25.25,-36.62,21.63,354.47,-88.88,-136.76
52.56645,-1.509434,140.06,19.85,4,116.6,23 / 23,8082014,2019-11-06 18:21:02:476,1.8419,2.4719,9.1551,-0.0072,-0.0265,9.8065,0.1138,-0.2521,0.053,-25.56,-36.56,21.5,357.69,-89.08,-132.5
52.56645,-1.509434,140.06,19.85,4,116.6,23 / 23,8082114,2019-11-06 18:21:02:576,-0.7307,-0.561,9.7598,0.0016,-0.0383,9.8065,-0.0016,-0.3455,0.228,-25.31,-36.19,21.38,347.02,-89.12,-142.79
52.56645,-1.509434,140.06,19.85,4,116.6,23 / 23,8082214,2019-11-06 18:21:02:676,2.4335,2.3773,9.9508,-0.0248,-0.0379,9.8065,-0.0224,-0.189,0.1101,-25.25,-36.56,21.63,345.56,-88.84,-145.47
52.56645,-1.509434,140.06,19.85,4,116.6,23 / 23,8082314,2019-11-06 18:21:02:776,-0.9071,-1.8098,9.4686,-0.0315,-0.02,9.8065,-0.0093,-0.3696,0.1944,-25.06,-37.37,21.56,348.51,-88.85,-142.58
52.56645,-1.509434,140.06,19.85,4,116.6,23 / 23,8082414,2019-11-06 18:21:02:876,1.3517,1.1699,9.0047,-0.0195,-0.0305,9.8065,-0.0389,-0.0857,0.0546,-25.44,-36.25,21.56,348.43,-88.86,-142.67
52.56645,-1.509434,140.06,19.85,4,116.6,23 / 23,8082513,2019-11-06 18:21:02:975,-1.3233,-2.0963,10.3232,-0.0123,-0.0133,9.8065,0.0334,-0.3173,0.1441,-25.12,-36.25,21.25,346.54,-89.04,-143.24
52.56645,-1.509434,140.06,19.85,4,116.6,23 / 23,8082613,2019-11-06 18:21:03:075,-0.1078,0.353,9.5422,-0.0054,-0.0273,9.8065,0.0279,0.0446,-0.0469,-25,-36.87,22,345.82,-89.13,-145.29
52.56645,-1.509434,140.06,19.85,4,116.6,23 / 23,8082713,2019-11-06 18:21:03:175,-1.6492,-1.6119,9.8671,-0.0062,-0.0147,9.8066,-0.036,-0.293,0.1861,-25.44,-36.87,22.13,350.64,-88.91,-140.51
52.56645,-1.509434,140.06,19.85,4,116.6,23 / 23,8082813,2019-11-06 18:21:03:275,2.6055,1.7042,10.6149,-0.042,-0.0289,9.8065,-0.0003,-0.1146,0.1136,-25.69,-36.25,21.69,352.59,-88.9,-137.5
52.56645,-1.509434,140.06,19.85,4,116.6,21 / 22,8082914,2019-11-06 18:21:03:376,-0.7103,-1.7395,9.2837,-0.0354,-0.0195,9.8066,-0.0631,-0.2301,0.1539,-25.62,-36.69,21.94,341.07,-88.81,-148.75
52.56645,-1.509434,140.06,19.85,4,116.6,21 / 22,8083013,2019-11-06 18:21:03:475,-0.1378,0.102,9.9941,-0.0112,-0.0205,9.8066,0.0171,0.0769,0.0019,-26.19,-36.87,22,350.88,-88.75,-139.14
52.56645,-1.509434,140.06,19.85,4,116.6,21 / 22,8083113,2019-11-06 18:21:03:575,1.0245,-0.7218,10.6994,0.0315,-0.0025,9.8066,0.0873,-0.0239,-0.0964,-25.19,-36.44,21.75,353.44,-88.91,-137.77
52.56645,-1.509434,140.06,19.85,4,116.6,21 / 22,8083214,2019-11-06 18:21:03:676,0.2932,0.9828,9.634,0.0081,0.0014,9.8066,0.1549,-0.0155,-0.0871,-25.25,-37,21.69,344.57,-88.71,-146.39
52.56645,-1.509434,140.06,19.85,4,116.6,21 / 22,8083314,2019-11-06 18:21:03:776,-1.6738,0.2208,8.5672,-0.036,-0.0114,9.8065,-0.2097,-0.1563,0.2608,-26.12,-36.75,21.19,347.83,-88.66,-140.78
52.56645,-1.509434,140.06,19.85,4,116.6,21 / 22,8083413,2019-11-06 18:21:03:875,0.8509,2.2268,10.1085,-0.0632,-0.02,9.8063,-0.1079,-0.1908,0.1872,-25.75,-36.87,21.25,350.73,-88.66,-137.96
52.56645,-1.509434,140.06,19.85,4,116.6,21 / 22,8083513,2019-11-06 18:21:03:975,-0.6045,-1.1312,9.7071,-0.0128,-0.0062,9.8066,0.0492,-0.2735,0.0894,-25.44,-36.62,22,345.56,-88.58,-145.39
52.56645,-1.509434,140.06,19.85,4,116.6,21 / 22,8083614,2019-11-06 18:21:04:076,1.923,0.4801,9.8661,0.0112,-0.0199,9.8066,0.0707,-0.0181,-0.0423,-25.87,-36.62,21.75,343.32,-88.63,-146.49
52.56645,-1.509434,140.06,19.85,4,116.6,21 / 22,8083714,2019-11-06 18:21:04:176,-2.2915,-1.7768,8.9506,0.0029,0.0142,9.8066,-0.0204,-0.3709,0.163,-25.62,-36.81,22.31,347.84,-88.53,-142.06
52.56645,-1.509434,140.06,19.85,4,116.6,21 / 22,8083814,2019-11-06 18:21:04:276,0.2685,0.1473,10.6724,-0.0493,-0.0519,9.8064,-0.018,0.197,0.1218,-25.31,-36.56,21.94,351.91,-88.42,-139.19
52.56645,-1.509434,140.06,19.85,4,116.6,22 / 22,8083914,2019-11-06 18:21:04:376,-1.5638,-1.5726,11.1196,-0.0141,0.0023,9.8066,-0.095,-0.2069,0.0436,-25.5,-36.31,22.31,348.76,-88.47,-142.26
52.56645,-1.509434,140.06,19.85,4,116.6,22 / 22,8084013,2019-11-06 18:21:04:475,0.5254,-0.0077,9.5104,0.0029,-0.0267,9.8065,-0.1609,0.1695,0.0748,-25.75,-36.44,21.56,340.28,-88.23,-149.31
52.56645,-1.509434,140.06,19.85,4,116.6,22 / 22,8084114,2019-11-06 18:21:04:576,2.2029,0.9864,8.2143,-0.002,0.0405,9.8065,0.0024,0.0237,-0.1805,-25.31,-36.81,21.69,336.86,-88.39,-153.78
52.56645,-1.509434,140.06,19.85,4,116.6,22 / 22,8084214,2019-11-06 18:21:04:676,2.4514,2.2166,9.1285,-0.0007,-0.0117,9.8066,-0.0003,0.3401,-0.2159,-25.62,-37.25,22,341.62,-88.53,-148.11
52.56645,-1.509434,140.06,19.85,4,116.6,22 / 22,8084313,2019-11-06 18:21:04:775,-1.715,0.6958,10.8372,0.0556,0.0044,9.8064,0.1432,-0.0348,-0.0596,-24.81,-36.81,22.13,351.08,-88.53,-140.01
52.56645,-1.509434,140.06,19.85,4,116.6,22 / 22,8084413,2019-11-06 18:21:04:875,-0.2365,-1.9324,10.7846,0.0118,-0.031,9.8065,-0.012,0.3197,-0.1913,-26,-36.44,22.06,335.84,-88.03,-153.53
