GPS LATITUDE (degrees), GPS LONGITUDE (degrees), GPS ALTITUDE (m), GPS SPEED (Kmh), GPS ACCURACY (m), GPS ORIENTATION (Â°),GPS SATELLITES IN RANGE, TIME SINCE START (ms), DATE (YYYY-MO-DD HH-MI-SS_SSS), ACCELEROMETER X (m/s²) , ACCELEROMETER Y (m/s²), ACCELEROMETER Z (m/s²), GRAVITY X (m/s²), GRAVITY Y (m/s²), GRAVITY Z (m/s²), GYROSCOPE Yaw (rad/s), GYROSCOPE Pitch (rad/s), GYROSCOPE Roll (rad/s), MAGNETIC FIELD X (Î¼T), MAGNETIC FIELD Y (Î¼T), MAGNETIC FIELD Z (Î¼T), ORIENTATION (Yaw) (Â°), ORIENTATION (Pitch) (Â°), ORIENTATION (Roll ) (Â°)
52.348835,-2.074244,163.13,26.06,4,18.37,21 / 23,314007,2020-01-08 16:26:28:983,-0.3147,-1.0118,8.6284,-0.0152,-0.0367,9.8065,0.089,0.0037,0.0021,-5.56,-37.37,-9.75,182.26,-83.52,152.08
52.348835,-2.074244,163.13,26.06,4,18.37,21 / 23,314108,2020-01-08 16:26:29:084,2.2418,-0.9728,10.2334,-0.0149,-0.0057,9.8066,0.1259,-0.0961,-0.0512,-6,-37.06,-9.87,181.46,-83.67,151
52.348835,-2.074244,163.13,26.06,4,18.37,21 / 23,314208,2020-01-08 16:26:29:184,-1.2442,2.1056,10.2034,0.009,0.0142,9.8066,-0.1049,-0.073,-0.0777,-5.87,-37.5,-10.19,181.37,-83.66,150.87
52.348835,-2.074244,163.13,26.06,4,18.37,21 / 23,314307,2020-01-08 16:26:29:283,-0.2045,-0.7128,8.7113,-0.0459,0.0612,9.8063,-0.1193,0.0005,-0.0852,-6.19,-37.56,-10,179.98,-83.35,149
52.348835,-2.074244,163.13,26.06,4,18.37,21 / 23,314407,2020-01-08 16:26:29:383,-1.0631,1.2548,10.0079,0.0116,0.0179,9.8065,-0.1205,0.2137,-0.0442,-5.5,-36.81,-10,176.51,-83.45,148.65
52.348835,-2.074244,163.13,26.06,4,18.37,21 / 23,314508,2020-01-08 16:26:29:484,0.2705,1.4892,8.7703,0.0089,0.0393,9.8066,-0.0727,0.2512,-0.0402,-6,-37.12,-10.06,179.5,-83.49,148.35
52.348835,-2.074244,163.13,26.06,4,18.37,21 / 23,314607,2020-01-08 16:26:29:583,4.1392,-1.5266,10.7985,0.0475,-0.0017,9.8065,0.0089,0.1581,-0.1985,-6.25,-37.19,-9.31,180.53,-83.53,147.04
52.348835,-2.074244,163.13,26.06,4,18.37,21 / 23,314708,2020-01-08 16:26:29:684,-0.9621,0.6272,9.5253,-0.0255,-0.0023,9.8065,0.0335,0.0449,0.0096,-5.62,-37.31,-10,180.26,-83.32,149.4
52.348835,-2.074244,163.13,26.06,4,18.37,21 / 23,314808,2020-01-08 16:26:29:784,0.6764,-1.5749,11.7979,-0.009,-0.0189,9.8066,0.2226,-0.2996,0.1325,-6.19,-37,-9.81,179.86,-83.31,148.85
52.348835,-2.074244,163.13,26.06,4,18.37,22 / 23,314908,2020-01-08 16:26:29:884,3.4016,-1.371,11.8751,0.0615,0.0278,9.8063,0.2466,-0.1881,0.2329,-5.75,-36.81,-9.31,181.66,-83.13,148.64
52.348835,-2.074244,163.13,26.06,4,18.37,22 / 23,315007,2020-01-08 16:26:29:983,1.2323,-0.5916,9.5384,-0.0044,-0.0003,9.8066,0.1359,-0.155,-0.0821,-5.94,-37.31,-9.19,183.15,-83.11,150.73
52.348835,-2.074244,163.13,26.06,4,18.37,22 / 23,315108,2020-01-08 16:26:30:084,2.3609,-0.9351,10.1336,0.0284,0.0419,9.8065,0.1447,-0.1405,-0.0221,-6.31,-37.12,-9.62,180.32,-83.48,149.48
52.348835,-2.074244,163.13,26.06,4,18.37,22 / 23,315209,2020-01-08 16:26:30:185,0.4433,-0.2669,7.7513,0.0174,0.0152,9.8066,-0.147,-0.0415,-0.0083,-6.81,-37.5,-9.56,183.81,-83.42,150.11
52.348835,-2.074244,163.13,26.06,4,18.37,22 / 23,315307,2020-01-08 16:26:30:283,2.9411,-0.6733,11.4948,0.004,-0.0088,9.8066,-0.2061,-0.0124,-0.0689,-6.25,-37.44,-9.5,182.22,-83.6,149.36
52.348835,-2.074244,163.13,26.06,4,18.37,22 / 23,315408,2020-01-08 16:26:30:384,1.6548,-1.5482,9.7016,0.0243,0.039,9.8065,-0.1963,0.0263,0.1015,-6.12,-37.25,-9.94,179.94,-83.29,148.95
52.348835,-2.074244,163.13,26.06,4,18.37,22 / 23,315507,2020-01-08 16:26:30:483,0.385,-0.3338,8.9367,-0.0305,-0.0157,9.8065,0.0121,0.1034,0.07,-6.19,-36.87,-9.62,179.56,-83.27,148.44
52.348835,-2.074244,163.13,26.06,4,18.37,22 / 23,315608,2020-01-08 16:26:30:584,1.7291,-0.0362,10.3781,-0.0167,-0.0368,9.8065,0.0511,-0.0994,-0.0716,-6.69,-37.37,-8.81,184.83,-83.37,148.73
52.348835,-2.074244,163.13,26.06,4,18.37,22 / 23,315708,2020-01-08 16:26:30:684,0.6481,-2.1653,8.3546,-0.014,-0.0384,9.8065,0.0744,0.0401,-0.0467,-6.25,-37.25,-9.62,180.28,-83.16,149.42
52.348835,-2.074244,163.13,26.06,4,18.37,22 / 23,315808,2020-01-08 16:26:30:784,-0.3192,-0.0731,9.71,-0.0198,-0.0372,9.8065,0.065,-0.2492,0.0308,-6.87,-37.25,-9.5,184.72,-83.25,148.61
52.348835,-2.074244,163.13,26.06,4,18.37,22 / 23,315908,2020-01-08 16:26:30:884,0.0643,-0.2617,9.5374,0.0075,-0.0493,9.8064,0.0403,-0.2445,0.0328,-6.5,-37.12,-10.19,179.3,-83.32,148.09
52.348835,-2.074244,163.13,26.06,4,18.37,22 / 23,316008,2020-01-08 16:26:30:984,0.9536,-0.9842,9.8403,-0.0184,0.0032,9.8066,0.0173,0.0049,0.0485,-6.25,-37.37,-9.94,177.2,-83.09,145.19
52.348835,-2.074244,163.13,26.06,4,18.37,22 / 23,316108,2020-01-08 16:26:31:084,2.0392,-1.8753,9.8507,0.0083,-0.0032,9.8066,-0.0232,-0.0709,-0.0002,-6.94,-38,-10.12,179.22,-82.92,143.93
52.348835,-2.074244,163.13,26.06,4,18.37,22 / 23,316208,2020-01-08 16:26:31:184,2.2135,1.203,13.2084,-0.0282,-0.0391,9.8064,0.269,0.1174,-0.0433,-6.75,-37.81,-9.44,179.97,-83.04,142.08
52.348835,-2.074244,163.13,26.06,4,18.37,22 / 23,316307,2020-01-08 16:26:31:283,2.6413,-3.2678,8.9067,0.0153,0.0203,9.8066,0.177,0.3314,-0.1649,-7.06,-37.69,-9.19,180.06,-83.09,142.2
52.348835,-2.074244,163.13,26.06,4,18.37,22 / 23,316408,2020-01-08 16:26:31:384,0.0879,-1.52,9.5482,0.0276,-0.0673,9.8064,0.025,0.365,-0.2432,-7.12,-37.12,-8.75,181.83,-83.32,144.63
52.348835,-2.074244,163.13,26.06,4,18.37,22 / 23,316508,2020-01-08 16:26:31:484,4.8456,-2.3115,9.515,-0.001,-0.0013,9.8066,-0.0612,0.2436,-0.1484,-7.81,-37.5,-9.12,185.06,-83.31,145.2
52.348835,-2.074244,163.13,26.06,4,18.37,22 / 23,316608,2020-01-08 16:26:31:584,1.0611,0.3845,9.5647,0.0309,-0.0334,9.8065,-0.0372,0.0151,-0.1606,-6.75,-37.44,-9.44,183.07,-83.48,146.3
52.348835,-2.074244,163.13,26.06,4,18.37,22 / 23,316708,2020-01-08 16:26:31:684,0.2135,-1.2685,8.7766,-0.0203,-0.0272,9.8065,0.0976,0.1571,0.0747,-7.25,-37.19,-9.19,182.05,-83.43,144.92
52.348835,-2.074244,163.13,26.06,4,18.37,22 / 23,316808,2020-01-08 16:26:31:784,-1.2604,0.9186,10.7546,0.0039,-0.0185,9.8066,0.0273,0.1975,-0.0216,-7.31,-37.44,-9,182.27,-83.59,145.2
52.348835,-2.074244,163.13,26.06,4,18.37,22 / 23,316908,2020-01-08 16:26:31:884,3.4615,-2.2193,10.1932,0.009,0.0068,9.8066,-0.0073,0.0661,-0.1279,-7.12,-37.75,-8.87,182.57,-83.6,145.64
52.348835,-2.074244,163.13,26.06,4,18.37,21 / 22,317008,2020-01-08 16:26:31:984,2.3513,-3.0724,9.5466,0.0405,-0.006,9.8065,-0.0711,-0.1567,-0.0199,-7.5,-37.5,-9.06,184.01,-83.44,147.6
52.348835,-2.074244,163.13,26.06,4,18.37,21 / 22,317108,2020-01-08 16:26:32:084,2.618,-1.9344,10.1677,-0.0531,0.045,9.8063,0.1482,-0.3736,0.2091,-6.94,-37.44,-8.75,181.72,-83.27,144.49
52.348835,-2.074244,163.13,26.06,4,18.37,21 / 22,317208,2020-01-08 16:26:32:184,1.2355,-0.7305,8.8237,-0.0076,0.004,9.8065,0.1722,-0.3641,0.0951,-7.69,-37.75,-8.25,188.05,-83.24,146.18
52.348835,-2.074244,163.13,26.06,4,18.37,21 / 22,317308,2020-01-08 16:26:32:284,-1.1911,1.2673,8.9944,-0.0104,-0.0115,9.8066,-0.0152,-0.3294,0.1351,-7,-37.25,-8.56,182.67,-83.14,145.82
52.348835,-2.074244,163.13,26.06,4,18.37,21 / 22,317408,2020-01-08 16:26:32:384,1.644,-0.0789,9.1302,-0.0325,0.0254,9.8066,-0.0622,-0.1045,0.1399,-7.87,-37.19,-8.69,185.18,-83.23,145.38
52.348835,-2.074244,163.13,26.06,4,18.37,21 / 22,317507,2020-01-08 16:26:32:483,-0.4854,0.3207,9.7768,0.0245,0.0066,9.8066,-0.158,-0.0682,0.0511,-7.44,-37.62,-9.06,183.63,-83.39,147.12
52.348835,-2.074244,163.13,26.06,4,18.37,21 / 22,317608,2020-01-08 16:26:32:584,1.2786,-1.5612,9.2783,0.0018,0.0269,9.8066,-0.1263,0.0868,0.0401,-7.81,-37.06,-8.81,187.47,-83.54,148.37
52.348835,-2.074244,163.13,26.06,4,18.37,21 / 22,317708,2020-01-08 16:26:32:684,1.8861,-1.4474,9.0786,-0.006,-0.0143,9.8066,0.0584,-0.0491,0.1081,-8.5,-36.81,-8.75,187.69,-83.89,148.52
52.348835,-2.074244,163.13,26.06,4,18.37,21 / 22,317808,2020-01-08 16:26:32:784,4.7952,-0.3478,9.4534,0.0283,-0.0397,9.8065,0.0068,-0.2323,0.0961,-7.75,-37.5,-9.19,188.67,-84.14,149.71
52.348835,-2.074244,163.13,26.06,4,18.37,24 / 24,317907,2020-01-08 16:26:32:883,0.9431,-1.5921,10.5972,0.0303,0.0388,9.8065,-0.121,-0.2708,0.0503,-7.75,-36.87,-9.19,188.23,-84.27,149.08
52.348835,-2.074244,163.13,26.06,4,18.37,24 / 24,318008,2020-01-08 16:26:32:984,3.3296,-1.6639,10.4286,-0.0189,0.0365,9.8065,-0.025,-0.1522,0.099,-7.62,-37.25,-7.69,191.6,-84.12,150.41
52.348835,-2.074244,163.13,26.06,4,18.37,24 / 24,318108,2020-01-08 16:26:33:084,1.2137,0.0989,9.6661,-0.0119,-0.0015,9.8066,0.0396,0.1377,-0.0543,-8.19,-37.69,-8.75,190.97,-84.11,152.82
52.348835,-2.074244,163.13,26.06,4,18.37,24 / 24,318208,2020-01-08 16:26:33:184,0.1664,0.8922,10.9974,-0.0105,-0.0228,9.8066,0.1488,0.3086,-0.1029,-7.81,-37.75,-7.62,193.16,-84.08,152.62
52.348835,-2.074244,163.13,26.06,4,18.37,24 / 24,318308,2020-01-08 16:26:33:284,1.8105,0.9385,9.4543,0.025,-0.0561,9.8064,-0.0435,0.1198,-0.198,-8.62,-36.81,-8.56,193.67,-84.37,152.47
52.348835,-2.074244,163.13,26.06,4,18.37,24 / 24,318408,2020-01-08 16:26:33:384,0.6537,2.1334,8.9793,-0.0048,-0.0329,9.8065,0.0169,-0.085,-0.1203,-8.19,-36.69,-8.75,188.92,-84.49,149.87
52.348835,-2.074244,163.13,26.06,4,18.37,24 / 24,318507,2020-01-08 16:26:33:483,1.5786,-1.7579,9.8776,0.0058,0.0095,9.8066,0.1167,-0.2225,0.2067,-9.62,-37.12,-8,197.02,-84.81,150
52.348835,-2.074244,163.13,26.06,4,18.37,24 / 24,318608,2020-01-08 16:26:33:584,0.0863,-1.5418,7.3608,0.061,0.0027,9.8064,0.3684,-0.1957,0.0669,-9.19,-36.62,-8.06,196.41,-84.6,152.67
52.348835,-2.074244,163.13,26.06,4,18.37,24 / 24,318707,2020-01-08 16:26:33:683,0.886,-0.2407,10.6604,-0.022,-0.059,9.8064,0.3619,-0.079,-0.1867,-8.37,-37.12,-7.56,192.96,-84.35,152.05
52.348835,-2.074244,163.13,26.06,4,18.37,24 / 24,318808,2020-01-08 16:26:33:784,3.5831,-1.7263,10.7897,-0.0193,0.0299,9.8065,0.2102,0.1272,-0.1992,-9.25,-36.94,-7.94,195.03,-84.44,151.03
52.348835,-2.074244,163.13,26.06,4,18.37,23 / 23,318908,2020-01-08 16:26:33:884,-0.4611,1.7824,10.1019,-0.0309,-0.039,9.8064,0.027,0.3072,-0.239,-8.69,-37.06,-7.69,194.7,-84.76,150.37
52.350807,-2.073117,165.3,25.06,4,29.41,23 / 23,319007,2020-01-08 16:26:33:983,3.4339,-3.3014,8.4754,-0.0113,-0.0002,9.8065,-0.0079,0.3436,-0.0635,-9.87,-37.06,-7.44,201.98,-84.7,152.9
52.350807,-2.073117,165.3,25.06,4,29.41,23 / 23,319108,2020-01-08 16:26:34:084,2.6812,-1.518,10.0029,0.0154,-0.0772,9.8062,0.1053,0.1541,-0.1764,-9.69,-36.94,-7.19,201.05,-84.65,151.78
52.350807,-2.073117,165.3,25.06,4,29.41,23 / 23,319208,2020-01-08 16:26:34:184,0.6429,1.0337,9.7227,0.01,0.0487,9.8064,0.1759,-0.0549,-0.2153,-9.31,-36.87,-8.12,195.29,-84.73,151.13
52.350807,-2.073117,165.3,25.06,4,29.41,23 / 23,319308,2020-01-08 16:26:34:284,4.5734,-0.9526,12.6245,-0.0419,-0.0376,9.8065,0.0506,-0.333,0.0192,-9.25,-37.12,-7.37,195.99,-85.1,148.19
52.350807,-2.073117,165.3,25.06,4,29.41,23 / 23,319407,2020-01-08 16:26:34:383,1.3563,5.3791,12.1764,0.0182,-0.0509,9.8065,-0.1624,-0.1997,0.4476,-8.5,-37.19,-7.31,195.33,-84.87,151.17
52.350807,-2.073117,165.3,25.06,4,29.41,23 / 23,319508,2020-01-08 16:26:34:484,-0.2521,-0.6096,7.975,-0.0236,-0.0929,9.8061,-0.1778,0.1846,0.2109,-9.31,-37.25,-7.69,195.08,-84.57,151
52.350807,-2.073117,165.3,25.06,4,29.41,23 / 23,319607,2020-01-08 16:26:34:583,4.1122,-3.9688,10.7199,-0.0634,-0.013,9.8064,-0.2167,0.4004,-0.4257,-9.25,-37.37,-7.19,195.97,-84.85,148.38
52.350807,-2.073117,165.3,25.06,4,29.41,23 / 23,319708,2020-01-08 16:26:34:684,-0.2335,2.1686,8.3168,-0.03,-0.0266,9.8065,-0.1959,0.3436,-0.2782,-9.75,-37.25,-7.5,202.02,-84.91,152.73
52.350807,-2.073117,165.3,25.06,4,29.41,23 / 23,319808,2020-01-08 16:26:34:784,-1.5614,2.656,9.2425,-0.0185,-0.0145,9.8066,0.0189,0.1034,0.2395,-9.44,-36.56,-7.44,199.97,-85.2,153.1
52.350807,-2.073117,165.3,25.06,4,29.41,21 / 23,319908,2020-01-08 16:26:34:884,3.6605,-4.5948,10.4778,0.0867,-0.0642,9.806,0.0529,-0.1205,0.1393,-9.81,-36.69,-7.12,199.31,-85.22,149.02
52.350807,-2.073117,165.3,25.06,4,29.41,21 / 23,320008,2020-01-08 16:26:34:984,0.5158,0.4685,10.6945,-0.004,-0.0046,9.8066,0.1404,-0.5627,0.1976,-9.62,-36.75,-7.62,199.86,-85.29,153.08
52.350807,-2.073117,165.3,25.06,4,29.41,21 / 23,320108,2020-01-08 16:26:35:084,3.7889,-4.0476,10.2767,0.0299,0.0174,9.8066,0.0882,-0.495,0.266,-10,-37,-7.56,201.01,-85.3,154.47
52.350807,-2.073117,165.3,25.06,4,29.41,21 / 23,320208,2020-01-08 16:26:35:184,0.4146,-1.4917,8.7796,0.0404,-0.0519,9.8064,0.1025,-0.0539,0.1325,-10.06,-36.62,-7.37,206.42,-85.16,157.87
52.350807,-2.073117,165.3,25.06,4,29.41,21 / 23,320308,2020-01-08 16:26:35:284,2.4192,-3.0192,8.4148,0.0136,0.0458,9.8065,0.0923,-0.1385,-0.0912,-9.5,-36.5,-7.06,201.33,-84.98,154.9
52.350807,-2.073117,165.3,25.06,4,29.41,21 / 23,320407,2020-01-08 16:26:35:383,1.0274,0.32,10.1769,0.0026,0.0048,9.8066,-0.0599,0.0687,-0.0959,-10.12,-36.75,-7.19,203.97,-85.04,155
52.350807,-2.073117,165.3,25.06,4,29.41,21 / 23,320508,2020-01-08 16:26:35:484,0.4057,1.0029,7.4353,-0.0453,0.0143,9.8065,-0.2735,-0.0997,-0.0887,-9.75,-37.31,-7.37,203.91,-85.08,154.88
52.350807,-2.073117,165.3,25.06,4,29.41,21 / 23,320607,2020-01-08 16:26:35:583,-0.4993,2.4296,11.4776,-0.0086,-0.1236,9.8058,-0.1289,0.0929,0.1748,-9.44,-36.81,-7.81,199.2,-85.36,155.46
52.350807,-2.073117,165.3,25.06,4,29.41,21 / 23,320710,2020-01-08 16:26:35:686,1.6004,-1.0234,10.4647,0.0498,-0.0108,9.8065,0.0877,0.0442,0.2203,-9.56,-36.62,-7.12,203.35,-85.17,154.08
52.350807,-2.073117,165.3,25.06,4,29.41,21 / 23,320808,2020-01-08 16:26:35:784,1.8837,-0.1865,9.379,0.0197,0.0201,9.8066,0.121,0.0149,0.0448,-10.5,-36.44,-7.31,205.96,-85.08,157.23
52.350807,-2.073117,165.3,25.06,4,29.41,21 / 23,320907,2020-01-08 16:26:35:883,2.1107,0.8705,9.3489,0.0245,0.0242,9.8065,0.1101,0.0236,-0.0835,-10.94,-36.69,-7,211.05,-85.07,160.65
52.350807,-2.073117,165.3,25.06,4,29.41,22 / 23,321007,2020-01-08 16:26:35:983,0.7822,-0.5525,7.8784,-0.0088,0.0072,9.8066,-0.0416,-0.1729,-0.1395,-10.06,-36.19,-8.12,208.71,-85.39,163.53
52.350807,-2.073117,165.3,25.06,4,29.41,22 / 23,321108,2020-01-08 16:26:36:084,-0.1866,-1.5591,8.1635,-0.0253,-0.0317,9.8065,-0.1711,0.0802,0.0316,-10.62,-37.12,-7.62,211.68,-85.55,164
52.350807,-2.073117,165.3,25.06,4,29.41,22 / 23,321208,2020-01-08 16:26:36:184,2.3794,-2.3798,8.165,-0.0189,0.0217,9.8065,-0.2844,-0.1796,0.064,-10.12,-36.56,-7.94,206.4,-85.55,160.71
52.350807,-2.073117,165.3,25.06,4,29.41,22 / 23,321308,2020-01-08 16:26:36:284,0.8783,-0.7374,8.6615,-0.0375,-0.0919,9.8061,-0.2448,-0.3621,0.1396,-10.75,-37,-8.56,208.5,-85.36,163.48
52.350807,-2.073117,165.3,25.06,4,29.41,22 / 23,321407,2020-01-08 16:26:36:383,1.6346,2.2894,11.7985,-0.0064,-0.0261,9.8066,-0.196,-0.4762,0.2541,-10.62,-37.06,-8.37,212.05,-85.56,164.43
52.350807,-2.073117,165.3,25.06,4,29.41,22 / 23,321508,2020-01-08 16:26:36:484,-0.6243,0.643,9.3156,0.0214,-0.0906,9.8061,-0.068,-0.4895,0.3784,-10.56,-36.75,-7.5,219.2,-85.83,169.1
52.350807,-2.073117,165.3,25.06,4,29.41,22 / 23,321608,2020-01-08 16:26:36:584,0.4471,1.1405,11.0103,-0.0231,-0.0531,9.8065,0.009,-0.4325,0.0882,-11.25,-36.94,-8,215.62,-85.72,168.37
52.350807,-2.073117,165.3,25.06,4,29.41,22 / 23,321708,2020-01-08 16:26:36:684,4.1636,-3.288,9.3701,0.0337,-0.0286,9.8065,0.0328,-0.2353,0.0435,-10.75,-37.19,-9.06,212.72,-85.51,168.26
52.350807,-2.073117,165.3,25.06,4,29.41,22 / 23,321808,2020-01-08 16:26:36:784,2.466,-0.6762,8.3069,0.0026,-0.0253,9.8066,-0.0215,-0.1406,0.1798,-9.31,-37.62,-9.81,204.63,-85.7,167.65
52.350807,-2.073117,165.3,25.06,4,29.41,22 / 23,321908,2020-01-08 16:26:36:884,2.8151,-3.1469,10.0741,-0.0042,-0.0658,9.8064,-0.1758,-0.127,0.0444,-8.44,-39.19,-10.37,199.1,-85.67,164.71
52.350807,-2.073117,165.3,25.06,4,29.41,23 / 24,322008,2020-01-08 16:26:36:984,-8.0117,1.3426,11.054,0.0909,0.0026,9.8062,-0.0289,-0.3072,-0.1246,-6,-42,-11.19,195.52,-85.62,170.8
52.350807,-2.073117,165.3,25.06,4,29.41,23 / 24,322108,2020-01-08 16:26:37:084,6.925,2.1683,12.5658,0.085,0.0562,9.8061,0.0717,0.544,-0.3806,-4.44,-43.56,-6.75,192.18,-85.38,167.72
52.350807,-2.073117,165.3,25.06,4,29.41,23 / 24,322208,2020-01-08 16:26:37:184,-4.613,2.4596,10.3963,0.0345,-0.0214,9.8065,0.077,0.815,-0.1878,-0.25,-42.19,-4.69,172.72,-85.08,167.5
52.350807,-2.073117,165.3,25.06,4,29.41,23 / 24,322307,2020-01-08 16:26:37:283,-1.149,0.468,7.184,-0.1451,-0.0131,9.8055,0.1378,0.6179,-0.2513,0.88,-41.37,-3.5,164.79,-85.44,167.57
52.350807,-2.073117,165.3,25.06,4,29.41,23 / 24,322408,2020-01-08 16:26:37:384,4.6378,1.1582,8.1191,0.0384,-0.0408,9.8064,0.1925,0.0283,-0.3772,1.5,-41.12,-4.12,155.3,-85.69,165.19
52.350807,-2.073117,165.3,25.06,4,29.41,23 / 24,322508,2020-01-08 16:26:37:484,1.4256,1.363,8.4423,-0.0152,0.0515,9.8065,0.1305,0.0008,-0.0878,1.81,-41.19,-5.19,156.22,-85.81,165.12
52.350807,-2.073117,165.3,25.06,4,29.41,23 / 24,322608,2020-01-08 16:26:37:584,0.8835,2.6218,9.3023,-0.0093,0.0133,9.8066,-0.0289,0.0813,0.0495,6.06,-41.19,-5.31,134.3,-85.62,167.87
52.350807,-2.073117,165.3,25.06,4,29.41,23 / 24,322707,2020-01-08 16:26:37:683,-3.6414,-0.8754,9.2474,-0.0266,-0.0356,9.8065,0.0345,0.0191,0.0537,15,-39.87,-7.06,114.96,-85.8,170.74
52.350807,-2.073117,165.3,25.06,4,29.41,23 / 24,322808,2020-01-08 16:26:37:784,2.1495,4.899,10.6351,0.0174,-0.0424,9.8065,0.1473,-0.2255,0.2159,16.5,-40.87,-9.12,114.7,-86.08,169.24
52.350807,-2.073117,165.3,25.06,4,29.41,23 / 24,322908,2020-01-08 16:26:37:884,-2.4802,-2.0715,11.5555,-0.1089,-0.0311,9.806,-0.2082,-0.5373,0.2457,15.94,-42.12,-8.19,114.73,-85.63,168.86
52.350807,-2.073117,165.3,25.06,4,29.41,24 / 25,323008,2020-01-08 16:26:37:984,2.9047,3.9492,9.9283,-0.0773,-0.0057,9.8063,-0.1451,-0.4935,0.3372,8.81,-44.5,-9.12,135.34,-85.65,169.79
52.350807,-2.073117,165.3,25.06,4,29.41,24 / 25,323108,2020-01-08 16:26:38:084,-3.6817,-0.041,9.3051,-0.0087,0.0026,9.8066,-0.1777,-0.6534,0.2764,4.31,-45.94,-5.62,152.19,-85.68,172.97
52.350807,-2.073117,165.3,25.06,4,29.41,24 / 25,323208,2020-01-08 16:26:38:184,4.0032,-0.5419,8.1535,-0.0486,0.0013,9.8065,-0.1835,-0.304,0.1967,1.31,-42.81,-5.69,168.86,-85.77,172.57
52.350807,-2.073117,165.3,25.06,4,29.41,24 / 25,323309,2020-01-08 16:26:38:285,2.873,1.5711,11.8358,0.0173,0.0617,9.8064,-0.2495,-0.0198,0.1044,1.06,-43.62,-5.12,169.59,-85.99,174.67
52.350807,-2.073117,165.3,25.06,4,29.41,24 / 25,323408,2020-01-08 16:26:38:384,2.6558,-0.0698,10.274,-0.0221,0.0386,9.8065,-0.1967,0.0058,-0.0066,-0.44,-39.94,-5.94,177.66,-85.83,176.53
52.350807,-2.073117,165.3,25.06,4,29.41,24 / 25,323507,2020-01-08 16:26:38:483,2.78,2.2733,11.6543,-0.0356,0.0764,9.8062,-0.4011,0.1386,-0.0038,4.13,-39.25,-6.37,152.7,-85.55,175.35
52.350807,-2.073117,165.3,25.06,4,29.41,24 / 25,323608,2020-01-08 16:26:38:584,2.0778,0.855,7.1563,-0.0303,0.0631,9.8064,-0.3757,0.0385,0.0517,3.81,-40.31,-6.87,154.63,-85.64,175.13
52.350807,-2.073117,165.3,25.06,4,29.41,24 / 25,323707,2020-01-08 16:26:38:683,-2.6769,1.3767,10.0258,-0.0463,0.0175,9.8064,-0.1383,-0.5712,0.2349,0.44,-43.81,-4.31,178.03,-85.87,176.47
52.350807,-2.073117,165.3,25.06,4,29.41,24 / 25,323808,2020-01-08 16:26:38:784,0.5379,1.3947,9.3248,-0.0378,0.0163,9.8065,-0.0372,-0.7424,0.4826,0,-40.81,-4.87,176.27,-85.78,174.02
52.350807,-2.073117,165.3,25.06,4,29.41,23 / 24,323908,2020-01-08 16:26:38:884,-2.6275,-0.2962,7.9383,-0.0786,-0.0245,9.8063,0.1296,-0.5458,0.2988,-0.87,-41.87,-5.87,186.22,-85.92,179.79
52.350807,-2.073117,165.3,25.06,4,29.41,23 / 24,324007,2020-01-08 16:26:38:983,5.3628,-2.3837,9.622,-0.0366,-0.0584,9.8063,0.0492,-0.5324,0.1609,-1.56,-40.69,-4.44,194.01,-86.11,176.07
52.350807,-2.073117,165.3,25.06,4,29.41,23 / 24,324108,2020-01-08 16:26:39:084,-10.0952,4.4129,11.2607,-0.0252,0.1731,9.8051,-0.3948,-0.2983,0.0249,0.88,-42.31,-5.69,169.77,-86.13,174.5
52.350807,-2.073117,165.3,25.06,4,29.41,23 / 24,324208,2020-01-08 16:26:39:184,4.9266,-0.8141,6.0391,-0.1483,0.1345,9.8045,-0.0683,0.4909,0.0271,-3.37,-36.06,-7.12,189.79,-85.5,170.18
52.350807,-2.073117,165.3,25.06,4,29.41,23 / 24,324308,2020-01-08 16:26:39:284,5.2863,-1.0383,7.9694,0.0291,-0.0518,9.8064,0.0669,0.5574,-0.3137,-4.37,-42.12,-11,191.26,-85.8,174.19
52.350807,-2.073117,165.3,25.06,4,29.41,23 / 24,324408,2020-01-08 16:26:39:384,1.5071,-0.4653,7.1442,0.0205,0.019,9.8066,0.0037,0.4582,-0.3772,-1.69,-45.12,-10.19,184.14,-86.1,174.06
52.350807,-2.073117,165.3,25.06,4,29.41,23 / 24,324508,2020-01-08 16:26:39:484,2.2734,2.6095,10.717,0.0446,-0.0157,9.8065,0.1368,0.0018,-0.0475,6.5,-48.94,-6.75,140.02,-86.48,173.82
52.350807,-2.073117,165.3,25.06,4,29.41,23 / 24,324608,2020-01-08 16:26:39:584,0.4976,1.2961,10.3828,-0.024,0.0451,9.8065,0.0984,-0.09,0.0733,7.06,-50.5,-4.75,135.33,-86.27,174.41
52.350807,-2.073117,165.3,25.06,4,29.41,23 / 24,324707,2020-01-08 16:26:39:683,0.197,2.4646,11.6606,-0.0031,-0.015,9.8066,0.1666,-0.3998,0.0998,2.81,-41.94,1.44,116.36,-86.29,174.4
52.350807,-2.073117,165.3,25.06,4,29.41,23 / 24,324808,2020-01-08 16:26:39:784,3.4094,-0.8924,10.5623,-0.0377,0.0226,9.8065,0.1622,-0.1605,0.0941,-0.94,-34.06,-6.94,181.3,-86.21,173.58
52.350807,-2.073117,165.3,25.06,4,29.41,23 / 24,324907,2020-01-08 16:26:39:883,-0.0416,-0.6484,8.849,-0.0067,-0.0205,9.8065,-0.06,0.156,-0.1033,-5.12,-37.12,-10.19,197.64,-86.31,174.74
52.350807,-2.073117,165.3,25.06,4,29.41,23 / 24,325007,2020-01-08 16:26:39:983,-0.9453,-0.4479,9.6601,-0.0339,-0.0098,9.8065,-0.088,0.298,-0.1873,-3.81,-41.62,-9.5,193.76,-86.42,173.4
52.350807,-2.073117,165.3,25.06,4,29.41,23 / 24,325108,2020-01-08 16:26:40:084,0.402,-2.2136,7.3876,0.0307,0.0209,9.8065,-0.2833,0.1598,-0.0755,2.88,-46.69,-11.25,165.71,-86.4,177.33
52.350807,-2.073117,165.3,25.06,4,29.41,23 / 24,325208,2020-01-08 16:26:40:184,-3.1928,0.6345,8.8055,0.0427,-0.0342,9.8064,-0.1317,0.0517,0.1565,3,-51.87,-11.25,168.3,-86.61,-179.57
52.350807,-2.073117,165.3,25.06,4,29.41,23 / 24,325308,2020-01-08 16:26:40:284,5.0488,-0.4235,9.1543,0.0671,-0.016,9.8063,0.1381,-0.2051,0.1017,2.5,-54.69,-3,155.25,-86.86,-177.04
52.350807,-2.073117,165.3,25.06,4,29.41,23 / 24,325408,2020-01-08 16:26:40:384,-0.3345,-1.4756,9.9989,0.0593,0.0285,9.8064,0.0439,-0.32,0.0321,0.44,-48.25,0.69,180.67,-86.74,178.84
52.350807,-2.073117,165.3,25.06,4,29.41,23 / 24,325508,2020-01-08 16:26:40:484,0.9575,0.6469,11.6457,0.0275,0,9.8066,0.2708,-0.1497,-0.0882,-2.5,-41.62,-3.81,194.76,-86.38,176.87
52.350807,-2.073117,165.3,25.06,4,29.41,23 / 24,325608,2020-01-08 16:26:40:584,3.231,-1.0941,10.49,0.0078,0.0434,9.8065,0.1995,-0.0867,-0.0143,-5.06,-43.87,-5.44,212.16,-86.09,-179.82
52.350807,-2.073117,165.3,25.06,4,29.41,23 / 24,325707,2020-01-08 16:26:40:683,-0.8203,-0.2952,9.3239,-0.0245,-0.0359,9.8065,-0.0303,0.1377,-0.1008,-6.94,-46.56,-2.87,232.86,-86.42,-176.09
52.350807,-2.073117,165.3,25.06,4,29.41,23 / 24,325808,2020-01-08 16:26:40:784,0.7104,-2.588,8.9853,-0.0363,-0.0046,9.8066,-0.0626,0.1111,-0.1057,-6.5,-44.31,-4.56,221.79,-86.52,-175.26
52.350807,-2.073117,165.3,25.06,4,29.41,23 / 24,325908,2020-01-08 16:26:40:884,2.11,-1.6993,9.6924,0.017,-0.0342,9.8065,0.0298,0.1416,0.0193,-5.37,-42.25,-0.62,239.88,-86.66,-174.29
52.350807,-2.073117,165.3,25.06,4,29.41,23 / 24,326008,2020-01-08 16:26:40:984,1.2673,1.1242,9.4644,0.008,0.0059,9.8066,0.15,-0.1575,-0.0743,-6.37,-34.25,2.19,276.89,-86.69,-173.56
52.350807,-2.073117,165.3,25.06,4,29.41,23 / 24,326108,2020-01-08 16:26:41:084,2.0017,-1.1936,10.4084,0.0359,0.0103,9.8065,0.1302,-0.2001,0.0525,-10.56,-28.25,-4.19,250.64,-86.34,-171.12
52.350807,-2.073117,165.3,25.06,4,29.41,23 / 24,326208,2020-01-08 16:26:41:184,-0.2257,-0.5127,9.33,0.0368,-0.004,9.8066,0.1071,-0.1269,0.0022,-17.56,-27.81,-4.31,262.76,-86.3,-169.13
52.350807,-2.073117,165.3,25.06,4,29.41,23 / 24,326308,2020-01-08 16:26:41:284,0.5178,3.3458,11.2028,0.0261,0.0649,9.8063,0.1668,0.0313,-0.1746,-18.69,-24.87,-8.19,256.2,-86.45,-166.81
52.350807,-2.073117,165.3,25.06,4,29.41,23 / 24,326408,2020-01-08 16:26:41:384,0.8403,-0.8874,8.6493,0.0098,0.0504,9.8064,0.1817,0.2789,-0.1498,-15.12,-29.75,-10.12,242.18,-86.24,-168.63
52.350807,-2.073117,165.3,25.06,4,29.41,23 / 24,326508,2020-01-08 16:26:41:484,-1.3382,0.741,10.1226,-0.0004,0.0064,9.8066,0.1156,0.3076,-0.0493,-2.37,-32.94,-10.25,201.58,-86.49,-165.58
52.350807,-2.073117,165.3,25.06,4,29.41,23 / 24,326608,2020-01-08 16:26:41:584,2.0595,-0.886,9.1021,-0.0135,-0.0363,9.8066,-0.0326,-0.0496,-0.2138,11.69,-38.06,-10.5,146.73,-86.69,-167.45
52.350807,-2.073117,165.3,25.06,4,29.41,23 / 24,326708,2020-01-08 16:26:41:684,2.3777,0.9482,6.9457,-0.0277,-0.0365,9.8065,-0.1763,-0.042,-0.2245,13.25,-40.31,-4.75,132.08,-86.75,-165.86
52.350807,-2.073117,165.3,25.06,4,29.41,23 / 24,326807,2020-01-08 16:26:41:783,-0.7349,0.0329,10.7588,0.0581,-0.0056,9.8064,0.0737,-0.0584,-0.0364,8.19,-33.06,-5.56,154.44,-86.79,-156.97
52.350807,-2.073117,165.3,25.06,4,29.41,23 / 24,326908,2020-01-08 16:26:41:884,-0.2107,1.2779,10.7918,-0.0466,0.0146,9.8065,0.219,0.1316,-0.1421,5.13,-35.56,-9.69,170.51,-86.47,-164.78
52.350807,-2.073117,165.3,25.06,4,29.41,23 / 24,327008,2020-01-08 16:26:41:984,2.2131,2.1167,7.4401,0.0782,-0.0279,9.8063,0.2753,0.1221,-0.2028,7.88,-45.87,-5.5,148.99,-86.7,-161.28
52.350807,-2.073117,165.3,25.06,4,29.41,23 / 24,327107,2020-01-08 16:26:42:083,1.4676,1.9576,9.5952,0.054,-0.0391,9.8064,0.0113,0.1913,-0.1713,-0.25,-43.75,0.25,180,-86.71,-163.79
52.350807,-2.073117,165.3,25.06,4,29.41,23 / 24,327207,2020-01-08 16:26:42:183,4.5981,-3.6126,9.2577,-0.004,-0.0574,9.8064,0.0656,0.399,-0.1625,-7.37,-34.06,-0.87,262.04,-86.87,-164.72
52.350807,-2.073117,165.3,25.06,4,29.41,23 / 24,327307,2020-01-08 16:26:42:283,1.413,0.586,10.1799,0.0448,-0.037,9.8064,-0.0415,0.0496,-0.0684,-10.81,-35.37,-3.87,258.87,-86.58,-161.05
52.350807,-2.073117,165.3,25.06,4,29.41,23 / 24,327407,2020-01-08 16:26:42:383,1.4823,0.1503,8.894,0.0412,-0.012,9.8065,-0.0606,-0.2081,-0.0283,-12.94,-34.94,-5.31,256.3,-86.38,-163.8
52.350807,-2.073117,165.3,25.06,4,29.41,23 / 24,327509,2020-01-08 16:26:42:485,1.6559,-1.1747,10.4464,-0.0475,-0.0227,9.8065,-0.0335,-0.0051,0.1045,-13.31,-35.87,-5.44,259.85,-86.36,-159.82
52.350807,-2.073117,165.3,25.06,4,29.41,23 / 24,327608,2020-01-08 16:26:42:584,0.8733,-2.8325,8.4333,0.0147,-0.0171,9.8066,-0.0854,0.2628,-0.0979,-14.25,-35.87,-5.56,263.95,-86.27,-154.04
52.350807,-2.073117,165.3,25.06,4,29.41,23 / 24,327708,2020-01-08 16:26:42:684,-2.1596,3.2521,7.8803,0.0055,-0.0667,9.8063,-0.1533,0.4742,-0.2681,-14,-35.94,-4.81,270.72,-86.43,-150.92
52.350807,-2.073117,165.3,25.06,4,29.41,23 / 24,327807,2020-01-08 16:26:42:783,2.3773,-3.8559,8.4799,0.0255,-0.0291,9.8065,-0.0416,-0.0689,0.0279,-14.37,-35.5,-4.62,267.79,-86.7,-154.77
52.350807,-2.073117,165.3,25.06,4,29.41,23 / 24,327907,2020-01-08 16:26:42:883,-0.791,4.7905,8.4535,0.0196,-0.0677,9.8064,-0.0049,-0.1168,0.3618,-14.81,-35.69,-4.56,275.58,-86.47,-147.94
52.352325,-2.070919,168.88,25.08,4,54.41,23 / 24,328007,2020-01-08 16:26:42:983,0.83,-5.3824,9.7377,-0.0084,0.0023,9.8066,0.0514,-0.7237,0.2928,-14.81,-35.69,-4.62,275.28,-86.55,-148.42
52.352325,-2.070919,168.88,25.08,4,54.41,23 / 24,328107,2020-01-08 16:26:43:083,4.8189,-4.3724,12.0525,0.0351,-0.0358,9.8064,0.1358,-0.8439,0.2811,-14.31,-36.31,-4.69,272.55,-86.35,-148.91
52.352325,-2.070919,168.88,25.08,4,54.41,23 / 24,328207,2020-01-08 16:26:43:183,1.7245,-0.0286,9.4248,-0.0673,0.0708,9.8061,-0.0311,-0.2419,0.2664,-14.81,-36.06,-4.06,276.9,-86.18,-149.32
52.352325,-2.070919,168.88,25.08,4,54.41,23 / 24,328307,2020-01-08 16:26:43:283,4.1637,-2.8923,11.271,-0.0769,-0.0002,9.8063,-0.1173,0.0707,0.0268,-14.75,-36.12,-4.56,269.93,-86.54,-153.71
52.352325,-2.070919,168.88,25.08,4,54.41,23 / 24,328407,2020-01-08 16:26:43:383,1.2316,-2.3591,9.7648,0.0031,-0.0439,9.8065,-0.1124,0.4803,-0.3912,-14.5,-36.75,-4.37,272.09,-86.49,-152.99
52.352325,-2.070919,168.88,25.08,4,54.41,23 / 24,328508,2020-01-08 16:26:43:484,2.7891,-4.3267,9.7232,-0.0347,0.0298,9.8065,-0.0831,0.548,-0.3796,-14.69,-36.56,-4.44,271.84,-86.78,-155.54
52.352325,-2.070919,168.88,25.08,4,54.41,23 / 24,328608,2020-01-08 16:26:43:584,2.3609,-3.4808,11.0417,0.0279,-0.0693,9.8063,0.1236,0.2864,-0.127,-14.69,-36.5,-4.31,271.58,-86.82,-156.08
52.352325,-2.070919,168.88,25.08,4,54.41,23 / 24,328708,2020-01-08 16:26:43:684,-0.9499,1.9865,9.1097,0.0552,-0.0204,9.8064,0.1583,0.0587,-0.0668,-15.25,-36.37,-3.75,274.48,-86.63,-152.76
52.352325,-2.070919,168.88,25.08,4,54.41,23 / 24,328808,2020-01-08 16:26:43:784,2.0425,-2.1847,9.7786,0.0135,-0.0442,9.8065,0.0062,-0.2057,-0.0108,-15.12,-36.5,-3.81,273.06,-86.78,-154.53
52.352325,-2.070919,168.88,25.08,4,54.41,23 / 23,328908,2020-01-08 16:26:43:884,2.8784,-0.9996,11.2817,0.0339,-0.0356,9.8065,0.0897,-0.2353,0.1885,-15.12,-36,-3.62,275.44,-86.71,-151.99
52.352325,-2.070919,168.88,25.08,4,54.41,23 / 23,329008,2020-01-08 16:26:43:984,0.9069,-1.3251,10.2389,-0.0088,-0.0454,9.8065,0.1238,-0.2488,0.0371,-15,-36.37,-3.56,278.92,-86.49,-148.05
52.352325,-2.070919,168.88,25.08,4,54.41,23 / 23,329108,2020-01-08 16:26:44:084,1.2379,-0.8971,10.8978,-0.0025,0.0022,9.8065,-0.0065,-0.1735,-0.0542,-15.25,-36.44,-4.12,276.69,-86.5,-150.28
52.352325,-2.070919,168.88,25.08,4,54.41,23 / 23,329207,2020-01-08 16:26:44:183,-0.4961,-0.1458,8.6796,-0.0548,-0.0001,9.8065,-0.0986,-0.0106,0.0529,-14.94,-35.81,-4.12,277.85,-86.31,-148.67
52.352325,-2.070919,168.88,25.08,4,54.41,23 / 23,329308,2020-01-08 16:26:44:284,2.7905,-0.7453,10.626,-0.0199,-0.0442,9.8065,-0.2401,0.0669,0.1288,-15.94,-36.37,-3.62,281.96,-86.48,-146.43
52.352325,-2.070919,168.88,25.08,4,54.41,23 / 23,329408,2020-01-08 16:26:44:384,0.2995,-0.5994,8.5205,0.0068,-0.0761,9.8063,-0.216,0.2337,0.0113,-15.37,-35.94,-4.06,276.32,-86.55,-150.75
52.352325,-2.070919,168.88,25.08,4,54.41,23 / 23,329507,2020-01-08 16:26:44:483,-0.3115,4.1824,9.3764,-0.0229,-0.0032,9.8065,-0.0667,-0.2597,0.0951,-15.19,-36,-3.25,281.97,-86.53,-148.68
52.352325,-2.070919,168.88,25.08,4,54.41,23 / 23,329608,2020-01-08 16:26:44:584,2.5964,-0.3343,8.1736,0.0758,-0.0274,9.8063,0.0415,-0.4116,0.1876,-14.87,-35.94,-3,280.13,-86.04,-149.31
52.352325,-2.070919,168.88,25.08,4,54.41,23 / 23,329708,2020-01-08 16:26:44:684,0.5736,3.5893,8.6963,0.0098,-0.0714,9.8064,0.1603,-0.5041,0.2619,-15.19,-36.5,-3.62,278.12,-86.07,-147.86
52.352325,-2.070919,168.88,25.08,4,54.41,23 / 23,329808,2020-01-08 16:26:44:784,2.8482,-1.3702,11.604,0.0639,0.0093,9.8064,0.3009,-0.6332,0.2124,-15.69,-36.12,-3.37,283.44,-86.24,-147.78
52.352325,-2.070919,168.88,25.08,4,54.41,22 / 23,329908,2020-01-08 16:26:44:884,-2.419,3.5427,6.9445,0.0733,-0.0418,9.8062,0.1181,-0.41,0.1446,-14.81,-36.25,-2.87,282.75,-85.97,-146.59
52.352325,-2.070919,168.88,25.08,4,54.41,22 / 23,330008,2020-01-08 16:26:44:984,1.1433,-2.7218,10.7926,-0.0475,0.0142,9.8065,0.028,-0.2207,0.097,-15.25,-35.87,-3.12,284.31,-86.06,-145.31
52.352325,-2.070919,168.88,25.08,4,54.41,22 / 23,330107,2020-01-08 16:26:45:083,2.4001,-2.5176,11.6658,0.0453,-0.0405,9.8064,-0.1485,0.1251,-0.032,-15.87,-36.44,-3.12,286.85,-85.99,-143.96
52.352325,-2.070919,168.88,25.08,4,54.41,22 / 23,330207,2020-01-08 16:26:45:183,1.1919,-3.1021,10.5626,-0.1047,0.0193,9.8061,-0.315,0.3523,-0.1871,-15.81,-35.75,-3.25,288.67,-86.57,-143.48
52.352325,-2.070919,168.88,25.08,4,54.41,22 / 23,330308,2020-01-08 16:26:45:284,1.3182,-3.4522,12.6406,-0.0484,-0.0008,9.8064,-0.3258,0.5521,-0.3553,-15.81,-35.87,-3.12,288.84,-86.34,-142.8
52.352325,-2.070919,168.88,25.08,4,54.41,22 / 23,330408,2020-01-08 16:26:45:384,0.3031,6.6762,11.1754,-0.0229,0.0851,9.8062,0.0255,0.7469,-0.3979,-15.81,-36.12,-2.81,286.92,-86.03,-143.98
52.352325,-2.070919,168.88,25.08,4,54.41,22 / 23,330508,2020-01-08 16:26:45:484,0.0861,-6.3099,9.1965,-0.0012,0.116,9.8059,0.0114,0.7606,-0.4471,-16.31,-35.31,-2.37,284.75,-86.32,-150.34
52.352325,-2.070919,168.88,25.08,4,54.41,22 / 23,330608,2020-01-08 16:26:45:584,-1.8876,7.3961,9.5077,-0.0415,0.0313,9.8064,-0.0978,0.401,-0.3302,-16,-36,-3.06,285.8,-86.01,-145
52.352325,-2.070919,168.88,25.08,4,54.41,22 / 23,330707,2020-01-08 16:26:45:683,1.9731,1.4075,11.6341,-0.0451,0.0868,9.8062,-0.0706,-0.1935,0.186,-16.06,-36.19,-2.12,285.84,-86.05,-148.48
52.352325,-2.070919,168.88,25.08,4,54.41,22 / 23,330808,2020-01-08 16:26:45:784,-2.7221,7.083,6.8642,0.0735,-0.0751,9.806,0.0716,-0.556,0.4166,-15.87,-36,-3.37,286.74,-85.3,-142.57
52.352325,-2.070919,168.88,25.08,4,54.41,23 / 23,330907,2020-01-08 16:26:45:883,0.9395,2.1803,8.6266,-0.0044,0.0127,9.8065,0.0321,-0.9665,0.4099,-16.62,-35.87,-2.69,287.41,-85.46,-143.45
52.352325,-2.070919,168.88,25.08,4,54.41,23 / 23,331008,2020-01-08 16:26:45:984,0.9722,-5.6811,9.2465,0.0426,-0.061,9.8063,0.0811,-0.6892,0.3641,-16.69,-35.87,-2.62,286.67,-85.76,-144.76
52.352325,-2.070919,168.88,25.08,4,54.41,23 / 23,331108,2020-01-08 16:26:46:084,0.5496,5.4769,9.4892,0.039,-0.0289,9.8065,-0.122,-0.501,0.1801,-16.06,-36.31,-2.69,286.9,-85.82,-143.54
52.352325,-2.070919,168.88,25.08,4,54.41,23 / 23,331208,2020-01-08 16:26:46:184,-0.4607,-3.5269,9.7987,-0.0227,-0.0729,9.8063,-0.09,-0.032,0.1667,-16.37,-35.37,-2.12,287.53,-85.95,-146.87
52.352325,-2.070919,168.88,25.08,4,54.41,23 / 23,331308,2020-01-08 16:26:46:284,-0.4699,3.4112,10.8913,-0.0109,-0.0716,9.8063,-0.0204,-0.3676,-0.0159,-15.94,-36.44,-2.62,291.91,-85.92,-139
52.352325,-2.070919,168.88,25.08,4,54.41,23 / 23,331407,2020-01-08 16:26:46:383,1.2139,-3.4463,11.0018,0.0242,-0.0433,9.8065,0.1064,-0.1409,0.0003,-16.75,-35.56,-2.37,296.41,-85.63,-138.54
52.352325,-2.070919,168.88,25.08,4,54.41,23 / 23,331508,2020-01-08 16:26:46:484,-0.1432,3.8155,10.1216,0.0204,-0.0765,9.8063,0.17,0.166,-0.0814,-15.69,-36.06,-1.94,296.45,-85.75,-137.81
52.352325,-2.070919,168.88,25.08,4,54.41,23 / 23,331608,2020-01-08 16:26:46:584,0.7455,-4.0705,9.3808,0.0141,0.0113,9.8066,0.1147,0.4099,-0.1687,-16.31,-35.94,-2.62,292.5,-85.95,-138.52
52.352325,-2.070919,168.88,25.08,4,54.41,23 / 23,331707,2020-01-08 16:26:46:683,0.8637,-1.0391,10.3627,0.0129,-0.0621,9.8064,-0.0424,0.472,-0.5024,-16.12,-35.94,-2.44,298.26,-85.76,-136.16
52.352325,-2.070919,168.88,25.08,4,54.41,23 / 23,331808,2020-01-08 16:26:46:784,-0.0499,-5.1696,10.5118,-0.0325,0.0019,9.8065,-0.068,0.4966,-0.4367,-15.87,-36.06,-2.31,295.17,-85.8,-139.11
52.352325,-2.070919,168.88,25.08,4,54.41,23 / 23,331908,2020-01-08 16:26:46:884,-0.4466,1.2253,10.6571,0.012,-0.0548,9.8065,-0.0804,0.4336,-0.2161,-16.37,-35.87,-1.19,300.08,-85.91,-138.3
52.352325,-2.070919,168.88,25.08,4,54.41,22 / 22,332007,2020-01-08 16:26:46:983,-0.6138,-0.8529,9.0353,-0.0671,0.0245,9.8064,-0.0032,0.4336,-0.2284,-16.62,-35.62,-2.69,292.66,-86.27,-140.09
52.352325,-2.070919,168.88,25.08,4,54.41,22 / 22,332107,2020-01-08 16:26:47:083,1.132,-1.4979,10.9666,-0.0107,-0.0385,9.8066,0.0296,0.1348,-0.1726,-16.25,-35.75,-2.44,296.08,-85.98,-138.64
52.352325,-2.070919,168.88,25.08,4,54.41,22 / 22,332207,2020-01-08 16:26:47:183,-1.2212,-2.6052,9.2939,-0.0062,0.0245,9.8065,0.0436,0.2084,-0.0341,-16.37,-36.12,-2.31,296.19,-85.82,-138.21
52.352325,-2.070919,168.88,25.08,4,54.41,22 / 22,332307,2020-01-08 16:26:47:283,-0.376,-1.5882,10.27,0.0041,-0.0055,9.8066,-0.0026,0.1316,-0.0886,-16.87,-36.06,-2.44,298.18,-85.57,-136.79
52.352325,-2.070919,168.88,25.08,4,54.41,22 / 22,332408,2020-01-08 16:26:47:384,-3.6025,2.6734,8.247,-0.0673,0.0332,9.8064,-0.0773,0.1429,-0.1195,-16.37,-35.69,-2.37,297.67,-85.27,-135.71
52.352325,-2.070919,168.88,25.08,4,54.41,22 / 22,332508,2020-01-08 16:26:47:484,0.0471,-2.2417,10.7465,-0.0046,0.017,9.8066,0.0776,-0.3855,0.1084,-16.75,-35.75,-2.25,299.15,-85.37,-135.52
52.352325,-2.070919,168.88,25.08,4,54.41,22 / 22,332608,2020-01-08 16:26:47:584,-1.4007,5.7642,10.0661,0.0068,0.0293,9.8066,0.0209,-0.6712,0.5394,-16.56,-36.56,-2.62,293.37,-85.31,-137.26
52.352325,-2.070919,168.88,25.08,4,54.41,22 / 22,332707,2020-01-08 16:26:47:683,-0.3361,-0.6211,9.5961,-0.0433,0.0923,9.8061,0.1039,-0.5731,0.3523,-16.62,-35.44,-1.25,299.96,-85.38,-138.32
52.352325,-2.070919,168.88,25.08,4,54.41,22 / 22,332808,2020-01-08 16:26:47:784,0.2264,4.5977,9.1294,0.0388,0.0193,9.8065,-0.0769,-0.3958,0.2055,-17.12,-35.81,-1.12,300.43,-85.28,-137.46
52.352325,-2.070919,168.88,25.08,4,54.41,22 / 23,332908,2020-01-08 16:26:47:884,-0.5029,-2.1427,9.5611,-0.0141,0.0446,9.8065,-0.0724,-0.3121,0.1575,-17,-36.12,-1.81,293.29,-85.29,-140.78
52.352325,-2.070919,168.88,25.08,4,54.41,22 / 23,333008,2020-01-08 16:26:47:984,0.1328,-4.4143,9.8909,0.0154,-0.0646,9.8063,0.0151,0.0102,0.0026,-16.94,-36.31,-1.44,298.59,-85.47,-139.51
52.352325,-2.070919,168.88,25.08,4,54.41,22 / 23,333108,2020-01-08 16:26:48:084,-0.1616,-2.6757,9.2967,0.0003,0.0037,9.8066,0.0185,0.066,-0.1069,-16.69,-35.5,-1.94,297.28,-85.32,-137.37
52.352325,-2.070919,168.88,25.08,4,54.41,22 / 23,333208,2020-01-08 16:26:48:184,-0.9723,-1.8257,10.5753,0.0481,-0.072,9.8062,-0.1391,0.2094,-0.2636,-16.31,-36,-1.06,300.28,-84.86,-136.02
52.352325,-2.070919,168.88,25.08,4,54.41,22 / 23,333307,2020-01-08 16:26:48:283,-1.475,5.3748,8.4696,0.0353,-0.0103,9.8065,-0.143,0.4678,-0.2437,-16.25,-36.12,-1.19,297.92,-84.99,-138.42
52.352325,-2.070919,168.88,25.08,4,54.41,22 / 23,333408,2020-01-08 16:26:48:384,1.2009,-1.8391,10.7276,0.0362,-0.0495,9.8064,-0.1658,0.7148,-0.3783,-16.62,-35.69,-0.19,301.54,-85.01,-139.31
52.352325,-2.070919,168.88,25.08,4,54.41,22 / 23,333508,2020-01-08 16:26:48:484,-1.5551,6.6314,8.2297,0.0532,-0.0772,9.8062,-0.2214,0.596,-0.4149,-16.62,-35.81,-0.81,299.37,-84.71,-137.34
52.352325,-2.070919,168.88,25.08,4,54.41,22 / 23,333608,2020-01-08 16:26:48:584,0.1423,1.368,10.7141,0.036,0.0209,9.8065,-0.1602,0.2716,-0.0345,-17.06,-35.69,-0.75,298.37,-84.96,-138.73
52.352325,-2.070919,168.88,25.08,4,54.41,22 / 23,333708,2020-01-08 16:26:48:684,-2.0568,6.6502,7.6074,0.079,-0.0347,9.8062,-0.0176,0.0711,0.0019,-16.75,-36.12,-1.75,293.03,-84.7,-139.84
52.352325,-2.070919,168.88,25.08,4,54.41,22 / 23,333807,2020-01-08 16:26:48:783,0.6884,0.7028,9.4641,-0.0513,0.0382,9.8064,0.0583,-0.4814,0.3515,-16.94,-36.19,-1.12,293.16,-84.97,-143.55
52.352325,-2.070919,168.88,25.08,4,54.41,23 / 23,333908,2020-01-08 16:26:48:884,-0.3334,-0.6985,11.6723,-0.0113,-0.0313,9.8066,0.138,-0.7545,0.5401,-16.69,-36.69,-1.06,295.44,-84.65,-140.52
52.352325,-2.070919,168.88,25.08,4,54.41,23 / 23,334008,2020-01-08 16:26:48:984,-2.7068,6.6287,6.6215,-0.1059,0.0684,9.8058,0.2778,-0.641,0.3698,-16.31,-35.75,-1.69,290.27,-84.21,-140.26
52.352325,-2.070919,168.88,25.08,4,54.41,23 / 23,334108,2020-01-08 16:26:49:084,-0.9012,1.4001,11.2634,-0.0921,-0.0393,9.8061,0.2008,-0.4782,0.2333,-16.31,-36.06,-1.69,292.26,-84.75,-139.6
52.352325,-2.070919,168.88,25.08,4,54.41,23 / 23,334208,2020-01-08 16:26:49:184,-3.4152,5.6111,8.2741,0.0029,0.0293,9.8066,-0.1091,-0.502,0.1088,-16.69,-35.44,-1.56,293.02,-84.61,-139.96
52.352325,-2.070919,168.88,25.08,4,54.41,23 / 23,334308,2020-01-08 16:26:49:284,0.0432,-2.0528,8.6257,-0.0785,0.0698,9.806,-0.2142,-0.2446,0.1437,-16.69,-35.25,-1.25,295.45,-84.81,-141.38
52.352325,-2.070919,168.88,25.08,4,54.41,23 / 23,334408,2020-01-08 16:26:49:384,-0.2837,5.3168,9.5823,0.0539,0.0211,9.8065,-0.1779,0.4822,-0.0882,-16.81,-36.06,-1.37,295.16,-84.3,-140.35
52.352325,-2.070919,168.88,25.08,4,54.41,23 / 23,334508,2020-01-08 16:26:49:484,-1.7564,-1.9935,7.5349,0.039,0.0525,9.8064,-0.2044,0.2895,-0.3557,-16.94,-35.87,-2.25,291.29,-84.43,-140.89
52.352325,-2.070919,168.88,25.08,4,54.41,23 / 23,334608,2020-01-08 16:26:49:584,0.4746,-1.8372,10.9977,0.0411,-0.0108,9.8065,0.1096,0.4252,-0.1532,-15.94,-35.19,-2,291.77,-84.49,-139.8
52.352325,-2.070919,168.88,25.08,4,54.41,23 / 23,334708,2020-01-08 16:26:49:684,-3.4545,0.446,8.681,0.0632,0.0027,9.8064,0.1685,0.2935,-0.0521,-17,-35.87,-2.19,291.2,-84.06,-140.23
52.352325,-2.070919,168.88,25.08,4,54.41,23 / 23,334808,2020-01-08 16:26:49:784,-1.2601,-2.5487,10.6235,0.02,-0.0333,9.8065,0.1049,-0.0941,-0.0693,-17.06,-35.62,-1.75,292.43,-84.33,-139.63
52.352325,-2.070919,168.88,25.08,4,54.41,23 / 23,334908,2020-01-08 16:26:49:884,-0.1665,0.687,10.9658,0.0077,-0.0136,9.8066,0.0833,-0.1575,-0.0414,-16.06,-35.62,-1.87,290.42,-84.16,-140.01
52.352325,-2.070919,168.88,25.08,4,54.41,23 / 23,335008,2020-01-08 16:26:49:984,0.5723,-2.2093,11.871,-0.0581,-0.0042,9.8064,0.2788,-0.3016,0.2061,-17.56,-35.5,-1.06,299.75,-84.33,-137.33
52.352325,-2.070919,168.88,25.08,4,54.41,23 / 23,335108,2020-01-08 16:26:50:084,-0.7651,1.2981,10.0773,0.0225,-0.0297,9.8065,0.2961,-0.1798,0.1713,-17.69,-34.87,-1.37,297.3,-83.91,-138.79
52.352325,-2.070919,168.88,25.08,4,54.41,23 / 23,335208,2020-01-08 16:26:50:184,-1.8684,-0.328,8.3848,-0.0423,-0.0358,9.8064,-0.0984,0.0604,-0.1226,-16.94,-35.37,-1.75,290.42,-83.93,-141.01
52.352325,-2.070919,168.88,25.08,4,54.41,23 / 23,335307,2020-01-08 16:26:50:283,-1.2915,-1.5728,10.2951,-0.0702,0.0162,9.8063,-0.2051,0.1101,-0.1847,-16.69,-36,-2.06,291.26,-84.26,-140.57
52.352325,-2.070919,168.88,25.08,4,54.41,23 / 23,335408,2020-01-08 16:26:50:384,-3.0485,0.4211,8.3104,-0.0208,0.0059,9.8065,-0.1696,0.271,0.0511,-16.87,-35.56,-1.94,291.15,-84.01,-140.18
52.352325,-2.070919,168.88,25.08,4,54.41,23 / 23,335508,2020-01-08 16:26:50:484,-3.0146,2.0928,9.7336,-0.0334,-0.0209,9.8066,-0.0943,0.2064,-0.0122,-16.25,-35.19,-0.37,300.05,-84.13,-138.62
52.352325,-2.070919,168.88,25.08,4,54.41,23 / 23,335608,2020-01-08 16:26:50:584,-0.737,2.2147,9.8854,0.0254,-0.0541,9.8064,0.0171,0.0617,-0.1017,-16.75,-35.56,-1.06,296.9,-84.01,-138.2
52.352325,-2.070919,168.88,25.08,4,54.41,23 / 23,335708,2020-01-08 16:26:50:684,-1.1226,2.0676,8.0849,0.031,0.0022,9.8066,0.1595,-0.0034,-0.0467,-16.81,-35.69,-1.31,294.54,-84.11,-140.55
52.352325,-2.070919,168.88,25.08,4,54.41,23 / 23,335808,2020-01-08 16:26:50:784,1.3583,-0.6672,11.1466,0.0435,-0.0187,9.8065,0.1195,-0.1476,-0.0253,-16.25,-36,-1.31,294.46,-84.28,-140.04
52.352325,-2.070919,168.88,25.08,4,54.41,23 / 23,335907,2020-01-08 16:26:50:883,-0.3621,-0.8307,10.1494,0.0057,-0.0039,9.8066,0.0507,-0.2582,0.0079,-17.12,-35.56,-1,296.67,-84.2,-138.8
52.352325,-2.070919,168.88,25.08,4,54.41,23 / 23,336008,2020-01-08 16:26:50:984,-0.4482,0.9862,9.7934,0.0045,0.0224,9.8066,0.0082,0.0141,0.0635,-17,-35.56,-0.56,296.02,-84.16,-139.3
52.352325,-2.070919,168.88,25.08,4,54.41,23 / 23,336108,2020-01-08 16:26:51:084,-0.1486,1.0319,9.5564,0.016,-0.0012,9.8065,-0.0968,-0.0095,0.0617,-16.56,-35.62,-1.06,293.19,-84.12,-141.81
52.352325,-2.070919,168.88,25.08,4,54.41,23 / 23,336207,2020-01-08 16:26:51:183,-0.5866,0.6219,9.1529,-0.0445,-0.0312,9.8064,-0.1455,0.0701,0.0756,-16.69,-35.37,-1.25,291.66,-84.14,-143.58
52.352325,-2.070919,168.88,25.08,4,54.41,23 / 23,336308,2020-01-08 16:26:51:284,-0.8365,3.9617,11.3051,-0.0296,-0.0208,9.8065,-0.1274,-0.0242,0.1677,-17.44,-35.62,-1.31,291.95,-84.23,-143.17
52.352325,-2.070919,168.88,25.08,4,54.41,23 / 23,336408,2020-01-08 16:26:51:384,0.4372,2.2495,9.2044,-0.0045,-0.0707,9.8063,-0.126,-0.1413,0.1256,-17.12,-35.62,-1.44,294.32,-84.05,-140.64
52.352325,-2.070919,168.88,25.08,4,54.41,23 / 23,336508,2020-01-08 16:26:51:484,-0.3467,4.4217,10.0512,-0.0322,-0.0474,9.8065,-0.102,-0.377,0.2905,-17.31,-35.31,-0.87,296.53,-84.09,-139.02
52.352325,-2.070919,168.88,25.08,4,54.41,23 / 23,336608,2020-01-08 16:26:51:584,-0.6144,-2.2953,10.0121,0.0014,-0.037,9.8065,0.0196,-0.3876,0.2839,-17.5,-35.81,-0.94,295.28,-84.16,-139.98
52.352325,-2.070919,168.88,25.08,4,54.41,23 / 23,336708,2020-01-08 16:26:51:684,-1.7381,3.7832,8.5699,0.0434,-0.0108,9.8065,0.0483,-0.1357,-0.0175,-16.69,-35.56,-1.44,294.52,-84.1,-140.54
52.352325,-2.070919,168.88,25.08,4,54.41,23 / 23,336808,2020-01-08 16:26:51:784,0.3084,1.6862,10.4676,-0.0453,0.0317,9.8064,-0.0851,0.1249,-0.1183,-16.75,-35.44,-1.12,293.93,-84.03,-141.26
52.352325,-2.070919,168.88,25.08,4,54.41,23 / 23,336910,2020-01-08 16:26:51:886,-0.3792,2.1182,9.1857,0.0268,0.0061,9.8066,-0.0788,0.4412,-0.0295,-17,-36,-1.19,291.54,-84.02,-143.12
52.35328,-2.067837,171.36,25.58,4,67.51,23 / 23,337009,2020-01-08 16:26:51:985,0.4376,2.5175,9.4774,0.005,0.0007,9.8066,-0.0086,0.4342,-0.0899,-17.06,-35.94,-1.19,291.55,-84.09,-143.24
52.35328,-2.067837,171.36,25.58,4,67.51,23 / 23,337107,2020-01-08 16:26:52:083,1.1166,-2.7251,10.0513,-0.0567,0.0492,9.8063,-0.1039,0.0199,-0.0463,-16.81,-35.87,-0.37,295.57,-84.11,-142.96
52.35328,-2.067837,171.36,25.58,4,67.51,23 / 23,337208,2020-01-08 16:26:52:184,-1.2793,0.7573,7.6625,0.004,-0.0338,9.8065,-0.0124,-0.2081,0.1429,-17.56,-35.62,-1.37,293.01,-84.1,-142.77
52.35328,-2.067837,171.36,25.58,4,67.51,23 / 23,337308,2020-01-08 16:26:52:284,-1.5687,5.8864,7.6991,-0.0314,-0.0245,9.8065,0.1272,-0.6134,0.4428,-17.12,-35.69,-0.69,293.35,-84.11,-141.63
52.35328,-2.067837,171.36,25.58,4,67.51,23 / 23,337407,2020-01-08 16:26:52:383,-0.6357,0.3772,7.7227,0.1005,-0.0557,9.8059,0.2177,-0.6223,0.3721,-17.12,-35.56,-0.87,291.56,-83.68,-142.39
52.35328,-2.067837,171.36,25.58,4,67.51,23 / 23,337508,2020-01-08 16:26:52:484,-3.504,5.7929,8.5008,0.0319,-0.043,9.8064,0.2321,-0.2932,-0.042,-17.06,-35.81,-0.81,292.76,-83.81,-141.57
52.35328,-2.067837,171.36,25.58,4,67.51,23 / 23,337607,2020-01-08 16:26:52:583,-0.5543,-0.1718,11.3659,0.0325,-0.002,9.8066,0.0997,0.0081,-0.0566,-16.69,-35.56,-0.75,292.18,-83.94,-142.35
52.35328,-2.067837,171.36,25.58,4,67.51,23 / 23,337707,2020-01-08 16:26:52:683,-1.4671,6.0385,8.8649,0.0678,-0.0626,9.8061,-0.0762,0.2538,-0.2232,-16.75,-35.37,-1,291.16,-83.54,-142.83
52.35328,-2.067837,171.36,25.58,4,67.51,23 / 23,337807,2020-01-08 16:26:52:783,1.3439,-0.4045,10.106,-0.0359,0.0104,9.8065,-0.0672,0.6,-0.1941,-17.19,-35.37,-0.56,290.03,-83.5,-143.8
52.35328,-2.067837,171.36,25.58,4,67.51,23 / 23,337908,2020-01-08 16:26:52:884,0.594,-5.3542,10.6591,0.0054,-0.0173,9.8066,-0.1536,0.7859,-0.3907,-17.06,-35.25,-0.81,291.85,-83.62,-142.36
52.35328,-2.067837,171.36,25.58,4,67.51,23 / 24,338008,2020-01-08 16:26:52:984,-1.2096,4.4432,7.5834,-0.1005,0.0613,9.8058,-0.1928,0.5571,-0.4158,-17.31,-35.87,-1.19,295.62,-84.19,-139.72
52.35328,-2.067837,171.36,25.58,4,67.51,23 / 24,338108,2020-01-08 16:26:53:084,0.3731,-1.578,10.0261,-0.0244,0.0127,9.8066,-0.082,0.1245,0.0324,-16.69,-35.25,-0.56,295.19,-83.87,-139.8
52.35328,-2.067837,171.36,25.58,4,67.51,23 / 24,338208,2020-01-08 16:26:53:184,-2.3671,6.3234,7.8918,-0.0388,0.0117,9.8065,-0.0023,-0.0979,0.2042,-16.5,-35.5,-0.94,293.27,-83.87,-140.6
52.35328,-2.067837,171.36,25.58,4,67.51,23 / 24,338307,2020-01-08 16:26:53:283,0.5918,-0.1504,10.6278,-0.0671,0.0938,9.8059,0.0942,-0.6497,0.3414,-16.75,-35.81,0.13,295.73,-84.16,-142.91
52.35328,-2.067837,171.36,25.58,4,67.51,23 / 24,338408,2020-01-08 16:26:53:384,0.1569,7.9754,7.9944,0.0529,-0.0207,9.8064,0.1423,-0.7663,0.4201,-16.12,-35.69,-0.25,294.49,-84,-142.99
52.35328,-2.067837,171.36,25.58,4,67.51,23 / 24,338508,2020-01-08 16:26:53:484,1.303,-0.3241,9.8835,-0.037,0.0452,9.8064,0.2117,-0.7446,0.4352,-17,-35.5,0,295.35,-83.96,-143.19
52.35328,-2.067837,171.36,25.58,4,67.51,23 / 24,338608,2020-01-08 16:26:53:584,1.8361,-5.3996,12.2522,0.0777,-0.0499,9.8061,0.0827,-0.6052,0.2856,-17.12,-35.44,-0.19,296.71,-83.49,-141.05
52.35328,-2.067837,171.36,25.58,4,67.51,23 / 24,338708,2020-01-08 16:26:53:684,0.5529,0.2524,7.8626,0.0748,-0.0159,9.8063,-0.282,-0.1178,0.0593,-17.31,-35.62,-0.12,295.01,-83.56,-142.35
52.35328,-2.067837,171.36,25.58,4,67.51,23 / 24,338807,2020-01-08 16:26:53:783,0.8207,-4.9179,9.3499,0.006,-0.0758,9.8063,-0.1818,0.283,-0.0677,-17.44,-36.19,-0.62,291.77,-83.89,-142.64
52.35328,-2.067837,171.36,25.58,4,67.51,23 / 23,338908,2020-01-08 16:26:53:884,0.175,6.6443,8.7853,0.0141,-0.0719,9.8063,-0.0862,0.7208,-0.4333,-17.62,-35.81,-1.37,295.87,-83.58,-139.16
52.35328,-2.067837,171.36,25.58,4,67.51,23 / 23,339008,2020-01-08 16:26:53:984,0.6394,0.2283,9.7239,0.0023,0.0031,9.8066,-0.1749,0.693,-0.541,-17.75,-35.37,-0.56,295.44,-83.59,-139.9
52.35328,-2.067837,171.36,25.58,4,67.51,23 / 23,339108,2020-01-08 16:26:54:084,-1.5232,5.0421,8.5644,0.0535,-0.0602,9.8062,-0.0942,0.6529,-0.2368,-16.87,-35.06,-0.87,292.97,-83.39,-140.86
52.35328,-2.067837,171.36,25.58,4,67.51,23 / 23,339208,2020-01-08 16:26:54:184,1.47,1.5134,9.2148,-0.0632,0.0432,9.8063,-0.0535,0.1094,-0.0344,-16.94,-35.87,0,294.51,-83.76,-143.21
52.35328,-2.067837,171.36,25.58,4,67.51,23 / 23,339307,2020-01-08 16:26:54:283,-0.1165,-4.3031,12.2399,-0.017,0.0089,9.8066,0.1327,0.1204,-0.005,-17.56,-35.69,-0.19,295.83,-83.71,-142.59
52.35328,-2.067837,171.36,25.58,4,67.51,23 / 23,339408,2020-01-08 16:26:54:384,0.1414,-0.9067,8.5206,-0.0539,0.072,9.8062,0.2675,-0.3889,0.0355,-16.87,-36.06,0.25,295.02,-83.49,-142.19
52.35328,-2.067837,171.36,25.58,4,67.51,23 / 23,339507,2020-01-08 16:26:54:483,1.2474,-2.095,11.4597,-0.0795,-0.0001,9.8062,0.215,-0.2942,0.1224,-17.19,-35.81,0.63,299.13,-83.9,-142.74
52.35328,-2.067837,171.36,25.58,4,67.51,23 / 23,339608,2020-01-08 16:26:54:584,-1.395,4.1278,10.6838,-0.0079,0.0476,9.8064,0.0529,-0.5245,0.3412,-16.37,-35.94,-0.62,290.17,-83.81,-142.95
52.35328,-2.067837,171.36,25.58,4,67.51,23 / 23,339707,2020-01-08 16:26:54:683,1.3869,-1.1314,10.496,-0.0212,0.0724,9.8063,0.0936,-0.531,0.4194,-16.75,-35.62,-0.06,291.97,-83.98,-145.98
52.35328,-2.067837,171.36,25.58,4,67.51,23 / 23,339808,2020-01-08 16:26:54:784,-2.8842,4.6256,7.5781,-0.0464,0.0195,9.8064,0.1615,-0.4138,0.1769,-17.25,-35.19,-0.31,293.36,-83.77,-144.63
52.35328,-2.067837,171.36,25.58,4,67.51,22 / 22,339907,2020-01-08 16:26:54:883,-0.7341,3.7631,9.9698,-0.0355,0.0193,9.8065,0.032,-0.2027,-0.0671,-16.75,-35.62,-0.25,292.13,-83.88,-145.62
52.35328,-2.067837,171.36,25.58,4,67.51,22 / 22,340007,2020-01-08 16:26:54:983,-2.7342,5.4298,7.7153,-0.019,-0.0888,9.8062,0.3014,0.0833,-0.088,-17.31,-34.5,-0.75,289.54,-84.06,-145.71
52.35328,-2.067837,171.36,25.58,4,67.51,22 / 22,340108,2020-01-08 16:26:55:084,1.425,2.3661,12.6453,-0.1043,-0.0017,9.806,0.2484,0.4296,-0.171,-17.25,-35.44,0,297.37,-84.19,-141.8
52.35328,-2.067837,171.36,25.58,4,67.51,22 / 22,340208,2020-01-08 16:26:55:184,2.094,-4.5335,11.3255,0.0633,-0.0641,9.8062,0.0262,0.5579,-0.4445,-17.06,-35.37,-0.19,295.48,-84.11,-143.37
52.35328,-2.067837,171.36,25.58,4,67.51,22 / 22,340307,2020-01-08 16:26:55:283,1.0688,-2.7757,11.0899,-0.0229,0.0552,9.8065,-0.0423,0.6901,-0.5524,-16.81,-35.87,-0.56,291.71,-83.97,-142.85
52.35328,-2.067837,171.36,25.58,4,67.51,22 / 22,340408,2020-01-08 16:26:55:384,0.0873,-7.1823,10.4646,0.0192,-0.0329,9.8066,-0.0136,0.8245,-0.4912,-17.44,-35.87,0.25,295.23,-83.63,-142.3
52.35328,-2.067837,171.36,25.58,4,67.51,22 / 22,340508,2020-01-08 16:26:55:484,0.1478,0.5544,8.3247,0.0382,-0.0629,9.8063,-0.0303,0.8394,-0.5179,-18,-35.37,-0.19,297.45,-83.55,-141.18
52.35328,-2.067837,171.36,25.58,4,67.51,22 / 22,340608,2020-01-08 16:26:55:584,-0.2143,-1.6767,10.4584,0.0408,-0.0452,9.8064,0.1065,0.8315,-0.5316,-17.25,-35.94,0.19,297.16,-83.27,-139.84
52.35328,-2.067837,171.36,25.58,4,67.51,22 / 22,340707,2020-01-08 16:26:55:683,-1.6678,7.0365,9.5406,0.0069,0.0743,9.8063,0.0115,0.4496,-0.3334,-17.5,-35,-0.44,297,-83.45,-140.71
52.35328,-2.067837,171.36,25.58,4,67.51,22 / 22,340808,2020-01-08 16:26:55:784,-0.8679,-2.1269,9.624,-0.0234,0.0901,9.8061,0.0719,0.1115,-0.0306,-18.06,-35.56,-0.62,289.87,-83.68,-144.84
52.35328,-2.067837,171.36,25.58,4,67.51,22 / 22,340907,2020-01-08 16:26:55:883,-2.4034,4.2996,8.7123,0.0031,0.0224,9.8066,0.0566,-0.029,-0.0406,-17.81,-35.37,-0.12,293.77,-83.63,-144.66
52.35328,-2.067837,171.36,25.58,4,67.51,23 / 23,341008,2020-01-08 16:26:55:984,-0.0276,-1.5728,10.9102,-0.032,0.0609,9.8064,-0.0857,-0.491,0.1394,-17.37,-35.19,-0.25,292.99,-83.66,-144.74
52.35328,-2.067837,171.36,25.58,4,67.51,23 / 23,341107,2020-01-08 16:26:56:083,-0.0616,-2.2378,9.6311,-0.0057,-0.0619,9.8064,-0.073,-0.392,0.3637,-18.06,-35.37,0,291.77,-83.57,-146.36
52.35328,-2.067837,171.36,25.58,4,67.51,23 / 23,341208,2020-01-08 16:26:56:184,0.9254,-5.0396,11.1469,-0.047,0.0402,9.8064,0.016,-0.7477,0.4945,-17.87,-35.37,0,290.45,-83.67,-147.78
52.35328,-2.067837,171.36,25.58,4,67.51,23 / 23,341308,2020-01-08 16:26:56:284,0.8192,0.4775,9.3474,0.0062,-0.0752,9.8063,-0.0524,-0.7405,0.4094,-17.56,-35.06,-0.87,285.03,-83.57,-149.51
52.35328,-2.067837,171.36,25.58,4,67.51,23 / 23,341407,2020-01-08 16:26:56:383,-1.8972,6.7367,8.4658,0.0175,-0.003,9.8065,0.0536,-0.6811,0.3728,-17.75,-35.31,-0.94,287.38,-83.54,-147.22
52.35328,-2.067837,171.36,25.58,4,67.51,23 / 23,341508,2020-01-08 16:26:56:484,-0.1834,2.3526,9.9796,0.0249,-0.0873,9.8061,-0.0368,-0.533,0.3492,-17.62,-35.25,-0.56,288.42,-83.37,-145.94
52.35328,-2.067837,171.36,25.58,4,67.51,23 / 23,341608,2020-01-08 16:26:56:584,-0.5704,4.9112,10.1739,0.0238,-0.036,9.8065,0.039,-0.2922,0.1659,-17.44,-35.19,-1.06,284.8,-83.36,-148.36
52.35328,-2.067837,171.36,25.58,4,67.51,23 / 23,341708,2020-01-08 16:26:56:684,0.0753,-4.8709,10.8421,0.0358,-0.0592,9.8064,0.0167,-0.1303,0.0945,-17.81,-33.94,-0.06,288.18,-83.46,-149.86
52.35328,-2.067837,171.36,25.58,4,67.51,23 / 23,341808,2020-01-08 16:26:56:784,0.1325,5.0498,7.7862,0.0801,-0.0394,9.8062,-0.2121,0.3745,-0.2764,-17.87,-34.87,-0.25,287.57,-83.07,-149.31
52.35328,-2.067837,171.36,25.58,4,67.51,23 / 23,341908,2020-01-08 16:26:56:884,0.5066,-1.2268,10.3658,-0.0638,0.0379,9.8063,-0.2571,0.4719,-0.1944,-17.81,-34.56,0,285.88,-83.37,-151.48
52.35328,-2.067837,171.36,25.58,4,67.51,22 / 22,342008,2020-01-08 16:26:56:984,0.7284,-2.1505,9.6336,-0.0035,-0.0415,9.8065,-0.1997,0.4159,-0.1453,-16.62,-34.56,0,286.62,-83.47,-150.23
52.35328,-2.067837,171.36,25.58,4,67.51,22 / 22,342107,2020-01-08 16:26:57:083,1.1821,-0.9826,11.6582,-0.0536,-0.0069,9.8065,-0.2424,0.2819,-0.1573,-16.69,-34.37,0.06,289.47,-83.78,-148.56
52.35328,-2.067837,171.36,25.58,4,67.51,22 / 22,342208,2020-01-08 16:26:57:184,-0.0497,-0.9182,9.9789,0.0408,-0.0222,9.8065,-0.1115,0.0816,0.0245,-16.75,-33.87,0.06,287.44,-83.73,-150.36
52.35328,-2.067837,171.36,25.58,4,67.51,22 / 22,342308,2020-01-08 16:26:57:284,-1.9784,4.4087,9.0502,-0.0052,-0.0388,9.8065,-0.0855,0.0259,0.134,-16,-34,0.25,287.12,-83.53,-149.47
52.35328,-2.067837,171.36,25.58,4,67.51,22 / 22,342407,2020-01-08 16:26:57:383,-0.9967,-0.6003,9.0579,0.0612,-0.0354,9.8063,-0.0315,-0.3056,0.1787,-16.81,-33.62,0.13,287.63,-83.2,-149.11
52.35328,-2.067837,171.36,25.58,4,67.51,22 / 22,342508,2020-01-08 16:26:57:484,-1.6588,4.1787,8.0773,0.0404,-0.0411,9.8065,0.0836,-0.5354,0.2176,-16.56,-33.69,-0.12,289.57,-83.26,-147.44
52.35328,-2.067837,171.36,25.58,4,67.51,22 / 22,342608,2020-01-08 16:26:57:584,0.4579,1.7475,11.0835,0.0477,0.0412,9.8064,0.1127,-0.5214,0.2601,-16.75,-32.69,0.38,292.14,-83.48,-145.87
52.35328,-2.067837,171.36,25.58,4,67.51,22 / 22,342708,2020-01-08 16:26:57:684,-1.4603,4.5533,9.2138,0.0507,-0.037,9.8064,0.1853,-0.2268,0.184,-15.37,-33.75,0.88,292.28,-83.22,-147.01
52.35328,-2.067837,171.36,25.58,4,67.51,22 / 22,342807,2020-01-08 16:26:57:783,1.1684,1.1813,11.0512,-0.0062,0.0328,9.8066,0.1119,-0.0805,0.0656,-14.87,-33.87,1.5,296.63,-83.37,-147.33
52.35328,-2.067837,171.36,25.58,4,67.51,24 / 24,342908,2020-01-08 16:26:57:884,-0.1505,-2.6068,10.0251,0.0285,0.0051,9.8065,0.0735,0.0678,-0.1289,-15,-34.69,1.69,294.86,-83.41,-148.56
52.35328,-2.067837,171.36,25.58,4,67.51,24 / 24,343008,2020-01-08 16:26:57:984,-0.0856,-1.5525,10.0683,-0.0553,0.0533,9.8063,-0.0505,0.1569,-0.1851,-14.25,-35.25,1.88,294.18,-83.74,-149.5
52.35328,-2.067837,171.36,25.58,4,67.51,24 / 24,343107,2020-01-08 16:26:58:083,0.5094,-0.9328,10.3834,-0.0129,0.0045,9.8066,-0.1472,0.4014,-0.0592,-14.75,-35.81,1.38,290.42,-83.63,-148.77
52.35328,-2.067837,171.36,25.58,4,67.51,24 / 24,343207,2020-01-08 16:26:58:183,-1.6302,2.9299,8.8351,-0.0421,0.0092,9.8065,-0.1116,0.4094,-0.1282,-14.62,-35.75,2.06,293.08,-83.58,-150.14
52.35328,-2.067837,171.36,25.58,4,67.51,24 / 24,343308,2020-01-08 16:26:58:284,1.2868,-2.4492,10.6593,-0.0241,0.0309,9.8065,-0.1543,0.3444,-0.1156,-14.87,-34.62,1.44,288.92,-83.65,-150.61
52.35328,-2.067837,171.36,25.58,4,67.51,24 / 24,343407,2020-01-08 16:26:58:383,-0.9176,2.883,8.1848,0.0364,-0.045,9.8064,-0.1178,0.2174,-0.1114,-15.56,-32.75,0.81,291.96,-83.3,-148.52
52.35328,-2.067837,171.36,25.58,4,67.51,24 / 24,343508,2020-01-08 16:26:58:484,-1.0224,0.8905,9.8051,-0.0024,0.0034,9.8065,-0.0704,-0.0065,0.0434,-15.5,-30.25,0.44,289.16,-83.4,-148.11
52.35328,-2.067837,171.36,25.58,4,67.51,24 / 24,343608,2020-01-08 16:26:58:584,-1.9122,2.3902,7.8941,0.0474,-0.0004,9.8064,0.0573,-0.1356,0.0702,-15.12,-30.81,-0.56,283.75,-83.23,-148.59
52.35328,-2.067837,171.36,25.58,4,67.51,24 / 24,343708,2020-01-08 16:26:58:684,-0.382,1.816,10.1429,-0.0524,0.0237,9.8065,0.1805,-0.2976,0.1098,-15.87,-32.31,-0.5,287.32,-83.22,-149.45
52.35328,-2.067837,171.36,25.58,4,67.51,24 / 24,343808,2020-01-08 16:26:58:784,0.9268,-1.3378,11.5032,-0.0325,0.0137,9.8065,0.2562,-0.2851,0.0908,-16.25,-34.56,0.69,289.48,-83.51,-150.46
52.35328,-2.067837,171.36,25.58,4,67.51,22 / 24,343907,2020-01-08 16:26:58:883,-0.1091,2.5858,9.7631,-0.0828,-0.0106,9.8063,0.2093,-0.1132,-0.0183,-17.25,-36.44,1.44,291.8,-83.94,-149.43
52.35328,-2.067837,171.36,25.58,4,67.51,22 / 24,344008,2020-01-08 16:26:58:984,0.9878,-0.9071,12.149,-0.0572,0.0181,9.8064,0.1502,0.0227,-0.0771,-17.69,-36.69,0.75,290.11,-83.93,-151.15
52.35328,-2.067837,171.36,25.58,4,67.51,22 / 24,344107,2020-01-08 16:26:59:083,0.4047,-0.5572,9.5354,0.0009,-0.0271,9.8066,-0.0012,0.2482,-0.1241,-18.19,-36.37,0,285.32,-83.74,-152.39
52.35328,-2.067837,171.36,25.58,4,67.51,22 / 24,344208,2020-01-08 16:26:59:184,1.6062,-0.8851,12.7589,-0.065,-0.0143,9.8064,-0.1508,0.2988,-0.111,-18.31,-35.25,0.56,291.21,-83.78,-150.49
52.35328,-2.067837,171.36,25.58,4,67.51,22 / 24,344308,2020-01-08 16:26:59:284,0.5571,-1.4922,9.1093,0.0521,-0.0176,9.8065,-0.2334,0.3868,-0.0967,-18.12,-36.5,-0.19,288.12,-83.73,-149.73
52.35328,-2.067837,171.36,25.58,4,67.51,22 / 24,344408,2020-01-08 16:26:59:384,-4.1005,1.7734,6.6976,0.0064,-0.0297,9.8066,-0.2667,0.2569,-0.1196,-17.75,-36.31,-0.56,284.93,-83.55,-149.2
52.35328,-2.067837,171.36,25.58,4,67.51,22 / 24,344508,2020-01-08 16:26:59:484,-0.8875,-0.6024,9.4164,0.0858,-0.0021,9.8062,-0.2207,0.1034,-0.1312,-17.69,-35.94,0.06,286.12,-83.43,-151.01
52.35328,-2.067837,171.36,25.58,4,67.51,22 / 24,344607,2020-01-08 16:26:59:583,-1.3516,2.6921,7.3584,0.0481,0.0052,9.8065,-0.1604,-0.0688,0.0008,-17.12,-36.06,0.06,285.28,-83.71,-151.63
52.35328,-2.067837,171.36,25.58,4,67.51,22 / 24,344708,2020-01-08 16:26:59:684,-0.8064,1.1815,9.8059,0.0003,0.0315,9.8066,0.1085,-0.4378,0.2707,-17.69,-36.31,-0.31,287.53,-83.9,-150.62
52.35328,-2.067837,171.36,25.58,4,67.51,22 / 24,344808,2020-01-08 16:26:59:784,-3.187,4.2016,8.4997,0.0373,-0.0299,9.8065,0.1201,-0.5107,0.2881,-17.87,-36.37,-0.19,286.25,-83.81,-151.65
52.35328,-2.067837,171.36,25.58,4,67.51,22 / 23,344907,2020-01-08 16:26:59:883,3.1072,0.6676,10.1763,-0.0468,0.0395,9.8065,0.2111,-0.5881,0.3387,-17.75,-36.31,-0.12,285.71,-83.68,-151.89
52.35328,-2.067837,171.36,25.58,4,67.51,22 / 23,345009,2020-01-08 16:26:59:985,3.3131,-1.4398,11.1134,0.0378,-0.0439,9.8064,0.1214,-0.5875,0.4997,-17.62,-36.12,0.5,291.34,-83.71,-149.9
52.35328,-2.067837,171.36,25.58,4,67.51,22 / 23,345110,2020-01-08 16:27:00:086,-0.0456,-2.4639,10.013,-0.077,0.0422,9.8062,0.0747,-0.6141,0.1149,-17.75,-35.12,1.06,291.66,-84.33,-151.11
52.35328,-2.067837,171.36,25.58,4,67.51,22 / 23,345208,2020-01-08 16:27:00:184,2.2098,-6.1822,12.4388,-0.0488,0.067,9.8062,0.0221,-0.2272,-0.0971,-18,-35.69,0.31,285.79,-84.28,-153.03
52.35328,-2.067837,171.36,25.58,4,67.51,22 / 23,345308,2020-01-08 16:27:00:284,-0.8453,4.0949,8.5343,-0.0279,0.0662,9.8063,-0.1035,0.5896,-0.0536,-17.5,-35.44,0,288.26,-83.89,-149.56
52.35328,-2.067837,171.36,25.58,4,67.51,22 / 23,345408,2020-01-08 16:27:00:384,2.524,-4.0586,13.1183,-0.0257,0.0382,9.8065,-0.1584,0.5433,-0.2351,-17.62,-35.37,0.25,286.73,-84.06,-152.03
52.35328,-2.067837,171.36,25.58,4,67.51,22 / 23,345507,2020-01-08 16:27:00:483,1.6804,5.9736,11.6544,0.0802,0.0499,9.8061,0.0903,0.4965,-0.4884,-17.37,-35.37,-0.19,286.18,-84.03,-151.81
52.35328,-2.067837,171.36,25.58,4,67.51,22 / 23,345607,2020-01-08 16:27:00:583,1.377,0.9616,7.3284,0.0856,0.0953,9.8057,0.3122,0.5548,-0.3059,-17.56,-35.44,0.19,281.84,-83.63,-155.84
52.35328,-2.067837,171.36,25.58,4,67.51,22 / 23,345708,2020-01-08 16:27:00:684,2.8858,5.8194,11.0683,-0.0068,-0.0732,9.8063,0.2769,0.3009,-0.371,-17.31,-35.44,0.81,287.18,-83.66,-153.5
