GPS LATITUDE (degrees), GPS LONGITUDE (degrees), GPS ALTITUDE (m), GPS SPEED (Kmh), GPS ACCURACY (m), GPS ORIENTATION (Â°),GPS SATELLITES IN RANGE, TIME SINCE START (ms), DATE (YYYY-MO-DD HH-MI-SS_SSS), ACCELEROMETER X (m/s²) , ACCELEROMETER Y (m/s²), ACCELEROMETER Z (m/s²), GRAVITY X (m/s²), GRAVITY Y (m/s²), GRAVITY Z (m/s²), GYROSCOPE Yaw (rad/s), GYROSCOPE Pitch (rad/s), GYROSCOPE Roll (rad/s), MAGNETIC FIELD X (Î¼T), MAGNETIC FIELD Y (Î¼T), MAGNETIC FIELD Z (Î¼T), ORIENTATION (Yaw) (Â°), ORIENTATION (Pitch) (Â°), ORIENTATION (Roll ) (Â°)
52.55524,-1.471688,145.46,19.6,6,117.41,24 / 24,721109,2020-01-08 17:44:14:702,-0.1687,-0.2846,10.0584,0.0195,0.0185,9.8065,-0.0271,-0.2015,0.1056,-18.06,-34.19,14.19,325.26,-84.45,-157.77
52.55524,-1.471688,145.46,19.6,6,117.41,24 / 24,721210,2020-01-08 17:44:14:803,1.1332,1.2415,9.9383,0.0047,-0.0014,9.8066,-0.0486,-0.088,-0.0027,-18.19,-33.94,14.31,326.23,-84.51,-156.97
52.55524,-1.471688,145.46,19.6,6,117.41,24 / 24,721310,2020-01-08 17:44:14:903,0.2329,-0.2462,9.7103,0.0015,0.029,9.8066,0.0832,-0.1734,0.1276,-18.12,-34,14.06,326.27,-84.57,-156.98
52.55524,-1.471688,145.46,19.6,6,117.41,24 / 24,721410,2020-01-08 17:44:15:003,3.015,1.0652,9.6285,0.0021,-0.0177,9.8065,0.0348,0.2479,-0.1361,-18.56,-33.94,14.13,325.7,-84.25,-155.88
52.55524,-1.471688,145.46,19.6,6,117.41,24 / 24,721510,2020-01-08 17:44:15:103,0.1198,-1.2873,9.4305,0.019,0.0002,9.8065,-0.0616,-0.0653,0.0789,-18,-34.25,15.19,327.76,-84.14,-157.37
52.55524,-1.471688,145.46,19.6,6,117.41,24 / 24,721609,2020-01-08 17:44:15:202,-0.8726,-1.3539,10.3935,-0.006,-0.0061,9.8065,-0.0322,0.1875,-0.0586,-17.5,-33.87,15.13,330.15,-84.05,-156.69
52.55524,-1.471688,145.46,19.6,6,117.41,24 / 24,721709,2020-01-08 17:44:15:302,-0.6164,-0.0461,9.5314,0.0186,-0.0025,9.8066,-0.1242,0.0092,0.0164,-18,-34.37,14.38,325.26,-84.07,-157.43
52.55524,-1.471688,145.46,19.6,6,117.41,24 / 24,721810,2020-01-08 17:44:15:403,1.5978,-1.5683,10.8771,0.0189,-0.0059,9.8066,-0.0764,0.0278,-0.0101,-17.69,-34.31,14.88,328.47,-84.18,-156.78
52.55524,-1.471688,145.46,19.6,6,117.41,24 / 24,721910,2020-01-08 17:44:15:503,2.3424,-0.8272,9.384,0.0021,-0.0094,9.8066,0.0279,0.0812,-0.0442,-18.06,-34.25,14.69,328.02,-84.17,-157.17
52.55524,-1.471688,145.46,19.6,6,117.41,24 / 24,722010,2020-01-08 17:44:15:603,0.4081,-1.1291,10.0577,0.0148,-0.0265,9.8065,-0.0675,0.0286,0.0115,-18.31,-34.12,14.94,327.19,-84.01,-157.76
52.55524,-1.471688,145.46,19.6,6,117.41,24 / 24,722110,2020-01-08 17:44:15:703,1.6329,1.339,9.0392,0.0212,-0.0343,9.8065,-0.1,0.2358,-0.0881,-18.31,-34.19,15.06,328.03,-83.94,-156.97
52.55524,-1.471688,145.46,19.6,6,117.41,24 / 24,722210,2020-01-08 17:44:15:803,0.7364,-1.3642,9.9384,0.009,0.0059,9.8066,0.0505,-0.0527,0.1056,-18.12,-33.69,14.5,329.08,-84.05,-156.15
52.55524,-1.471688,145.46,19.6,6,117.41,24 / 24,722310,2020-01-08 17:44:15:903,2.5897,1.9661,10.2029,-0.0218,-0.0492,9.8064,-0.0456,0.2494,-0.1946,-17.5,-34,15.31,331.05,-83.85,-155.77
52.55524,-1.471688,145.46,19.6,6,117.41,24 / 24,722410,2020-01-08 17:44:16:003,0.7128,-2.2873,10.6488,0.0255,-0.0005,9.8066,-0.0389,-0.2978,0.1464,-17.81,-33.81,15.06,329.15,-83.93,-156
52.55524,-1.471688,145.46,19.6,6,117.41,24 / 24,722510,2020-01-08 17:44:16:103,-0.1798,-1.976,10.0756,-0.0159,-0.0168,9.8065,-0.0107,0.1517,-0.0232,-18.5,-34.5,14.94,329.75,-83.87,-155.43
52.55524,-1.471688,145.46,19.6,6,117.41,24 / 24,722610,2020-01-08 17:44:16:203,0.1368,-2.6434,10.2455,0.0001,0.0297,9.8065,0.057,-0.291,0.1209,-17.94,-34.37,15.56,331.67,-83.97,-155.79
52.55524,-1.471688,145.46,19.6,6,117.41,24 / 24,722709,2020-01-08 17:44:16:302,1.4374,-1.1121,9.8731,-0.0244,-0.0015,9.8066,-0.0068,0.0074,0.0128,-18.37,-33.87,15,330.53,-83.97,-154.84
52.55524,-1.471688,145.46,19.6,6,117.41,24 / 24,722810,2020-01-08 17:44:16:403,1.1366,0.2042,9.6503,0.0156,0.028,9.8065,0.0142,-0.2138,0.1338,-18.25,-34.5,15.13,330.87,-83.91,-154.49
52.55524,-1.471688,145.46,19.6,6,117.41,24 / 24,722910,2020-01-08 17:44:16:503,2.4448,0.685,9.141,-0.0015,-0.0077,9.8066,0.0077,0.0549,-0.0551,-18.25,-34.31,15.19,329.17,-84.01,-156.04
52.55524,-1.471688,145.46,19.6,6,117.41,24 / 24,723009,2020-01-08 17:44:16:602,1.4055,0.0259,8.8008,-0.0108,0.0451,9.8065,0.0723,-0.2397,0.1337,-17.62,-34.12,15.44,327.59,-83.96,-157.38
52.55524,-1.471688,145.46,19.6,6,117.41,24 / 24,723110,2020-01-08 17:44:16:703,0.5218,-1.8939,11.0529,-0.0307,0.021,9.8065,0.1303,-0.0898,-0.0107,-17.94,-33.87,15.38,328.18,-84.26,-157.11
52.55524,-1.471688,145.46,19.6,6,117.41,24 / 24,723210,2020-01-08 17:44:16:803,0.7474,-0.0331,9.5598,-0.0069,0.017,9.8066,0.0706,-0.1955,0.0585,-17.69,-33.94,14.81,327.22,-84.15,-157.85
52.55524,-1.471688,145.46,19.6,6,117.41,24 / 24,723310,2020-01-08 17:44:16:903,0.4435,-1.6187,10.4629,0.0011,0.0265,9.8066,0.0674,-0.1349,0.1298,-17.81,-34.37,14.69,326.89,-84.16,-158.15
52.55524,-1.471688,145.46,19.6,6,117.41,24 / 24,723410,2020-01-08 17:44:17:003,1.4678,0.8757,9.2868,0.0081,0.0192,9.8066,-0.0226,-0.1238,0.1031,-17.81,-34.12,15.06,327.41,-83.99,-157.55
52.55524,-1.471688,145.46,19.6,6,117.41,24 / 24,723510,2020-01-08 17:44:17:103,0.0064,-0.9725,10.2747,-0.0116,0.0177,9.8065,0.0598,-0.1775,0.0594,-18.25,-34.25,15.56,329.55,-84.06,-157.7
52.55524,-1.471688,145.46,19.6,6,117.41,24 / 24,723610,2020-01-08 17:44:17:203,0.5006,0.7031,9.4242,-0.0003,0.0162,9.8066,-0.0394,-0.0203,0.0589,-18.5,-34.44,15,327.52,-84.1,-157.55
52.55524,-1.471688,145.46,19.6,6,117.41,24 / 24,723710,2020-01-08 17:44:17:303,0.2005,-0.3231,10.6682,-0.0172,0.0182,9.8065,0.0132,-0.0594,0.0485,-18.31,-34.44,15.19,328.59,-84.23,-156.72
52.55524,-1.471688,145.46,19.6,6,117.41,24 / 24,723809,2020-01-08 17:44:17:402,-0.8369,0.9877,8.6744,-0.0149,0.0074,9.8066,-0.0215,0.1803,-0.0626,-17.25,-34.19,15.13,330.83,-84.24,-156.25
52.55524,-1.471688,145.46,19.6,6,117.41,24 / 24,723910,2020-01-08 17:44:17:503,-2.7853,4.6727,8.8534,-0.0555,0.0139,9.8065,-0.0297,0.1119,-0.1206,-17.69,-33.56,15.13,331.94,-84.53,-154.02
52.55524,-1.471688,145.46,19.6,6,117.41,24 / 24,724009,2020-01-08 17:44:17:602,-4.7521,4.2158,9.8637,-0.0325,-0.0222,9.8065,-0.0835,0.287,-0.2327,-18.62,-34.37,14.31,328.59,-84.88,-153.85
52.55524,-1.471688,145.46,19.6,6,117.41,24 / 24,724110,2020-01-08 17:44:17:703,-6.0158,7.7592,9.6249,-0.004,0.0244,9.8066,-0.1284,0.2623,-0.2196,-18,-34.19,13.06,328.52,-85.34,-153.51
52.55524,-1.471688,145.46,19.6,6,117.41,24 / 24,724210,2020-01-08 17:44:17:803,-6.0878,3.8941,10.7239,-0.0398,-0.0289,9.8065,0.1129,-0.0528,-0.0934,-17.62,-34.44,12.75,329.48,-85.6,-152.86
52.55524,-1.471688,145.46,19.6,6,117.41,24 / 24,724310,2020-01-08 17:44:17:903,-2.1855,2.0282,8.9452,0.0287,-0.0341,9.8065,0.0496,0.1251,0.077,-18.62,-34.81,13.75,330.31,-85.22,-152.48
52.55524,-1.471688,145.46,19.6,6,117.41,24 / 24,724410,2020-01-08 17:44:18:003,-1.9787,-0.7476,9.2737,-0.0062,-0.0306,9.8066,0.2156,0.0956,-0.0883,-18.31,-34.25,14.88,334.2,-84.86,-152.27
52.55524,-1.471688,145.46,19.6,6,117.41,24 / 24,724509,2020-01-08 17:44:18:102,1.2553,0.7271,9.7209,0.0004,-0.0445,9.8065,0.04,0.15,-0.1056,-18.62,-33.87,14.38,328.65,-84.27,-153.31
52.55524,-1.471688,145.46,19.6,6,117.41,24 / 24,724610,2020-01-08 17:44:18:203,0.1597,-0.685,10.2763,-0.0008,-0.0103,9.8066,0.0233,0.1263,-0.0597,-18.44,-33.81,14.75,331.09,-84.17,-154.5
52.55524,-1.471688,145.46,19.6,6,117.41,24 / 24,724709,2020-01-08 17:44:18:302,0.4391,-0.0775,10.0633,-0.0165,0.0033,9.8066,0.0267,0.0081,-0.081,-18,-33.62,14.63,330.93,-84.27,-154.71
52.55524,-1.471688,145.46,19.6,6,117.41,24 / 24,724810,2020-01-08 17:44:18:403,-1.7043,-0.6316,8.8511,-0.0439,-0.0015,9.8065,0.1476,0.2062,-0.1585,-18.44,-33.44,15.25,332.82,-84.52,-153.35
52.55524,-1.471688,145.46,19.6,6,117.41,24 / 24,724910,2020-01-08 17:44:18:503,-2.1127,-0.1563,9.5122,-0.0079,0.008,9.8066,0.0266,0.0152,-0.0196,-18.12,-33.56,14.69,331.12,-84.54,-154.75
52.55524,-1.471688,145.46,19.6,6,117.41,24 / 24,725009,2020-01-08 17:44:18:602,-0.5131,0.7357,9.2274,-0.0347,-0.0185,9.8066,0.0937,0.2652,-0.1881,-18,-34.12,14.31,328.06,-84.45,-155.31
52.55524,-1.471688,145.46,19.6,6,117.41,24 / 24,725110,2020-01-08 17:44:18:703,1.6171,2.1083,10.1086,-0.0058,0.0116,9.8066,0.0096,0.0786,-0.0264,-17.81,-34.25,14.31,329.3,-84.47,-154.25
52.55524,-1.471688,145.46,19.6,6,117.41,24 / 24,725210,2020-01-08 17:44:18:803,1.4753,0.5819,10.4028,-0.0462,-0.0363,9.8064,0.0973,0.3008,-0.2553,-18.69,-33.69,14.44,327.29,-84.52,-154.7
52.55524,-1.471688,145.46,19.6,6,117.41,24 / 24,725310,2020-01-08 17:44:18:903,0.9277,-0.4448,9.5501,0.0108,0.0003,9.8066,-0.0375,0.0771,-0.0278,-18.25,-34.19,14.81,332.16,-84.56,-153.85
52.55524,-1.471688,145.46,19.6,6,117.41,24 / 24,725409,2020-01-08 17:44:19:002,0.5408,-1.5429,10.5903,0.0048,-0.0274,9.8066,0.0143,0.1719,-0.1069,-18.5,-33.87,13.88,329.94,-84.45,-153.68
52.55524,-1.471688,145.46,19.6,6,117.41,24 / 24,725510,2020-01-08 17:44:19:103,-0.4654,-0.4252,10.0919,0.0384,-0.0221,9.8065,-0.1324,0.0912,0.0145,-18.62,-33.69,14.38,327.41,-84.33,-154.44
52.55524,-1.471688,145.46,19.6,6,117.41,24 / 24,725610,2020-01-08 17:44:19:203,0.0724,-0.8515,10.4404,0.0202,-0.0154,9.8065,-0.0254,0.0603,-0.005,-18.44,-33.75,14.63,331.68,-84.33,-154.1
52.55524,-1.471688,145.46,19.6,6,117.41,24 / 24,725710,2020-01-08 17:44:19:303,1.2955,0.3595,9.1299,-0.0098,-0.0113,9.8066,-0.0093,0.0953,-0.1325,-18.75,-33.87,15.19,329.72,-84.17,-154.31
52.55524,-1.471688,145.46,19.6,6,117.41,24 / 24,725809,2020-01-08 17:44:19:402,0.7234,-0.9721,8.9963,-0.0049,-0.0098,9.8066,-0.0925,-0.0564,0.0127,-18.19,-34.19,14.88,330.09,-84.26,-155.43
52.55524,-1.471688,145.46,19.6,6,117.41,24 / 24,725910,2020-01-08 17:44:19:503,1.4983,-0.0531,10.1278,-0.0204,0.0052,9.8065,-0.0072,0.1171,-0.0358,-18.25,-34.37,15.06,332.96,-84.41,-153.05
52.55524,-1.471688,145.46,19.6,6,117.41,24 / 24,726010,2020-01-08 17:44:19:603,-0.2121,-1.2085,10.0531,-0.0049,-0.013,9.8065,-0.0536,0.0712,-0.0901,-18.19,-34.37,15.13,333.47,-84.39,-152.59
52.55524,-1.471688,145.46,19.6,6,117.41,24 / 24,726110,2020-01-08 17:44:19:703,-0.2901,-0.6674,10.7364,-0.0136,-0.0052,9.8066,0.0269,0.2288,-0.1698,-18.37,-34.25,14.69,332.29,-84.45,-153.66
52.55524,-1.471688,145.46,19.6,6,117.41,24 / 24,726210,2020-01-08 17:44:19:803,-1.1936,-4.5839,11.1332,0.0278,-0.0478,9.8065,-0.1566,0.2822,-0.1247,-17.81,-34.37,15.44,330.68,-84.52,-155.12
52.55524,-1.471688,145.46,19.6,6,117.41,24 / 24,726310,2020-01-08 17:44:19:903,3.3763,0.9835,9.0231,-0.0279,-0.0722,9.8063,-0.0271,0.7236,-0.3786,-18.44,-33.81,15.19,331.92,-84.32,-153.89
52.55524,-1.471688,145.46,19.6,6,117.41,24 / 24,726410,2020-01-08 17:44:20:003,3.1921,2.5739,9.0592,-0.0184,-0.0014,9.8066,0.0461,-0.2616,0.0402,-18.87,-33.75,15.06,328.53,-84.43,-155.55
52.55524,-1.471688,145.46,19.6,6,117.41,24 / 24,726510,2020-01-08 17:44:20:103,2.3299,3.8065,8.1094,-0.0014,-0.046,9.8065,-0.0473,0.2821,-0.0463,-18.25,-33.87,14.38,328.52,-84.37,-154.85
52.55524,-1.471688,145.46,19.6,6,117.41,24 / 24,726609,2020-01-08 17:44:20:202,-0.3989,-0.6857,10.5421,-0.0056,0.0401,9.8065,0.2148,-0.32,0.1194,-18.62,-33.94,15,329.8,-84.3,-154.34
52.55524,-1.471688,145.46,19.6,6,117.41,24 / 24,726710,2020-01-08 17:44:20:303,-0.6328,-2.2068,11.0519,0.0036,0.0067,9.8066,-0.0325,-0.135,0.0904,-18.69,-34.19,14.88,327.98,-84.49,-156.09
52.55524,-1.471688,145.46,19.6,6,117.41,24 / 24,726812,2020-01-08 17:44:20:405,0.8375,-0.1913,10.2994,-0.0007,0.0357,9.8065,0.12,-0.0303,0.1054,-17.94,-34.31,16,332.24,-84.76,-155.85
52.55524,-1.471688,145.46,19.6,6,117.41,24 / 24,726910,2020-01-08 17:44:20:503,1.1722,-1.5021,12.4156,-0.0505,0.0435,9.8063,0.2824,-0.2176,-0.002,-18.25,-33.94,15.38,330.55,-84.74,-155.4
52.55524,-1.471688,145.46,19.6,6,117.41,24 / 24,727010,2020-01-08 17:44:20:603,-0.5346,-2.237,10.1139,0.0035,-0.0254,9.8065,-0.1889,0.327,-0.1231,-18.19,-34.62,14.75,329.58,-84.6,-156.02
52.55524,-1.471688,145.46,19.6,6,117.41,24 / 24,727110,2020-01-08 17:44:20:703,0.067,-1.9684,10.2036,-0.0281,0.0043,9.8065,0.049,0.0429,-0.0879,-17.87,-34.5,14.31,328.66,-84.6,-154.92
52.55524,-1.471688,145.46,19.6,6,117.41,24 / 24,727209,2020-01-08 17:44:20:802,-0.5826,-0.8959,9.888,-0.0315,-0.0197,9.8065,0.1521,0.2594,-0.1739,-18.37,-34.5,14.56,329.32,-84.4,-156.22
52.55524,-1.471688,145.46,19.6,6,117.41,24 / 24,727312,2020-01-08 17:44:20:905,-1.0412,-0.6835,9.2971,0.0039,-0.0038,9.8066,0.0797,0.024,-0.1107,-18.31,-34,15.44,328.84,-84.3,-156.56
52.55524,-1.471688,145.46,19.6,6,117.41,24 / 24,727409,2020-01-08 17:44:21:002,1.6993,-1.5898,11.4647,-0.0153,-0.0197,9.8065,0.1015,-0.0607,-0.0236,-18.19,-33.87,14.88,326.62,-84.26,-158.47
52.55524,-1.471688,145.46,19.6,6,117.41,24 / 24,727510,2020-01-08 17:44:21:103,-0.9555,-1.448,8.9337,0.0539,0.011,9.8064,-0.1197,-0.1654,0.2308,-18.31,-34.37,15.19,325.99,-84.09,-158.88
52.55524,-1.471688,145.46,19.6,6,117.41,24 / 24,727609,2020-01-08 17:44:21:202,3.834,3.0849,9.0617,0.0097,0.058,9.8065,0.1932,-0.4801,0.2084,-18.62,-33.75,15.63,327.77,-83.86,-157.69
52.55524,-1.471688,145.46,19.6,6,117.41,24 / 24,727710,2020-01-08 17:44:21:303,0.7165,-2.0518,10.758,0.0273,0.0375,9.8065,0.065,-0.4472,0.2937,-18.25,-34.19,15.88,326.94,-83.86,-159.81
52.55524,-1.471688,145.46,19.6,6,117.41,24 / 24,727809,2020-01-08 17:44:21:402,2.3941,1.7426,9.1673,0.0376,0.0031,9.8065,-0.1771,0.0468,0.0616,-18.06,-34,14.94,325.31,-83.59,-159.03
52.55524,-1.471688,145.46,19.6,6,117.41,24 / 24,727910,2020-01-08 17:44:21:503,1.1367,-1.0054,8.5519,0.0142,0.0329,9.8066,-0.0195,-0.3541,0.1885,-18.56,-33.81,15.38,323.95,-83.66,-158.92
52.55524,-1.471688,145.46,19.6,6,117.41,24 / 24,728010,2020-01-08 17:44:21:603,4.08,1.8711,9.4757,-0.0071,-0.0193,9.8066,-0.0341,0.1746,-0.2076,-18.37,-33.94,16.13,328.05,-83.61,-158.65
52.55524,-1.471688,145.46,19.6,6,117.41,24 / 24,728110,2020-01-08 17:44:21:703,-0.5069,-2.7358,9.825,0.0376,0.0582,9.8064,-0.0559,-0.2811,0.1931,-18.12,-33.87,15.5,326.21,-83.7,-160.32
52.55524,-1.471688,145.46,19.6,6,117.41,24 / 24,728210,2020-01-08 17:44:21:803,1.4267,-2.4956,11.2483,0.0361,-0.0325,9.8065,-0.1805,0.2997,-0.1334,-18.25,-33.37,15.44,325.24,-83.79,-159.42
52.554626,-1.469615,145.01,19.29,6,116.06,24 / 24,728310,2020-01-08 17:44:21:903,-0.8435,-3.449,9.5641,0.0273,0.0116,9.8066,-0.1503,-0.1459,0.0478,-18.06,-33.56,15.38,323.11,-83.65,-160.99
52.554626,-1.469615,145.01,19.29,6,116.06,24 / 24,728410,2020-01-08 17:44:22:003,2.9942,0.251,11.7755,-0.0138,0.0098,9.8066,0.2326,0.0575,-0.1847,-18,-34.37,15.81,328.47,-83.67,-158.33
52.554626,-1.469615,145.01,19.29,6,116.06,24 / 24,728510,2020-01-08 17:44:22:103,0.5353,-0.2784,8.7716,-0.0409,0.0034,9.8065,0.068,-0.1313,-0.0234,-18.56,-33.87,15.56,324.8,-83.51,-160
52.554626,-1.469615,145.01,19.29,6,116.06,24 / 24,728609,2020-01-08 17:44:22:202,-0.8544,-0.0388,9.0129,-0.0204,0.0145,9.8066,-0.0565,-0.0249,0.0873,-18.37,-34.62,15.81,328.1,-83.77,-158.59
52.554626,-1.469615,145.01,19.29,6,116.06,24 / 24,728709,2020-01-08 17:44:22:302,0.7185,-1.0155,11.0259,0.012,0.0055,9.8066,0.0308,-0.097,0.0536,-18.5,-34.31,15,326.58,-83.8,-158.11
52.554626,-1.469615,145.01,19.29,6,116.06,24 / 24,728810,2020-01-08 17:44:22:403,-1.3529,-1.9781,9.7587,0.0268,-0.0183,9.8065,-0.1599,-0.0064,0.0937,-18.44,-34.37,15.13,326.97,-83.8,-157.77
52.554626,-1.469615,145.01,19.29,6,116.06,24 / 24,728910,2020-01-08 17:44:22:503,-3.3254,-1.6751,11.2047,0.0069,0.0572,9.8064,0.0658,-0.3224,0.2657,-18.31,-34.56,15.56,331.78,-83.98,-155.58
52.554626,-1.469615,145.01,19.29,6,116.06,24 / 24,729011,2020-01-08 17:44:22:604,-6.5126,2.1021,9.7387,-0.0215,0.0192,9.8066,0.0076,-0.2774,0.0295,-17.75,-34.75,14.81,329.14,-84.44,-156.28
52.554626,-1.469615,145.01,19.29,6,116.06,24 / 24,729111,2020-01-08 17:44:22:704,-6.6701,7.0891,8.4539,-0.0444,0.0588,9.8063,-0.0511,-0.0988,-0.0349,-17.87,-34.37,13.94,327.97,-84.92,-155.78
52.554626,-1.469615,145.01,19.29,6,116.06,24 / 24,729209,2020-01-08 17:44:22:802,-5.8308,1.1588,11.6372,-0.0153,0.0635,9.8064,0.1037,-0.3248,0.1607,-18.12,-34.75,13.31,327.54,-85.68,-154.57
52.554626,-1.469615,145.01,19.29,6,116.06,24 / 24,729309,2020-01-08 17:44:22:902,-4.8531,5.1402,9.3487,-0.0293,-0.0179,9.8065,0.0262,0.252,-0.15,-18.37,-35.19,14.56,335.97,-85.59,-151.09
52.554626,-1.469615,145.01,19.29,6,116.06,24 / 24,729410,2020-01-08 17:44:23:003,-1.8594,3.1545,8.5066,0.023,0.0108,9.8066,0.0921,-0.108,0.0861,-18.69,-34.81,14.25,328.12,-85.35,-154.53
52.554626,-1.469615,145.01,19.29,6,116.06,24 / 24,729510,2020-01-08 17:44:23:103,0.7228,0.1818,9.5081,0.0386,-0.0458,9.8064,0.0347,0.045,0.0597,-18.19,-34.19,14.81,331.19,-84.91,-154.96
52.554626,-1.469615,145.01,19.29,6,116.06,24 / 24,729610,2020-01-08 17:44:23:203,-0.813,-1.2644,9.2674,0.0342,-0.0333,9.8065,-0.0428,-0.0726,0.075,-18.87,-34.12,15.75,331.37,-84.21,-154.81
52.554626,-1.469615,145.01,19.29,6,116.06,24 / 24,729710,2020-01-08 17:44:23:303,1.0203,0.0058,10.5111,0.0205,-0.0018,9.8066,-0.0137,-0.0467,0.0247,-18.19,-33.44,15.06,330.75,-84.06,-154.84
52.554626,-1.469615,145.01,19.29,6,116.06,24 / 24,729810,2020-01-08 17:44:23:403,-0.8053,-0.3136,9.7106,0.0415,0.0114,9.8065,-0.1095,-0.1291,0.0868,-18.31,-33.75,15.13,328.43,-83.99,-156.67
52.554626,-1.469615,145.01,19.29,6,116.06,24 / 24,729910,2020-01-08 17:44:23:503,0.6308,1.0668,9.9361,0.012,0.0195,9.8066,-0.0552,-0.0445,0.059,-18.19,-33.69,14.5,328.64,-84.31,-156.74
52.554626,-1.469615,145.01,19.29,6,116.06,24 / 24,730009,2020-01-08 17:44:23:602,-1.6771,-0.0485,8.7208,0.0129,0.0083,9.8066,-0.1174,-0.1609,0.0711,-18.06,-34.44,14.19,327.08,-84.4,-156.13
52.554626,-1.469615,145.01,19.29,6,116.06,24 / 24,730110,2020-01-08 17:44:23:703,-0.1668,1.0358,9.8551,0.0247,0.0051,9.8066,-0.0616,-0.1063,0.062,-18.56,-34.19,14.63,328.77,-84.42,-155.34
52.554626,-1.469615,145.01,19.29,6,116.06,24 / 24,730210,2020-01-08 17:44:23:803,-0.3868,-0.7664,10.0191,0.02,0.0105,9.8066,0,-0.109,0.0627,-18.06,-34.31,14.81,329.28,-84.32,-156.19
52.554626,-1.469615,145.01,19.29,6,116.06,24 / 24,730310,2020-01-08 17:44:23:903,-0.1342,-1.6248,11.0806,0.0173,-0.0287,9.8066,-0.0816,0.1455,-0.116,-17.69,-34.56,15.38,328.18,-84.22,-156.94
52.554626,-1.469615,145.01,19.29,6,116.06,24 / 24,730410,2020-01-08 17:44:24:003,0.0972,1.1377,9.3993,0.0016,-0.0004,9.8066,-0.0547,0.066,0.0137,-18.37,-33.75,14.5,327.85,-84.12,-157.27
52.554626,-1.469615,145.01,19.29,6,116.06,24 / 24,730510,2020-01-08 17:44:24:103,-0.7412,-0.1851,10.0472,-0.0061,-0.0101,9.8066,0.0071,0.0604,-0.0191,-18.62,-34,14.63,328.37,-84.14,-155.46
52.554626,-1.469615,145.01,19.29,6,116.06,24 / 24,730610,2020-01-08 17:44:24:203,1.0151,-0.6027,10.5318,-0.0133,-0.015,9.8066,0.0963,0.0384,-0.0835,-18.19,-34.31,15.06,329.99,-84.1,-155.4
52.554626,-1.469615,145.01,19.29,6,116.06,24 / 24,730710,2020-01-08 17:44:24:303,-0.9985,-1.0218,8.9091,-0.0329,-0.017,9.8065,0.129,0.1253,-0.1068,-18.5,-33.94,15.19,327.93,-84.02,-157.13
52.554626,-1.469615,145.01,19.29,6,116.06,24 / 24,730810,2020-01-08 17:44:24:403,-1.1673,-0.9499,9.4069,0.0029,0.0049,9.8066,-0.0186,0.0006,-0.0453,-18.31,-34.12,15.31,328.96,-83.97,-156.19
52.554626,-1.469615,145.01,19.29,6,116.06,24 / 24,730910,2020-01-08 17:44:24:503,0.858,-0.961,10.1854,-0.0232,-0.0168,9.8066,0.1024,0.0823,-0.1227,-18.44,-33.5,15,330.08,-84.01,-155.38
52.554626,-1.469615,145.01,19.29,6,116.06,24 / 24,731010,2020-01-08 17:44:24:603,1.4369,0.2813,9.0723,0.0099,0.0083,9.8066,-0.0079,0.1101,-0.0329,-18.44,-34,14.94,328.32,-83.99,-156.77
52.554626,-1.469615,145.01,19.29,6,116.06,24 / 24,731110,2020-01-08 17:44:24:703,0.1886,-0.6428,10.3189,-0.003,-0.012,9.8066,0.0339,0.0152,-0.0887,-18.06,-33.94,15.63,329.88,-83.96,-157.33
52.554626,-1.469615,145.01,19.29,6,116.06,24 / 24,731210,2020-01-08 17:44:24:803,3.0949,1.9896,7.6368,0.0334,-0.0084,9.8065,-0.1211,0.3184,0.0353,-17.69,-34,15.44,326.09,-83.81,-158.55
52.554626,-1.469615,145.01,19.29,6,116.06,24 / 24,731310,2020-01-08 17:44:24:903,1.1894,-2.8391,12.1259,0.0219,0.0215,9.8065,-0.0544,-0.253,0.2107,-18.19,-33.87,15.5,330.2,-83.88,-156.99
52.554626,-1.469615,145.01,19.29,6,116.06,24 / 24,731410,2020-01-08 17:44:25:003,-3.1987,-2.0856,8.0511,0.0311,-0.044,9.8064,-0.3277,-0.0241,0.1035,-18.31,-34.44,14.75,328.69,-84.09,-156.53
52.554626,-1.469615,145.01,19.29,6,116.06,24 / 24,731510,2020-01-08 17:44:25:103,-0.2659,-1.7403,11.8064,0.0466,0.0659,9.8062,0.1026,-0.5069,0.3722,-18.06,-34.56,14.81,330.59,-84.05,-154.72
52.554626,-1.469615,145.01,19.29,6,116.06,24 / 24,731610,2020-01-08 17:44:25:203,-1.1903,-1.9555,9.6868,0.0449,-0.0084,9.8065,-0.039,-0.2959,0.1548,-18.19,-34.19,14.75,327.98,-83.95,-157.02
52.554626,-1.469615,145.01,19.29,6,116.06,24 / 24,731709,2020-01-08 17:44:25:302,2.85,2.4109,9.7329,0.02,0.0452,9.8064,0.047,-0.3283,0.1633,-18.62,-34.56,15.19,326.4,-83.89,-156.85
52.554626,-1.469615,145.01,19.29,6,116.06,24 / 24,731810,2020-01-08 17:44:25:403,0.4447,-1.3684,10.5318,0.0231,0.0342,9.8065,0.0015,-0.3706,0.2682,-18,-34.19,15.25,325.4,-83.97,-159.29
52.554626,-1.469615,145.01,19.29,6,116.06,24 / 24,731910,2020-01-08 17:44:25:503,3.7322,1.0297,9.9238,0.0153,0.0042,9.8066,-0.0672,-0.0733,0.036,-17.81,-34.56,15.38,326.67,-83.93,-158
52.554626,-1.469615,145.01,19.29,6,116.06,24 / 24,732010,2020-01-08 17:44:25:603,0.8066,-2.4595,9.0893,0.0246,0.0186,9.8066,-0.0658,-0.3504,0.3113,-19.06,-34.31,15.31,326.16,-83.92,-157.22
52.554626,-1.469615,145.01,19.29,6,116.06,24 / 24,732110,2020-01-08 17:44:25:703,1.9118,1.8224,9.9611,-0.0062,-0.0126,9.8066,-0.0115,0.0553,-0.0457,-18.62,-33.94,14.56,329.99,-83.84,-153.83
52.554626,-1.469615,145.01,19.29,6,116.06,24 / 24,732210,2020-01-08 17:44:25:803,-2.7846,-2.4951,11.2382,0.0307,0.0241,9.8065,0.103,-0.3215,0.2248,-18.5,-33.69,15.63,333.99,-83.73,-153.63
52.554626,-1.469615,145.01,19.29,6,116.06,24 / 24,732310,2020-01-08 17:44:25:903,-0.9046,-1.7419,10.9427,-0.0034,-0.0323,9.8066,-0.0659,0.3,-0.2401,-19.06,-33.62,15.5,331.66,-83.44,-154.02
52.554626,-1.469615,145.01,19.29,6,116.06,24 / 24,732410,2020-01-08 17:44:26:003,-1.6511,-4.6194,10.7947,0.0204,0.04,9.8065,0.0108,-0.2894,0.1917,-18.37,-33.87,15.63,332.26,-83.43,-154.9
52.554626,-1.469615,145.01,19.29,6,116.06,24 / 24,732510,2020-01-08 17:44:26:103,0.3483,0.4517,9.1717,-0.0057,-0.0237,9.8065,-0.0438,0.4078,-0.1667,-18.44,-34.06,15.63,333.06,-83.37,-154.18
52.554626,-1.469615,145.01,19.29,6,116.06,24 / 24,732610,2020-01-08 17:44:26:203,2.5949,1.6679,8.6057,0.001,0.0133,9.8066,-0.0472,-0.0251,-0.0507,-18.44,-34.44,15.5,333.12,-83.37,-154.12
52.554626,-1.469615,145.01,19.29,6,116.06,24 / 24,732710,2020-01-08 17:44:26:303,1.8458,1.2988,9.3076,-0.0072,-0.0489,9.8065,-0.0883,0.4538,-0.2836,-18.44,-33.94,14.44,327.87,-83.59,-154.75
52.554626,-1.469615,145.01,19.29,6,116.06,24 / 24,732810,2020-01-08 17:44:26:403,1.4033,0.6859,8.7705,0.0218,0.0024,9.8066,-0.0649,0.1727,-0.0998,-18.5,-34.19,14.88,329.52,-83.56,-155.38
52.554626,-1.469615,145.01,19.29,6,116.06,24 / 24,732910,2020-01-08 17:44:26:503,-0.8707,-3.6789,10.4197,-0.0217,-0.0436,9.8064,0.019,0.3903,-0.241,-18.44,-34.19,15.25,330.3,-83.44,-154.62
52.554626,-1.469615,145.01,19.29,6,116.06,24 / 24,733010,2020-01-08 17:44:26:603,-0.1174,-1.0918,9.4553,0.004,-0.0276,9.8066,-0.1179,0.2196,-0.1375,-18.44,-34.31,15.38,329,-83.46,-155.75
52.554626,-1.469615,145.01,19.29,6,116.06,24 / 24,733110,2020-01-08 17:44:26:703,0.1713,-3.4414,11.0254,-0.0217,-0.0341,9.8065,-0.0514,0.4038,-0.2323,-18.19,-33.94,15.5,331.13,-83.67,-156.04
52.554626,-1.469615,145.01,19.29,6,116.06,24 / 24,733210,2020-01-08 17:44:26:803,3.201,2.4424,8.9435,0.0062,-0.0424,9.8065,-0.0903,0.3378,-0.2385,-18.5,-34.06,15.19,329.13,-83.61,-155.76
52.554626,-1.469615,145.01,19.29,6,116.06,24 / 24,733309,2020-01-08 17:44:26:902,2.1988,0.81,9.7877,-0.0363,-0.0558,9.8063,0.0195,0.5001,-0.3061,-18.19,-34.81,15.25,330.32,-83.56,-154.57
52.554626,-1.469615,145.01,19.29,6,116.06,24 / 24,733411,2020-01-08 17:44:27:004,3.0617,1.2336,10.1143,-0.0194,-0.0271,9.8066,0.0254,0.3902,-0.2193,-17.81,-33.81,15.5,331.85,-83.63,-155.39
52.554626,-1.469615,145.01,19.29,6,116.06,24 / 24,733510,2020-01-08 17:44:27:103,-1.9919,-4.3197,9.9336,-0.0396,-0.0627,9.8063,0.0668,0.5094,-0.3543,-18.75,-34.12,15.44,325.84,-83.6,-157.24
52.554626,-1.469615,145.01,19.29,6,116.06,24 / 24,733610,2020-01-08 17:44:27:203,0.3983,-0.707,9.3098,0.0025,-0.0277,9.8066,-0.0368,0.3687,-0.1874,-18.12,-34.06,15.31,328.66,-83.36,-155.95
52.554626,-1.469615,145.01,19.29,6,116.06,24 / 24,733710,2020-01-08 17:44:27:303,-0.6498,-2.8364,10.8043,-0.0464,-0.0449,9.8064,0.1426,0.3575,-0.2182,-18.12,-34,15.63,330.22,-83.38,-156.61
52.554626,-1.469615,145.01,19.29,6,116.06,24 / 24,733809,2020-01-08 17:44:27:402,3.86,1.4182,10.9957,-0.0172,-0.059,9.8064,0.0847,0.4539,-0.2275,-18.37,-34.62,15.13,330.91,-83.06,-153.67
52.554626,-1.469615,145.01,19.29,6,116.06,24 / 24,733910,2020-01-08 17:44:27:503,-3.0716,-1.5052,10.6485,-0.0456,0.0011,9.8065,0.131,-0.0441,0.0125,-18.62,-33.56,15.69,334.42,-83.16,-151.48
52.554626,-1.469615,145.01,19.29,6,116.06,24 / 24,734010,2020-01-08 17:44:27:603,-4.9367,5.5664,7.5843,-0.0352,-0.0309,9.8064,-0.2172,0.287,-0.1898,-18.87,-34.19,14.38,331.54,-83.31,-150.08
52.554626,-1.469615,145.01,19.29,6,116.06,24 / 24,734110,2020-01-08 17:44:27:703,-4.8835,6.2554,9.0452,-0.0483,0.0689,9.8063,0.0343,-0.3412,0.1944,-18.5,-34.5,14.25,336.52,-83.98,-147.66
52.554626,-1.469615,145.01,19.29,6,116.06,24 / 24,734210,2020-01-08 17:44:27:803,-5.0476,7.0141,11.4162,-0.0245,0.024,9.8066,0.0604,0.0412,0.0855,-18.94,-34.31,13.19,336.58,-84.74,-144.63
52.554626,-1.469615,145.01,19.29,6,116.06,24 / 24,734309,2020-01-08 17:44:27:902,-4.7747,3.9588,8.9578,0.0251,0.0604,9.8064,-0.0499,-0.3937,0.3718,-19.12,-34.31,13.81,342.11,-84.76,-141.89
52.554626,-1.469615,145.01,19.29,6,116.06,24 / 24,734409,2020-01-08 17:44:28:002,-5.9818,-0.2293,8.76,0.0051,-0.0348,9.8065,-0.0162,-0.0728,0.0591,-19.12,-33.87,13.81,339.83,-84.63,-143.81
52.554626,-1.469615,145.01,19.29,6,116.06,24 / 24,734510,2020-01-08 17:44:28:103,-2.0378,-1.7445,9.4417,0.0971,0.022,9.806,0.0531,-0.5946,0.4048,-18.62,-33.19,14.38,331.43,-84.15,-150.92
52.554626,-1.469615,145.01,19.29,6,116.06,24 / 24,734610,2020-01-08 17:44:28:203,-1.4372,-2.4451,9.5254,0.035,-0.0027,9.8065,0.0476,-0.3459,0.2661,-18.87,-33.56,14.94,333.8,-83.64,-150.41
52.554626,-1.469615,145.01,19.29,6,116.06,24 / 24,734710,2020-01-08 17:44:28:303,1.7117,2.5852,9.8098,0.0256,0.0409,9.8065,-0.0438,-0.439,0.2286,-18.81,-33.56,14.44,333.34,-83.32,-148.58
52.554626,-1.469615,145.01,19.29,6,116.06,24 / 24,734810,2020-01-08 17:44:28:403,-0.9984,-0.0539,10.8258,0.0012,0.0325,9.8066,-0.0461,-0.4431,0.2791,-18.56,-33.62,14.94,335.31,-83.52,-149.04
52.554626,-1.469615,145.01,19.29,6,116.06,24 / 24,734910,2020-01-08 17:44:28:503,1.1588,1.3454,9.3779,0.0555,0.0354,9.8064,-0.2261,-0.2048,0.2821,-19.25,-33.31,15.19,338.88,-83.48,-146.08
52.554626,-1.469615,145.01,19.29,6,116.06,24 / 24,735010,2020-01-08 17:44:28:603,-1.195,-1.0529,9.1619,0.0013,0.0084,9.8066,-0.0071,-0.2733,0.0339,-18.87,-32.56,14.81,337.44,-83.53,-147.34
52.554626,-1.469615,145.01,19.29,6,116.06,24 / 24,735110,2020-01-08 17:44:28:703,-0.4913,0.4351,9.5667,0.0259,0.0052,9.8066,-0.0222,-0.1084,0.065,-19,-33.5,15.19,335.29,-83.44,-149.12
52.554626,-1.469615,145.01,19.29,6,116.06,24 / 24,735211,2020-01-08 17:44:28:804,-0.2425,-1.1385,9.9521,0.0005,0.0229,9.8066,0.0403,-0.176,0.0358,-19.06,-32.75,15.13,335.87,-83.46,-148.64
52.554626,-1.469615,145.01,19.29,6,116.06,24 / 24,735310,2020-01-08 17:44:28:903,0.0531,0.9531,9.1055,-0.0207,0.0229,9.8066,0.1338,-0.1315,-0.027,-18.37,-33.56,15.44,336.99,-83.45,-148.96
52.554626,-1.469615,145.01,19.29,6,116.06,24 / 24,735409,2020-01-08 17:44:29:002,-0.3974,-1.6575,9.4797,0.0189,0.0233,9.8065,-0.0038,-0.2351,0.1439,-18.87,-33.25,15,334.79,-83.53,-149.61
52.554626,-1.469615,145.01,19.29,6,116.06,24 / 24,735510,2020-01-08 17:44:29:103,1.6897,1.2983,10.3546,-0.0094,0.0061,9.8066,0.0469,0.0887,-0.1505,-19,-33.87,15.38,334.76,-83.52,-149.51
52.554626,-1.469615,145.01,19.29,6,116.06,24 / 24,735610,2020-01-08 17:44:29:203,1.3263,-0.0396,9.7724,0.0329,0.0316,9.8065,0.0533,-0.1733,0.1158,-18.75,-33.37,15,332.71,-83.63,-151.45
52.554626,-1.469615,145.01,19.29,6,116.06,24 / 24,735710,2020-01-08 17:44:29:303,0.2922,3.4149,8.6052,-0.0033,-0.0088,9.8066,-0.0869,0.2747,-0.1629,-18.25,-33.62,14.94,334.26,-83.58,-151.36
52.554626,-1.469615,145.01,19.29,6,116.06,24 / 24,735810,2020-01-08 17:44:29:403,-0.4519,-0.4933,10.2467,0.007,0.0239,9.8066,0.0478,-0.0235,0.0497,-18.62,-33.44,15.31,330.97,-83.77,-153.05
52.554626,-1.469615,145.01,19.29,6,116.06,24 / 24,735909,2020-01-08 17:44:29:502,-1.0209,-1.8891,10.1131,-0.0079,-0.0286,9.8066,0.0269,0.4162,-0.1777,-18.62,-33.06,15.81,333.02,-83.68,-153.14
52.554626,-1.469615,145.01,19.29,6,116.06,24 / 24,736010,2020-01-08 17:44:29:603,-1.6668,-1.7481,10.4096,-0.0096,-0.0066,9.8066,-0.0136,0.1097,-0.0888,-18.94,-33.25,15.13,331.39,-83.63,-152.59
52.554626,-1.469615,145.01,19.29,6,116.06,24 / 24,736110,2020-01-08 17:44:29:703,-0.2506,-1.7806,10.1979,-0.0216,-0.0431,9.8065,0.0353,0.4116,-0.1734,-18.81,-33.31,15.38,331.57,-83.73,-152.51
52.554626,-1.469615,145.01,19.29,6,116.06,24 / 24,736210,2020-01-08 17:44:29:803,1.7887,2.4335,9.1752,-0.016,-0.0251,9.8066,-0.0308,0.3232,-0.208,-18.25,-33.5,15.38,335.42,-83.58,-150.49
52.554626,-1.469615,145.01,19.29,6,116.06,24 / 24,736310,2020-01-08 17:44:29:903,-1.6549,-2.2458,10.1029,-0.0139,-0.0216,9.8065,0.0135,0.3233,-0.117,-18.69,-33.19,15.56,336.89,-83.6,-149.75
52.554626,-1.469615,145.01,19.29,6,116.06,24 / 24,736410,2020-01-08 17:44:30:003,2.0412,2.1611,9.4119,-0.0173,-0.0369,9.8065,-0.0506,0.3573,-0.2887,-18.75,-33.56,15.25,334.02,-83.65,-150.22
52.554626,-1.469615,145.01,19.29,6,116.06,24 / 24,736510,2020-01-08 17:44:30:103,-0.4091,-1.1813,10.1019,-0.0184,-0.024,9.8065,0.0473,0.1454,-0.0804,-18.62,-33.56,15.38,331.88,-83.77,-152.14
52.554626,-1.469615,145.01,19.29,6,116.06,24 / 24,736609,2020-01-08 17:44:30:202,3.6014,2.5002,9.6866,-0.011,-0.0514,9.8065,0.0142,0.4244,-0.2519,-18.44,-33.56,14.75,334.53,-83.52,-151.09
52.554626,-1.469615,145.01,19.29,6,116.06,24 / 24,736710,2020-01-08 17:44:30:303,-0.0604,-1.2277,9.9111,-0.0129,-0.0133,9.8066,0.0131,-0.0399,0.0236,-18.12,-33.87,15.81,335.63,-83.58,-152.13
52.554626,-1.469615,145.01,19.29,6,116.06,24 / 24,736810,2020-01-08 17:44:30:403,3.9087,1.8296,8.9862,-0.0229,-0.0419,9.8064,0.0028,0.3391,-0.172,-18.81,-33.44,15.69,335.94,-83.52,-150.51
52.554626,-1.469615,145.01,19.29,6,116.06,24 / 24,736910,2020-01-08 17:44:30:503,0.4675,-2.5865,9.754,-0.0152,0.0299,9.8066,0.1006,-0.3018,0.1581,-18.19,-33.75,15.44,334.79,-83.79,-151.04
52.554626,-1.469615,145.01,19.29,6,116.06,24 / 24,737009,2020-01-08 17:44:30:602,-0.696,-2.1798,11.41,-0.0234,-0.0107,9.8065,0.1183,0.0072,-0.0149,-18.87,-33.31,15.25,333.44,-83.67,-150.85
52.554626,-1.469615,145.01,19.29,6,116.06,24 / 24,737110,2020-01-08 17:44:30:703,-0.804,-2.4441,9.0881,0.0013,0.045,9.8065,0.0642,-0.3826,0.2649,-18.5,-33.69,16,337.14,-83.52,-150.81
52.554626,-1.469615,145.01,19.29,6,116.06,24 / 24,737210,2020-01-08 17:44:30:803,0.9042,-1.4363,11.3447,-0.0553,0.0246,9.8064,0.1947,-0.1806,-0.0379,-19.37,-33.56,15.38,333.93,-83.64,-150.3
52.554626,-1.469615,145.01,19.29,6,116.06,24 / 24,737310,2020-01-08 17:44:30:903,2.4097,0.9815,10.2975,0.0271,0.0205,9.8066,-0.1433,-0.2416,0.1628,-19.31,-33.44,15.5,332.72,-83.56,-153.31
52.55402,-1.467487,144.52,17.69,6,115.36,24 / 24,737409,2020-01-08 17:44:31:002,0.123,-1.7812,9.221,0.0012,0.0141,9.8066,0.1148,0.1221,-0.1707,-19,-33.25,15.75,334.54,-83.5,-151.71
52.55402,-1.467487,144.52,17.69,6,115.36,24 / 24,737510,2020-01-08 17:44:31:103,2.6483,0.2302,11.0271,-0.0099,0.0138,9.8066,0.0571,0.0936,-0.0577,-18.62,-33.31,15.63,332.98,-83.61,-153.12
52.55402,-1.467487,144.52,17.69,6,115.36,24 / 24,737610,2020-01-08 17:44:31:203,2.4232,-0.4476,10.578,-0.0167,-0.0226,9.8065,0.1141,0.1812,-0.1739,-18.69,-33.94,15.63,331.85,-83.66,-154.01
52.55402,-1.467487,144.52,17.69,6,115.36,24 / 24,737710,2020-01-08 17:44:31:303,2.3296,-0.4002,10.7501,0.0009,-0.0036,9.8066,0.0804,0.1328,-0.0666,-18.94,-33.69,15.44,328.9,-83.5,-154.51
52.55402,-1.467487,144.52,17.69,6,115.36,24 / 24,737809,2020-01-08 17:44:31:402,-0.5319,-1.5814,9.0946,-0.0364,-0.0132,9.8065,0.1414,0.1649,-0.1635,-18.69,-33.69,15.94,332.14,-83.47,-153.63
52.55402,-1.467487,144.52,17.69,6,115.36,24 / 24,737910,2020-01-08 17:44:31:503,-1.0243,-2.116,9.7496,-0.0157,0.0043,9.8066,0.0224,0.0085,-0.0384,-19,-33.5,15.81,331.04,-83.43,-154.68
52.55402,-1.467487,144.52,17.69,6,115.36,24 / 24,738010,2020-01-08 17:44:31:603,1.5738,-0.7814,9.0582,-0.0264,-0.0248,9.8065,0.0191,0.2132,-0.1929,-18.56,-33.19,15.5,330.03,-83.47,-155.58
52.55402,-1.467487,144.52,17.69,6,115.36,24 / 24,738110,2020-01-08 17:44:31:703,-0.0983,2.0581,9.4439,-0.0345,0.0335,9.8065,0.0164,0.0591,-0.0537,-18.62,-33.37,16.06,332.34,-83.69,-153.73
52.55402,-1.467487,144.52,17.69,6,115.36,24 / 24,738210,2020-01-08 17:44:31:803,-4.151,1.2088,10.0595,-0.0121,0.0104,9.8066,-0.0512,0.1355,-0.0382,-18.5,-33.56,15.13,333.21,-84.01,-152.55
52.55402,-1.467487,144.52,17.69,6,115.36,24 / 24,738310,2020-01-08 17:44:31:903,-4.6232,5.8083,9.5852,-0.0409,-0.0153,9.8065,-0.0346,0.1835,-0.2422,-19.06,-33.94,15.13,333.56,-84.4,-151.12
52.55402,-1.467487,144.52,17.69,6,115.36,24 / 24,738410,2020-01-08 17:44:32:003,-7.0094,4.2821,10.2378,-0.0334,0.0085,9.8065,-0.0698,-0.0048,0.0157,-18.69,-33.75,15.25,335.07,-84.86,-150.08
52.55402,-1.467487,144.52,17.69,6,115.36,24 / 24,738509,2020-01-08 17:44:32:102,-3.4256,6.1691,10.6902,-0.0317,-0.0132,9.8065,-0.0278,0.2728,-0.117,-18.81,-33.87,14.69,338.08,-84.98,-147.5
52.55402,-1.467487,144.52,17.69,6,115.36,24 / 24,738609,2020-01-08 17:44:32:202,-1.1313,0.3933,10.429,0.0177,-0.0001,9.8066,0.1136,-0.2201,0.0485,-18.94,-33.94,14.31,335.5,-85.02,-147.82
52.55402,-1.467487,144.52,17.69,6,115.36,24 / 24,738710,2020-01-08 17:44:32:303,-0.5491,-1.5353,9.8724,0.039,-0.037,9.8064,0.1607,-0.1005,0.0739,-18.25,-33.37,15.38,335,-84.47,-151.41
52.55402,-1.467487,144.52,17.69,6,115.36,24 / 24,738810,2020-01-08 17:44:32:403,0.1151,-1.3478,10.1733,0.015,-0.0062,9.8065,0.1309,-0.106,0.0925,-18.69,-33.44,15.63,333.55,-83.81,-152.75
52.55402,-1.467487,144.52,17.69,6,115.36,24 / 24,738909,2020-01-08 17:44:32:502,0.1519,-1.1877,9.4618,-0.0012,-0.007,9.8065,0.0035,-0.0692,-0.0125,-18.69,-33.5,15.63,332.97,-83.51,-153.06
52.55402,-1.467487,144.52,17.69,6,115.36,24 / 24,739009,2020-01-08 17:44:32:602,-0.1974,0.4594,9.2263,-0.0215,0.021,9.8065,0.0134,-0.0364,-0.0118,-18.81,-33.31,15.19,330.84,-83.7,-153.12
52.55402,-1.467487,144.52,17.69,6,115.36,24 / 24,739109,2020-01-08 17:44:32:702,-0.5258,0.3856,10.0993,-0.0129,0.023,9.8066,-0.0146,-0.0182,0.0969,-18.31,-33.37,14.88,333.2,-83.89,-152.59
52.55402,-1.467487,144.52,17.69,6,115.36,24 / 24,739210,2020-01-08 17:44:32:803,-0.3394,-0.0434,10.0702,0.0044,-0.0118,9.8066,0.0089,-0.0612,0.001,-18.69,-33.19,15.44,333.39,-83.89,-151.04
52.55402,-1.467487,144.52,17.69,6,115.36,23 / 24,739309,2020-01-08 17:44:32:902,0.0385,-0.5651,9.8892,0.0046,-0.01,9.8066,0.0369,-0.0737,0.051,-19.06,-32.87,15.88,335.69,-83.71,-150.84
52.55402,-1.467487,144.52,17.69,6,115.36,23 / 24,739410,2020-01-08 17:44:33:003,0.5529,0.1549,9.5456,-0.0014,0.0003,9.8066,0.043,-0.0426,0.0305,-18.69,-33.06,16.38,336.24,-83.54,-150.27
52.55402,-1.467487,144.52,17.69,6,115.36,23 / 24,739511,2020-01-08 17:44:33:104,-0.414,-0.9983,10.0798,0.0005,0.0188,9.8066,0.0095,-0.1163,0.1278,-19.12,-33.06,15.31,334.28,-83.57,-150.06
52.55402,-1.467487,144.52,17.69,6,115.36,23 / 24,739610,2020-01-08 17:44:33:203,0.0474,-0.0218,10.3145,-0.0017,-0.0005,9.8066,0.0523,0.1258,-0.0575,-19.06,-33.12,15.94,337.51,-83.52,-149.17
52.55402,-1.467487,144.52,17.69,6,115.36,23 / 24,739709,2020-01-08 17:44:33:302,1.0098,0.7043,9.0991,0.0203,-0.0109,9.8066,-0.0996,-0.0567,0.0483,-18.37,-32.94,15.81,337.56,-83.44,-150.52
52.55402,-1.467487,144.52,17.69,6,115.36,23 / 24,739809,2020-01-08 17:44:33:402,1.6798,0.1413,10.8153,-0.0001,-0.0044,9.8066,-0.0016,0.025,0.032,-19.06,-32.81,15.81,337.79,-83.44,-148.89
52.55402,-1.467487,144.52,17.69,6,115.36,23 / 24,739910,2020-01-08 17:44:33:503,-1.4928,-1.2113,10.0458,0.0264,-0.0064,9.8066,-0.0597,-0.2094,0.1099,-18.87,-32.87,15.94,339.26,-83.43,-147.63
52.55402,-1.467487,144.52,17.69,6,115.36,23 / 24,740009,2020-01-08 17:44:33:602,0.9272,0.2859,10.357,0.0221,0.002,9.8066,0.0204,0.0741,0.0778,-18.94,-33.31,15.88,338.9,-83.29,-147.86
52.55402,-1.467487,144.52,17.69,6,115.36,23 / 24,740110,2020-01-08 17:44:33:703,-1.5728,-1.514,10.3489,0.0219,-0.0071,9.8066,-0.0515,-0.1379,-0.0164,-19.06,-33.5,16,338.53,-83.11,-148.08
52.55402,-1.467487,144.52,17.69,6,115.36,23 / 24,740210,2020-01-08 17:44:33:803,0.5778,0.8376,10.0394,0.0171,-0.029,9.8065,-0.079,0.1635,-0.0553,-19.06,-32.62,16.44,338,-83.23,-148.6
52.55402,-1.467487,144.52,17.69,6,115.36,23 / 24,740309,2020-01-08 17:44:33:902,1.0166,0.5198,10.1759,-0.0045,0.0186,9.8066,0.1035,0.0493,-0.0384,-19.06,-33.25,16.69,339.91,-83.13,-148.73
52.55402,-1.467487,144.52,17.69,6,115.36,23 / 24,740409,2020-01-08 17:44:34:002,0.5352,0.1687,9.7934,-0.0283,-0.0071,9.8066,0.0668,0.2014,-0.1062,-18.94,-32.75,16.19,336.65,-83.11,-149.68
52.55402,-1.467487,144.52,17.69,6,115.36,23 / 24,740510,2020-01-08 17:44:34:103,1.8031,1.9812,9.8175,-0.0323,-0.0126,9.8066,0.073,0.2271,-0.2267,-18.81,-33.06,16.44,338.1,-83.13,-148.46
52.55402,-1.467487,144.52,17.69,6,115.36,23 / 24,740609,2020-01-08 17:44:34:202,-1.4195,-2.6452,9.7494,-0.0252,-0.0383,9.8064,0.0683,0.1984,-0.1278,-19.19,-33.37,16.88,337.68,-83.12,-150.62
52.55402,-1.467487,144.52,17.69,6,115.36,23 / 24,740710,2020-01-08 17:44:34:303,2.5568,1.6593,9.478,-0.0236,-0.0292,9.8065,0.0743,0.4351,-0.2612,-19.37,-32.81,16.44,336.59,-82.84,-149.57
52.55402,-1.467487,144.52,17.69,6,115.36,23 / 24,740810,2020-01-08 17:44:34:403,-1.5169,-3.439,9.665,-0.0338,-0.0178,9.8065,0.0471,0.1093,-0.1462,-18.56,-32.87,16.94,336.92,-82.89,-151.13
52.55402,-1.467487,144.52,17.69,6,115.36,23 / 24,740910,2020-01-08 17:44:34:503,2.5514,-0.1532,10.2047,-0.031,-0.0307,9.8065,0.046,0.4986,-0.1754,-18.62,-33.19,16.31,336.36,-82.95,-149.83
52.55402,-1.467487,144.52,17.69,6,115.36,23 / 24,741010,2020-01-08 17:44:34:603,-1.3998,-4.4058,10.5778,0.0065,0.0107,9.8066,0.0582,-0.1841,0.123,-18.94,-32.81,16.19,335.93,-82.93,-150.18
52.55402,-1.467487,144.52,17.69,6,115.36,23 / 24,741109,2020-01-08 17:44:34:702,2.7201,-0.6837,10.3268,-0.0411,-0.0243,9.8065,0.0457,0.0383,-0.1773,-19.37,-33.44,16.06,335.62,-82.98,-150.47
52.55402,-1.467487,144.52,17.69,6,115.36,23 / 24,741210,2020-01-08 17:44:34:803,2.4551,-0.7211,9.654,0.0344,0.0395,9.8065,-0.033,-0.3266,0.2929,-19.06,-33.25,16.44,334.87,-83.03,-151.13
52.55402,-1.467487,144.52,17.69,6,115.36,23 / 23,741311,2020-01-08 17:44:34:904,0.0654,-3.1088,9.5729,0,0.0011,9.8066,0.041,0.1057,-0.1583,-18.94,-33.31,16.75,335.52,-83.02,-152.4
52.55402,-1.467487,144.52,17.69,6,115.36,23 / 23,741410,2020-01-08 17:44:35:003,2.1311,0.106,10.2281,0.0257,0.0297,9.8065,-0.012,-0.246,0.1893,-19,-32.75,16.69,332.75,-82.97,-154.72
52.55402,-1.467487,144.52,17.69,6,115.36,23 / 23,741510,2020-01-08 17:44:35:103,-1.5793,-4.7104,11.0226,0.0245,0.0448,9.8064,0.0291,-0.6121,0.2884,-18.94,-33.56,17,333.41,-82.95,-154.02
52.55402,-1.467487,144.52,17.69,6,115.36,23 / 23,741610,2020-01-08 17:44:35:203,3.4213,0.8581,10.2121,0.0281,0.0244,9.8065,-0.1593,-0.0172,0.0702,-18.56,-32.87,16.38,332.59,-82.9,-152.99
52.55402,-1.467487,144.52,17.69,6,115.36,23 / 23,741710,2020-01-08 17:44:35:303,-2.0148,-3.8464,10.2273,0.0328,0.0593,9.8063,-0.1251,-0.497,0.2564,-18.87,-32.87,16.63,333.35,-83.11,-154.3
52.55402,-1.467487,144.52,17.69,6,115.36,23 / 23,741809,2020-01-08 17:44:35:402,3.0947,0.7703,10.0846,0.0279,-0.0181,9.8065,-0.1143,0.1956,-0.0907,-18.75,-33.44,16.19,332.82,-83.25,-153.02
52.55402,-1.467487,144.52,17.69,6,115.36,23 / 23,741910,2020-01-08 17:44:35:503,0.4511,0.9905,9.7202,0.0121,0.0294,9.8065,-0.0012,-0.1007,0.0726,-18.69,-32.87,16.44,331.93,-83.28,-153.81
52.55402,-1.467487,144.52,17.69,6,115.36,23 / 23,742009,2020-01-08 17:44:35:602,1.0382,0.8715,9.6056,-0.0133,-0.0098,9.8066,-0.0312,0.325,-0.1378,-19,-32.81,17.06,335.27,-83.23,-152.73
52.55402,-1.467487,144.52,17.69,6,115.36,23 / 23,742109,2020-01-08 17:44:35:702,-1.9844,0.9926,9.96,-0.0469,0.0202,9.8064,0.0167,-0.0283,-0.1083,-18.94,-33.56,17.25,335.57,-83.55,-152.56
52.55402,-1.467487,144.52,17.69,6,115.36,23 / 23,742209,2020-01-08 17:44:35:802,-7.1231,1.5177,8.7472,-0.0509,-0.0156,9.8065,-0.0006,0.4705,-0.2919,-18.37,-33.19,16.38,334.62,-83.9,-153.3
52.55402,-1.467487,144.52,17.69,6,115.36,23 / 24,742310,2020-01-08 17:44:35:903,-2.1576,8.1577,10.3728,-0.0245,0.0337,9.8066,-0.094,0.0378,-0.2149,-18.31,-33.69,16.13,337.72,-84.37,-150.81
52.55402,-1.467487,144.52,17.69,6,115.36,23 / 24,742410,2020-01-08 17:44:36:003,-3.6676,7.5072,9.236,-0.0495,-0.0414,9.8063,-0.0372,0.3663,-0.3289,-18.5,-33.94,14.88,340.12,-84.76,-147.02
52.55402,-1.467487,144.52,17.69,6,115.36,23 / 24,742510,2020-01-08 17:44:36:103,-1.3891,2.9657,10.9052,0.0174,0.0144,9.8065,0.1337,0.1802,0.0557,-18.5,-33.75,14.69,336.79,-84.79,-149.95
52.55402,-1.467487,144.52,17.69,6,115.36,23 / 24,742609,2020-01-08 17:44:36:202,-3.1902,-3.3563,9.6772,0.0213,-0.0695,9.8063,0.1684,0.495,-0.2269,-18.37,-33.25,15.94,336.91,-84.31,-151.56
52.55402,-1.467487,144.52,17.69,6,115.36,23 / 24,742710,2020-01-08 17:44:36:303,1.3308,-0.8015,9.0484,-0.0017,-0.0919,9.8062,0.0847,0.4343,-0.3716,-18.31,-33.62,16,332.73,-83.38,-154.47
52.55402,-1.467487,144.52,17.69,6,115.36,23 / 24,742810,2020-01-08 17:44:36:403,-1.5551,-1.536,9.6388,-0.0084,-0.0092,9.8066,-0.0113,0.1717,-0.0223,-18.06,-33,16.13,329.43,-83.26,-157.33
52.55402,-1.467487,144.52,17.69,6,115.36,23 / 24,742910,2020-01-08 17:44:36:503,0.5964,1.548,10.0928,-0.0215,-0.008,9.8066,-0.0762,0.2129,-0.2301,-18.37,-33.5,16.13,330.34,-83.38,-156.64
52.55402,-1.467487,144.52,17.69,6,115.36,23 / 24,743010,2020-01-08 17:44:36:603,-0.9549,-0.1416,9.78,-0.0152,-0.0164,9.8066,-0.0719,0.0964,-0.0224,-18.94,-33.12,15.75,328.95,-83.68,-156.67
52.55402,-1.467487,144.52,17.69,6,115.36,23 / 24,743110,2020-01-08 17:44:36:703,0.7982,2.7999,9.1645,-0.0074,-0.037,9.8066,-0.121,0.324,-0.0791,-19.06,-33.69,15.44,327.27,-83.6,-155.99
52.55402,-1.467487,144.52,17.69,6,115.36,23 / 24,743209,2020-01-08 17:44:36:802,0.3351,0.1403,11.809,0.052,-0.0394,9.8064,-0.0959,-0.1067,0.0995,-18.25,-33.75,16.13,333.45,-83.63,-154.02
52.55402,-1.467487,144.52,17.69,6,115.36,22 / 22,743310,2020-01-08 17:44:36:903,-2.0203,-0.8929,8.9446,0.0323,-0.0383,9.8065,-0.1723,0.1202,0.0876,-18.44,-33.12,15.88,332.54,-83.24,-154.66
52.55402,-1.467487,144.52,17.69,6,115.36,22 / 22,743409,2020-01-08 17:44:37:002,-1.7624,-3.1733,10.5125,0.0469,0.0426,9.8064,-0.0152,-0.423,0.3103,-18.62,-33.12,16.44,334.07,-83.32,-152
52.55402,-1.467487,144.52,17.69,6,115.36,22 / 22,743510,2020-01-08 17:44:37:103,-0.1994,-0.5563,9.2612,0.0054,-0.0069,9.8066,-0.0466,-0.1269,0.0096,-18.5,-33.44,16.06,333.55,-83.41,-153.9
52.55402,-1.467487,144.52,17.69,6,115.36,22 / 22,743610,2020-01-08 17:44:37:203,2.174,1.9665,9.4435,0.0179,0.0386,9.8065,-0.0573,-0.2342,0.2149,-18.62,-33.12,15.63,330.17,-83.66,-155.59
52.55402,-1.467487,144.52,17.69,6,115.36,22 / 22,743710,2020-01-08 17:44:37:303,1.6677,0.5002,10.735,-0.0345,0.0186,9.8065,0.1889,-0.0791,-0.0123,-18.37,-33.62,16.44,334.25,-83.69,-153.37
52.55402,-1.467487,144.52,17.69,6,115.36,22 / 22,743809,2020-01-08 17:44:37:402,0.0044,0.0191,9.1751,-0.003,0.0143,9.8066,-0.0061,-0.055,0.0872,-18.5,-33.37,16.38,333.06,-83.52,-154.4
52.55402,-1.467487,144.52,17.69,6,115.36,22 / 22,743910,2020-01-08 17:44:37:503,0.6246,-0.971,10.763,-0.0215,-0.0023,9.8066,0.0386,-0.0155,0.0137,-18.12,-33.19,16.56,336.17,-83.58,-153.61
52.55402,-1.467487,144.52,17.69,6,115.36,22 / 22,744010,2020-01-08 17:44:37:603,1.9192,1.126,9.6282,0.0161,0.0236,9.8065,-0.0226,-0.2534,0.2505,-17.94,-33.25,17.19,336.53,-83.49,-153.25
52.55402,-1.467487,144.52,17.69,6,115.36,22 / 22,744110,2020-01-08 17:44:37:703,1.7699,-0.1691,9.918,-0.0113,-0.0052,9.8066,0.0707,-0.1252,-0.0344,-18.81,-33.19,16.31,333.77,-83.44,-152.33
52.55402,-1.467487,144.52,17.69,6,115.36,22 / 22,744210,2020-01-08 17:44:37:803,-0.8149,-1.1219,10.1006,0.0045,-0.0191,9.8066,0.0382,0.0875,0.0346,-18.37,-33.37,16.88,335.62,-83.4,-153.97
52.55402,-1.467487,144.52,17.69,6,115.36,24 / 24,744309,2020-01-08 17:44:37:902,0.4665,-2.765,10.1499,0.0107,0.0363,9.8065,-0.0013,-0.2301,0.1607,-18.25,-33.19,16.5,335.33,-83.38,-154.21
52.55402,-1.467487,144.52,17.69,6,115.36,24 / 24,744410,2020-01-08 17:44:38:003,2.8746,-1.2192,10.1089,0.0152,0.003,9.8065,-0.0487,-0.0751,0.0104,-17.75,-32.87,16.13,333.82,-83.31,-153.62
52.55402,-1.467487,144.52,17.69,6,115.36,24 / 24,744509,2020-01-08 17:44:38:102,0.4309,-1.4266,10.1072,0.005,0.0239,9.8066,0.0076,-0.2012,0.1548,-18.44,-33.56,15.75,333.14,-83.38,-154.12
52.55402,-1.467487,144.52,17.69,6,115.36,24 / 24,744610,2020-01-08 17:44:38:203,1.1253,0.0001,9.5226,0.026,0.0148,9.8066,-0.0167,-0.0008,0.0716,-18.56,-33,15.38,330.3,-83.33,-153.31
52.55402,-1.467487,144.52,17.69,6,115.36,24 / 24,744710,2020-01-08 17:44:38:303,-0.4841,0.0021,10.0589,-0.0058,0.0048,9.8066,0.032,-0.2016,-0.0139,-18.62,-33.5,16.13,331.1,-83.31,-154.54
52.55402,-1.467487,144.52,17.69,6,115.36,24 / 24,744811,2020-01-08 17:44:38:404,1.0828,0.4488,9.7342,0.0053,0.0028,9.8066,0.0639,-0.0151,-0.0144,-18.87,-33.31,16.44,329.55,-83.3,-155.87
52.55402,-1.467487,144.52,17.69,6,115.36,24 / 24,744910,2020-01-08 17:44:38:503,0.9572,-0.155,10.4597,-0.0023,0.0213,9.8066,0.0841,0.0368,0.0305,-18.69,-33.37,16.25,328.99,-83.24,-156.3
52.55402,-1.467487,144.52,17.69,6,115.36,24 / 24,745009,2020-01-08 17:44:38:602,0.6594,-1.3719,10.1214,-0.0032,-0.017,9.8065,-0.0475,0.0153,-0.0563,-18.5,-33.25,16.31,330.26,-83.11,-156.51
52.55402,-1.467487,144.52,17.69,6,115.36,24 / 24,745110,2020-01-08 17:44:38:703,0.3482,0.2762,9.5213,-0.0049,0.0032,9.8066,-0.0083,0.0353,0.0424,-18.5,-33.75,15.69,330.68,-83.07,-155.97
52.55402,-1.467487,144.52,17.69,6,115.36,24 / 24,745211,2020-01-08 17:44:38:804,0.2794,-0.0372,9.6764,0.011,0.0097,9.8065,-0.0409,-0.1467,0.0251,-18.19,-33.5,15.5,331.41,-83.09,-155.51
52.55402,-1.467487,144.52,17.69,6,115.36,24 / 24,745312,2020-01-08 17:44:38:905,-0.0325,-1.4969,10.4689,0.0003,-0.0279,9.8065,-0.0479,0.0944,-0.1319,-18.5,-33.94,16.88,332.74,-83.2,-156.18
52.55402,-1.467487,144.52,17.69,6,115.36,24 / 24,745411,2020-01-08 17:44:39:004,0.7132,-0.2374,9.7231,0.0081,-0.0068,9.8066,-0.0488,0.0589,-0.0063,-18.06,-33.31,16.06,330.45,-83.15,-156.38
52.55402,-1.467487,144.52,17.69,6,115.36,24 / 24,745510,2020-01-08 17:44:39:103,-0.4204,-0.8404,9.2854,0.0021,-0.0034,9.8066,-0.0602,0.0392,-0.012,-18.75,-33.25,16.81,331.34,-83.2,-156.09
52.55402,-1.467487,144.52,17.69,6,115.36,24 / 24,745610,2020-01-08 17:44:39:203,0.156,0.1244,10.0027,-0.0043,-0.0134,9.8066,-0.0113,0.0767,-0.0422,-19,-33.25,16.44,328.92,-83.23,-156.36
52.55402,-1.467487,144.52,17.69,6,115.36,24 / 24,745710,2020-01-08 17:44:39:303,1.1353,-0.4112,10.4314,0.017,-0.0033,9.8066,-0.0169,-0.0612,0.0283,-18.75,-33.12,16.31,328.65,-83.25,-156.6
52.55402,-1.467487,144.52,17.69,6,115.36,24 / 24,745809,2020-01-08 17:44:39:402,0.093,-0.4176,9.7234,0.006,0.0056,9.8066,-0.0612,-0.0563,-0.0132,-18.56,-33.25,16,327.59,-83.23,-157.51
52.55402,-1.467487,144.52,17.69,6,115.36,24 / 24,745909,2020-01-08 17:44:39:502,-0.1659,-0.2487,10.2033,-0.0064,-0.0052,9.8066,-0.0077,-0.0723,-0.0582,-18.06,-34.19,16.25,328.46,-83.37,-158.1
52.55402,-1.467487,144.52,17.69,6,115.36,24 / 24,746010,2020-01-08 17:44:39:603,-2.7573,1.8605,9.9241,0.0061,0.0127,9.8066,-0.0763,0.0742,0.0129,-18.75,-33,16.44,327.43,-83.54,-157.88
52.55402,-1.467487,144.52,17.69,6,115.36,24 / 24,746110,2020-01-08 17:44:39:703,-6.1141,2.0528,9.4264,-0.0436,0.0552,9.8063,-0.0142,-0.0468,0.1347,-18.56,-33.44,15.44,328.07,-84.25,-155.94
52.55402,-1.467487,144.52,17.69,6,115.36,24 / 24,746209,2020-01-08 17:44:39:802,-3.8841,4.7118,11.0264,-0.0774,0.0131,9.8063,-0.0048,0.1333,-0.1545,-18.06,-34.5,15,333.65,-84.6,-152.58
52.553425,-1.465492,144.78,15.46,6,116.73,23 / 23,746310,2020-01-08 17:44:39:903,-3.2412,3.413,11.3874,-0.0008,0.0071,9.8066,0.0339,-0.1295,0.0728,-18.25,-34.25,15.88,336.5,-84.89,-152.17
52.553425,-1.465492,144.78,15.46,6,116.73,23 / 23,746410,2020-01-08 17:44:40:003,-1.7274,0.6912,8.4276,0.05,-0.0264,9.8064,0.1713,0.234,-0.1585,-18.69,-33.69,15.44,330.44,-84.6,-154
52.553425,-1.465492,144.78,15.46,6,116.73,23 / 23,746509,2020-01-08 17:44:40:102,1.6077,0.6314,9.7297,0.0492,-0.0183,9.8065,0.1651,0.0415,-0.0327,-18.5,-33.37,16.44,330.93,-83.97,-156.55
52.553425,-1.465492,144.78,15.46,6,116.73,23 / 23,746610,2020-01-08 17:44:40:203,-1.2047,-0.6153,9.4404,0.0123,0.0001,9.8066,-0.0102,0.0189,-0.016,-18.56,-32.69,15.88,330.16,-83.84,-155.73
52.553425,-1.465492,144.78,15.46,6,116.73,23 / 23,746710,2020-01-08 17:44:40:303,1.1103,1.7173,10.2021,0.0025,0.0127,9.8066,0.0449,0.2664,-0.1594,-18.81,-32.62,16.38,330.68,-83.8,-155.24
52.553425,-1.465492,144.78,15.46,6,116.73,23 / 23,746809,2020-01-08 17:44:40:402,-0.8959,-0.601,9.5964,0.0412,0.0318,9.8064,-0.0187,0.0175,-0.0395,-18.37,-32.81,15.56,330.74,-83.98,-156.73
52.553425,-1.465492,144.78,15.46,6,116.73,23 / 23,746910,2020-01-08 17:44:40:503,0.639,0.4853,10.4038,-0.0012,0.0011,9.8066,0.0373,0.1363,-0.0513,-18.19,-32.94,15.56,332.88,-84.07,-154.92
52.553425,-1.465492,144.78,15.46,6,116.73,23 / 23,747010,2020-01-08 17:44:40:603,-2.2654,-0.8686,8.9864,0.0216,0.0053,9.8066,-0.0028,-0.0766,0.0699,-17.94,-33.5,15.38,330.43,-84.08,-155.12
52.553425,-1.465492,144.78,15.46,6,116.73,23 / 23,747110,2020-01-08 17:44:40:703,-0.5208,0.1512,10.5868,0.0167,-0.0065,9.8066,0.1482,0.0775,-0.1427,-18.44,-33.5,15.75,333.37,-83.99,-154.45
52.553425,-1.465492,144.78,15.46,6,116.73,23 / 23,747210,2020-01-08 17:44:40:803,-0.824,-0.3109,10.0769,0.0451,-0.0051,9.8065,0.1355,-0.0593,-0.0309,-18.44,-32.81,16.13,333.17,-83.94,-154.58
52.553425,-1.465492,144.78,15.46,6,116.73,24 / 24,747309,2020-01-08 17:44:40:902,-0.2158,-0.195,8.4472,0.0609,-0.0262,9.8064,0.0796,0.037,-0.0834,-17.81,-33.19,16,333.92,-83.89,-153.9
52.553425,-1.465492,144.78,15.46,6,116.73,24 / 24,747409,2020-01-08 17:44:41:002,-1.8043,-1.9127,7.798,-0.0405,0.0454,9.8064,0.3878,0.1022,-0.3357,-18.37,-33.06,16.81,335.36,-83.93,-154.51
52.553425,-1.465492,144.78,15.46,6,116.73,24 / 24,747510,2020-01-08 17:44:41:103,-3.0713,-1.7496,6.6402,0.0543,0.0212,9.8064,-0.1459,0.0677,0.0056,-17.81,-33.5,16.56,333.57,-83.99,-156.11
52.553425,-1.465492,144.78,15.46,6,116.73,24 / 24,747609,2020-01-08 17:44:41:202,-0.2462,-0.5049,10.7056,-0.0406,0.0237,9.8064,0.3119,0.2307,-0.3612,-17.5,-32.81,16.63,338.77,-84.14,-153.22
52.553425,-1.465492,144.78,15.46,6,116.73,24 / 24,747710,2020-01-08 17:44:41:303,1.4497,-0.4294,11.294,0.0697,-0.0018,9.8063,-0.0505,-0.0767,0.1675,-18.25,-33.44,16.5,338.38,-83.98,-151.92
52.553425,-1.465492,144.78,15.46,6,116.73,24 / 24,747809,2020-01-08 17:44:41:402,2.2114,-0.7929,11.6666,-0.0395,-0.016,9.8065,0.1167,0.2175,-0.0538,-17.87,-33.06,16.63,336.18,-83.88,-153.77
52.553425,-1.465492,144.78,15.46,6,116.73,24 / 24,747910,2020-01-08 17:44:41:503,-0.2714,-1.5603,10.2274,0.0348,0.012,9.8065,-0.005,-0.2242,-0.0497,-18,-32.87,16.19,333.92,-83.76,-153.82
52.553425,-1.465492,144.78,15.46,6,116.73,24 / 24,748009,2020-01-08 17:44:41:602,-0.5229,-1.5191,10.0869,-0.0058,-0.0354,9.8065,-0.0574,0.1337,-0.0456,-18.19,-32.94,16,334.09,-83.56,-153.54
52.553425,-1.465492,144.78,15.46,6,116.73,24 / 24,748110,2020-01-08 17:44:41:703,0.4249,0.9075,10.3714,-0.0198,-0.0001,9.8066,0.034,0.1846,-0.0623,-18.19,-33.87,17,336.32,-83.77,-153.48
52.553425,-1.465492,144.78,15.46,6,116.73,24 / 24,748209,2020-01-08 17:44:41:802,-4.1151,0.1661,9.1423,0.0381,0.044,9.8065,-0.0332,-0.0217,-0.1345,-18.62,-33.5,17.19,333.77,-83.98,-154.48
52.553425,-1.465492,144.78,15.46,6,116.73,24 / 24,748310,2020-01-08 17:44:41:903,-3.5127,3.6308,9.587,0.0015,0.0332,9.8066,-0.0368,0.1343,-0.0099,-18.06,-33.62,16.69,340.23,-84.17,-150.33
52.553425,-1.465492,144.78,15.46,6,116.73,24 / 24,748409,2020-01-08 17:44:42:002,-6.2426,3.2297,11.0002,-0.007,0.0257,9.8066,0.029,0.1034,0.0436,-17.87,-33.87,16.19,339.21,-84.62,-149.65
52.553425,-1.465492,144.78,15.46,6,116.73,24 / 24,748510,2020-01-08 17:44:42:103,-3.7556,4.6845,10.9541,0.0282,0.0194,9.8065,0.0019,0.1365,-0.1943,-18.06,-33.62,16.25,341.46,-85.06,-147.89
52.553425,-1.465492,144.78,15.46,6,116.73,24 / 24,748610,2020-01-08 17:44:42:203,-2.0037,-0.0285,9.3772,0.032,-0.021,9.8065,0.2096,0.1633,-0.0686,-17.94,-33.81,15.31,340.45,-84.85,-146.78
52.553425,-1.465492,144.78,15.46,6,116.73,24 / 24,748710,2020-01-08 17:44:42:303,-0.4117,-0.5653,9.7493,0.0483,-0.023,9.8065,0.1942,0.0617,-0.0979,-17.81,-33.31,16.25,341.48,-84.47,-147.67
52.553425,-1.465492,144.78,15.46,6,116.73,24 / 24,748809,2020-01-08 17:44:42:402,-0.4823,-1.6923,9.2995,0.03,-0.0155,9.8065,0.0661,0.0698,-0.077,-18.25,-32.94,16.63,341.1,-83.86,-149.52
52.553425,-1.465492,144.78,15.46,6,116.73,24 / 24,748910,2020-01-08 17:44:42:503,1.1577,0.2829,9.9242,0.0233,0.0001,9.8066,0.031,0.1428,-0.0888,-18.19,-31.94,17,340.59,-83.76,-149.99
52.553425,-1.465492,144.78,15.46,6,116.73,24 / 24,749010,2020-01-08 17:44:42:603,0.163,0.042,11.1508,0.0046,0.0496,9.8065,0.0774,0.198,-0.1939,-18.25,-33.31,17.31,339.2,-83.95,-151.2
52.553425,-1.465492,144.78,15.46,6,116.73,24 / 24,749109,2020-01-08 17:44:42:702,0.1734,1.7489,9.8586,0.0432,0.0142,9.8065,0.026,0.1789,-0.1434,-17.81,-33.06,16.56,338.07,-84.06,-152.24
52.553425,-1.465492,144.78,15.46,6,116.73,24 / 24,749211,2020-01-08 17:44:42:804,-1.5663,-0.2378,8.9704,0.026,0.0027,9.8066,0.1037,0.0619,-0.0122,-17.5,-32.87,17.06,340.24,-83.97,-151.87
52.553425,-1.465492,144.78,15.46,6,116.73,24 / 24,749310,2020-01-08 17:44:42:903,-0.9462,-0.9788,8.756,-0.0088,0.0184,9.8066,-0.0672,0.1112,-0.1285,-17.37,-33.31,16.25,338.16,-83.86,-151.77
52.553425,-1.465492,144.78,15.46,6,116.73,24 / 24,749410,2020-01-08 17:44:43:003,-3.3325,-0.8887,8.574,0.0134,-0.0107,9.8065,-0.1498,-0.2367,0.2231,-18,-33.62,17.06,337.6,-83.71,-152.35
52.553425,-1.465492,144.78,15.46,6,116.73,24 / 24,749510,2020-01-08 17:44:43:103,1.1379,1.6811,9.2215,-0.0318,-0.0166,9.8065,-0.0299,0.1952,-0.1721,-17.06,-32.31,17.13,338.49,-83.97,-153.46
52.553425,-1.465492,144.78,15.46,6,116.73,24 / 24,749609,2020-01-08 17:44:43:202,2.8628,-0.932,11.0407,0.0294,0.0406,9.8065,-0.1876,-0.3464,0.0172,-18,-33,16.31,334.34,-83.87,-153.53
52.553425,-1.465492,144.78,15.46,6,116.73,24 / 24,749709,2020-01-08 17:44:43:302,3.2197,2.7307,9.6779,-0.0458,-0.0415,9.8064,0.0652,0.2265,0.144,-17.44,-33.06,16.75,341.61,-83.75,-150.59
52.553425,-1.465492,144.78,15.46,6,116.73,24 / 24,749810,2020-01-08 17:44:43:403,-1.1595,-2.2222,11.4601,0.0343,0.0504,9.8064,0.0119,-0.2888,0.1569,-18.12,-33.12,17.44,335.1,-84.06,-154.82
52.553425,-1.465492,144.78,15.46,6,116.73,24 / 24,749910,2020-01-08 17:44:43:503,-0.4982,0.0833,9.1809,-0.0083,0.0223,9.8066,-0.1458,0.159,-0.1061,-17.56,-32.94,16.88,337.47,-83.89,-152.66
52.553425,-1.465492,144.78,15.46,6,116.73,24 / 24,750009,2020-01-08 17:44:43:602,-2.9173,-0.7984,10.699,-0.0106,0.0044,9.8066,0.081,-0.2821,0.2668,-18.31,-33.5,17.38,337.4,-84,-152.78
52.553425,-1.465492,144.78,15.46,6,116.73,24 / 24,750109,2020-01-08 17:44:43:702,0.285,2.0742,9.2063,0.0134,-0.0324,9.8065,-0.0039,0.0963,-0.1654,-17.87,-33.37,16.75,336.62,-84.19,-153.56
52.553425,-1.465492,144.78,15.46,6,116.73,24 / 24,750210,2020-01-08 17:44:43:803,-0.3582,2.7531,9.124,-0.0093,0.039,9.8065,0.0444,-0.2485,-0.0332,-17.5,-33.19,17.19,339.84,-84.27,-152.36
52.553425,-1.465492,144.78,15.46,6,116.73,24 / 24,750310,2020-01-08 17:44:43:903,-4.4949,0.5544,10.6115,-0.0123,-0.0192,9.8066,0.0122,-0.1657,0.2018,-17.87,-33.75,16.63,337.44,-84.43,-152.89
52.553425,-1.465492,144.78,15.46,6,116.73,24 / 24,750409,2020-01-08 17:44:44:002,-3.2388,3.6101,10.1687,-0.0006,-0.0343,9.8065,0.1366,-0.2188,0.2206,-17.75,-33.5,16.5,337.09,-84.55,-153.35
52.553425,-1.465492,144.78,15.46,6,116.73,24 / 24,750510,2020-01-08 17:44:44:103,-4.7225,1.3568,9.5024,0.0087,-0.0347,9.8065,0.0232,-0.2644,0.0874,-17.69,-33.62,16.19,333.76,-84.76,-154.5
52.553425,-1.465492,144.78,15.46,6,116.73,24 / 24,750611,2020-01-08 17:44:44:204,-2.9508,5.2104,9.3041,-0.0435,-0.0311,9.8064,0.1577,-0.0321,-0.0304,-18.19,-34.12,15.88,337,-84.6,-151.57
52.553425,-1.465492,144.78,15.46,6,116.73,24 / 24,750709,2020-01-08 17:44:44:302,-3.0084,-1.1905,8.8275,0.0022,-0.0089,9.8066,0.0045,0.3808,-0.176,-18.12,-34.12,16,337.07,-84.55,-151.48
52.553425,-1.465492,144.78,15.46,6,116.73,24 / 24,750810,2020-01-08 17:44:44:403,4.7185,3.8096,10.9448,0.0295,-0.0172,9.8065,-0.0183,0.1779,-0.1197,-17.87,-33.87,16,333.68,-84.44,-154.36
52.553425,-1.465492,144.78,15.46,6,116.73,24 / 24,750910,2020-01-08 17:44:44:503,-1.9545,1.1917,7.0898,0.1164,0.0285,9.8058,-0.3357,-0.5892,0.4598,-18.06,-33.5,16.06,328.85,-84.14,-158.49
52.553425,-1.465492,144.78,15.46,6,116.73,24 / 24,751010,2020-01-08 17:44:44:603,5.2076,5.1476,9.7878,0.061,-0.0295,9.8064,-0.209,0.3312,-0.1539,-18.31,-33.62,15.75,331.27,-84.05,-156.19
52.553425,-1.465492,144.78,15.46,6,116.73,24 / 24,751110,2020-01-08 17:44:44:703,-4.5932,-1.7736,8.0557,0.1212,0.0359,9.8058,-0.3892,-0.4573,0.4145,-17.75,-33.37,15.81,329.79,-84.22,-157.74
52.553425,-1.465492,144.78,15.46,6,116.73,24 / 24,751210,2020-01-08 17:44:44:803,1.55,0.3255,12.894,0.0781,-0.0168,9.8063,-0.376,0.2462,-0.0306,-18.44,-33.69,16.25,332.68,-84.25,-155.11
52.553425,-1.465492,144.78,15.46,6,116.73,24 / 24,751310,2020-01-08 17:44:44:903,-1.251,-0.2411,9.7125,-0.0914,0.043,9.8061,-0.487,-0.0942,0.2524,-18.31,-33.87,15.5,334.93,-84.71,-153.45
52.553425,-1.465492,144.78,15.46,6,116.73,24 / 24,751410,2020-01-08 17:44:45:003,1.6741,1.4394,13.051,-0.0983,0.0138,9.8061,0.4066,0.1404,-0.1762,-18.56,-33.62,15.63,332.27,-84.63,-154.31
52.553425,-1.465492,144.78,15.46,6,116.73,24 / 24,751510,2020-01-08 17:44:45:103,-4.0142,1.3711,6.4404,-0.0998,0.0198,9.8061,0.208,0.1933,-0.1345,-18.06,-33.87,15.19,328.26,-84.53,-157.25
52.553425,-1.465492,144.78,15.46,6,116.73,24 / 24,751609,2020-01-08 17:44:45:202,0.9307,2.1286,12.1462,-0.1327,0.0289,9.8057,0.4909,0.3167,-0.2378,-18.37,-33.87,15.63,335.79,-84.97,-152.86
52.553425,-1.465492,144.78,15.46,6,116.73,24 / 24,751710,2020-01-08 17:44:45:303,-6.219,1.4089,5.754,-0.0694,0.0235,9.8063,-0.0891,0.2447,-0.0179,-18.31,-33.81,14.88,331.73,-84.83,-154.43
52.553425,-1.465492,144.78,15.46,6,116.73,24 / 24,751810,2020-01-08 17:44:45:403,0.0516,3.7344,10.337,-0.1613,0.0117,9.8052,0.4289,0.5404,-0.3375,-18.69,-33.5,14.94,339.14,-85.42,-146.86
52.553425,-1.465492,144.78,15.46,6,116.73,24 / 24,751910,2020-01-08 17:44:45:503,-7.5302,0.9527,5.151,0.0689,-0.058,9.8062,-0.5885,0.1127,0.1245,-18.62,-34.06,14.38,331.41,-84.96,-151.41
52.553425,-1.465492,144.78,15.46,6,116.73,24 / 24,752010,2020-01-08 17:44:45:603,0.8378,6.3439,7.6243,-0.043,-0.0612,9.8063,-0.2482,0.7075,-0.2688,-18.44,-33.5,14.69,338.89,-85.07,-148.34
52.553425,-1.465492,144.78,15.46,6,116.73,24 / 24,752109,2020-01-08 17:44:45:702,1.205,2.3261,12.5359,0.0973,-0.0271,9.8061,-0.1112,-0.2294,0.1775,-18.94,-33.94,14.25,334.59,-85.29,-148.8
52.553425,-1.465492,144.78,15.46,6,116.73,24 / 24,752210,2020-01-08 17:44:45:803,0.4691,4.7551,8.1106,0.0424,-0.0676,9.8063,-0.1457,0.1698,-0.1172,-18.87,-33.81,13.38,327.57,-84.92,-152.69
52.553425,-1.465492,144.78,15.46,6,116.73,24 / 24,752310,2020-01-08 17:44:45:903,-0.4617,0.9928,8.2638,-0.0159,0.0562,9.8064,0.1271,-0.2656,0.2632,-18.37,-34.37,13.94,331.29,-84.86,-152.81
52.553425,-1.465492,144.78,15.46,6,116.73,24 / 24,752410,2020-01-08 17:44:46:003,-2.1527,-0.8461,9.4045,-0.03,-0.0222,9.8065,0.0604,0.0717,-0.0042,-18.69,-34,13.38,328.58,-84.86,-151.74
52.553425,-1.465492,144.78,15.46,6,116.73,24 / 24,752510,2020-01-08 17:44:46:103,-1.3471,0.4752,10.0972,0.0214,0.0498,9.8065,0.0275,-0.2986,0.2569,-19.06,-34.19,13.25,326.52,-84.96,-153.65
