GPS LATITUDE (degrees), GPS LONGITUDE (degrees), GPS ALTITUDE (m), GPS SPEED (Kmh), GPS ACCURACY (m), GPS ORIENTATION (Â°),GPS SATELLITES IN RANGE, TIME SINCE START (ms), DATE (YYYY-MO-DD HH-MI-SS_SSS), ACCELEROMETER X (m/s²) , ACCELEROMETER Y (m/s²), ACCELEROMETER Z (m/s²), GRAVITY X (m/s²), GRAVITY Y (m/s²), GRAVITY Z (m/s²), GYROSCOPE Yaw (rad/s), GYROSCOPE Pitch (rad/s), GYROSCOPE Roll (rad/s), MAGNETIC FIELD X (Î¼T), MAGNETIC FIELD Y (Î¼T), MAGNETIC FIELD Z (Î¼T), ORIENTATION (Yaw) (Â°), ORIENTATION (Pitch) (Â°), ORIENTATION (Roll ) (Â°)
52.202805,-2.2002,117.75,6.19,2,262.19,24 / 24,13716809,2020-01-08 16:04:00:403,-0.0646,-1.2997,9.5197,-0.0138,-0.0114,9.8066,-0.051,0.1903,-0.1151,13.94,-33.56,11.56,88.66,-78.84,-162.08
52.202805,-2.2002,117.75,6.19,2,262.19,24 / 24,13716910,2020-01-08 16:04:00:504,-0.1217,-0.3621,10.5772,0.0072,0.0055,9.8066,0.078,0.0334,-0.0201,13,-33.56,11.69,86.09,-79.1,-162.94
52.202805,-2.2002,117.75,6.19,2,262.19,24 / 24,13717010,2020-01-08 16:04:00:604,-0.3755,-2.1702,9.9273,0.0105,-0.0079,9.8065,-0.0849,0.3813,-0.2611,13.56,-33.87,11.63,87.25,-79.22,-162.72
52.202805,-2.2002,117.75,6.19,2,262.19,24 / 24,13717110,2020-01-08 16:04:00:704,1.3594,-3.9958,8.6715,0.0409,-0.0152,9.8065,-0.0735,0.1976,0.0121,13.31,-33.81,11.56,86.9,-79.19,-161.95
52.202805,-2.2002,117.75,6.19,2,262.19,24 / 24,13717210,2020-01-08 16:04:00:804,0.5774,-2.2799,9.7731,0.0105,0.0284,9.8065,-0.0837,0.2093,-0.0393,13.88,-33.19,11.13,90.63,-79.4,-161.49
52.202805,-2.2002,117.75,6.19,2,262.19,23 / 24,13717310,2020-01-08 16:04:00:904,0.7586,-0.1874,8.777,0.0073,0.0187,9.8066,-0.0537,0.0696,0.0306,15.06,-34.12,11.25,92,-79.47,-161.57
52.202805,-2.2002,117.75,6.19,2,262.19,23 / 24,13717410,2020-01-08 16:04:01:004,-1.0429,-0.4976,10.6844,0.0025,0.033,9.8066,-0.0023,0.2065,-0.1568,15.06,-34.44,11.81,91.33,-79.39,-159.33
52.202805,-2.2002,117.75,6.19,2,262.19,23 / 24,13717510,2020-01-08 16:04:01:104,-0.9506,1.1312,9.5192,0.0087,0.0368,9.8065,-0.1773,-0.0604,0.2698,15.13,-34.62,13,91.16,-79.26,-157.44
52.202805,-2.2002,117.75,6.19,2,262.19,23 / 24,13717610,2020-01-08 16:04:01:204,-1.4709,-0.6969,10.609,-0.001,0.0708,9.8064,-0.1296,-0.2917,0.2382,13.94,-34.94,13.81,89,-79.08,-155.96
52.202805,-2.2002,117.75,6.19,2,262.19,23 / 24,13717709,2020-01-08 16:04:01:303,-2.9221,4.7723,9.487,-0.0125,0.0721,9.8063,-0.099,-0.2133,0.2396,14.25,-35.06,13.5,88.61,-79.08,-156.36
52.202805,-2.2002,117.75,6.19,2,262.19,23 / 24,13717810,2020-01-08 16:04:01:404,-0.6452,0.3022,9.777,0.0167,0.0106,9.8065,-0.0351,-0.2168,0.0632,12.94,-35.12,13.06,91.14,-79.22,-155.08
52.202805,-2.2002,117.75,6.19,2,262.19,23 / 24,13717911,2020-01-08 16:04:01:505,-0.8199,4.7044,10.9357,0.0123,-0.0016,9.8065,0.0618,-0.5828,0.195,13.81,-34.69,12.38,95.54,-79.27,-154.72
52.202805,-2.2002,117.75,6.19,2,262.19,23 / 24,13718010,2020-01-08 16:04:01:604,0.4018,-0.813,9.4404,-0.0518,0.0486,9.8064,-0.1831,-0.2435,0.199,13.5,-35.12,12.56,93.67,-79.22,-153.75
52.202805,-2.2002,117.75,6.19,2,262.19,23 / 24,13718110,2020-01-08 16:04:01:704,-1.5277,3.2868,9.0569,0.0158,0.0636,9.8064,-0.1381,-0.217,0.1458,13.75,-35.06,11.31,99.08,-79.37,-153.97
52.202805,-2.2002,117.75,6.19,2,262.19,23 / 24,13718210,2020-01-08 16:04:01:804,-0.8963,1.4118,11.099,0.0717,-0.0247,9.8063,-0.0521,-0.2721,0.0137,13.88,-35,10.81,96.36,-79.66,-156.26
52.202805,-2.2002,117.75,6.19,2,262.19,22 / 22,13718310,2020-01-08 16:04:01:904,0.3836,0.8687,9.8683,0.0048,-0.0262,9.8066,-0.0702,-0.2,-0.0347,13,-35.44,11.13,94.98,-79.58,-156.82
52.202805,-2.2002,117.75,6.19,2,262.19,22 / 22,13718410,2020-01-08 16:04:02:004,0.2305,-2.1822,10.1832,-0.0134,-0.0024,9.8066,-0.1295,-0.0536,0.0749,13.81,-34.87,10.94,93.88,-79.75,-158.67
52.202805,-2.2002,117.75,6.19,2,262.19,22 / 22,13718510,2020-01-08 16:04:02:104,0.128,0.0512,10.1165,0.0366,0.0027,9.8065,-0.0606,-0.1793,0.0386,13.38,-34.31,10.19,93.16,-79.98,-160.68
52.202805,-2.2002,117.75,6.19,2,262.19,22 / 22,13718610,2020-01-08 16:04:02:204,1.356,-2.9432,10.6821,0.026,0.0163,9.8066,-0.0233,0.033,-0.1337,14.56,-34.62,10.81,91.81,-80.09,-161.1
52.202805,-2.2002,117.75,6.19,2,262.19,22 / 22,13718710,2020-01-08 16:04:02:304,0.6887,0.2609,10.677,0.0021,-0.0071,9.8066,-0.0395,-0.1629,0.2,14.31,-34.25,10.69,89.93,-80.23,-161.11
52.202805,-2.2002,117.75,6.19,2,262.19,22 / 22,13718809,2020-01-08 16:04:02:403,1.3043,-3.8401,8.5476,-0.0249,0.0585,9.8064,0.0119,0.0592,0.1582,14.88,-33.94,10.94,91.8,-80.37,-159.98
52.202805,-2.2002,117.75,6.19,2,262.19,22 / 22,13718910,2020-01-08 16:04:02:504,1.3775,1.9431,9.1184,0.0342,0.0409,9.8065,-0.1855,-0.2119,0.1421,14.25,-34.19,10.81,91.58,-80.39,-159.09
52.202805,-2.2002,117.75,6.19,2,262.19,22 / 22,13719009,2020-01-08 16:04:02:603,2.1265,-3.0936,11.1481,0.0275,0.0754,9.8063,-0.0565,0.0749,0.0063,14.69,-34.06,11,95.52,-80.53,-155.81
52.202805,-2.2002,117.75,6.19,2,262.19,22 / 22,13719110,2020-01-08 16:04:02:704,1.4697,1.7886,8.7801,-0.0413,0.0416,9.8064,-0.0356,-0.2615,0.334,14.63,-33.94,10.25,99,-80.39,-155.57
52.202805,-2.2002,117.75,6.19,2,262.19,22 / 22,13719210,2020-01-08 16:04:02:804,1.9163,-1.0161,10.4925,-0.0597,0.0349,9.8064,0.1188,0.2581,-0.0214,13.88,-34.31,12.06,92.68,-80.09,-155.45
52.202805,-2.2002,117.75,6.19,2,262.19,23 / 23,13719310,2020-01-08 16:04:02:904,-1.1779,-2.4575,9.4153,-0.0022,0.001,9.8066,0.0242,0.1054,-0.0769,14.38,-35,12.31,93.55,-79.6,-156.12
52.202805,-2.2002,117.75,6.19,2,262.19,23 / 23,13719410,2020-01-08 16:04:03:004,0.2896,-0.9094,9.7349,-0.0038,0.0003,9.8065,-0.088,0.2916,-0.1652,13.31,-34.81,12.63,90.54,-79.57,-154.97
52.202805,-2.2002,117.75,6.19,2,262.19,23 / 23,13719510,2020-01-08 16:04:03:104,-1.1127,-0.8852,9.4354,0.0365,0.0014,9.8066,-0.0865,0.1119,-0.0089,13.31,-35.31,12.19,94.97,-79.79,-153.04
52.202805,-2.2002,117.75,6.19,2,262.19,23 / 23,13719610,2020-01-08 16:04:03:204,0.0894,3.3193,10.0881,0.0177,0.0152,9.8066,-0.021,0.2218,-0.0944,13.13,-35.37,12.06,95.81,-80.04,-151.6
52.202805,-2.2002,117.75,6.19,2,262.19,23 / 23,13719710,2020-01-08 16:04:03:304,-1.8855,1.5822,9.7928,0.0199,-0.0328,9.8065,-0.0534,-0.0536,-0.0598,13.06,-35.12,11.38,98.49,-80.16,-151.79
52.202805,-2.2002,117.75,6.19,2,262.19,23 / 23,13719810,2020-01-08 16:04:03:404,-0.6369,-0.7081,9.3924,0.0054,0.0457,9.8065,0.1784,-0.2563,0.0473,13.13,-35.31,11.75,97.54,-80.02,-149.82
52.202805,-2.2002,117.75,6.19,2,262.19,23 / 23,13719910,2020-01-08 16:04:03:504,-2.4105,3.034,12.6174,-0.0916,-0.0055,9.8061,0.2392,-0.4524,0.2283,12.81,-35.37,11.5,98.27,-80,-149.09
52.202805,-2.2002,117.75,6.19,2,262.19,23 / 23,13720011,2020-01-08 16:04:03:605,-0.8949,-0.2461,10.3956,-0.0575,0.0124,9.8064,0.1198,-0.2586,0.0714,13.38,-35.62,10.94,102.78,-79.4,-149.43
52.202805,-2.2002,117.75,6.19,2,262.19,23 / 23,13720110,2020-01-08 16:04:03:704,-2.2027,2.055,11.8739,-0.0346,-0.0179,9.8066,0.1635,-0.351,0.1015,12.75,-35.75,11.25,102.66,-79.55,-149.24
52.202805,-2.2002,117.75,6.19,2,262.19,23 / 23,13720210,2020-01-08 16:04:03:804,-1.572,0.395,8.8281,-0.0964,-0.023,9.8061,0.0709,-0.1548,0.0198,13.56,-35.37,10.25,105.06,-79.1,-151.33
52.202805,-2.2002,117.75,6.19,2,262.19,25 / 25,13720310,2020-01-08 16:04:03:904,-0.7216,0.5934,10.9061,-0.0029,-0.0029,9.8066,0.1195,-0.164,-0.0066,13.69,-34.5,10.63,99.64,-79.07,-153.33
52.202805,-2.2002,117.75,6.19,2,262.19,25 / 25,13720410,2020-01-08 16:04:04:004,1.2856,0.4741,9.8634,0.0137,-0.0364,9.8065,-0.0776,0.1002,-0.2079,13.81,-34.44,11.31,97.87,-79.22,-154.93
52.202805,-2.2002,117.75,6.19,2,262.19,25 / 25,13720510,2020-01-08 16:04:04:104,-1.2105,-1.9303,10.265,0.0213,-0.0377,9.8065,-0.0177,0.0364,-0.0279,14.31,-35.25,10.94,98.54,-79.23,-154.84
52.202805,-2.2002,117.75,6.19,2,262.19,25 / 25,13720610,2020-01-08 16:04:04:204,-0.7126,-0.8107,9.9757,0.0072,-0.0026,9.8066,-0.0067,0.0473,0.0451,12.81,-35.19,10.94,95.84,-79.55,-155.97
52.202805,-2.2002,117.75,6.19,2,262.19,25 / 25,13720710,2020-01-08 16:04:04:304,1.8614,-0.2895,8.2375,0.0289,-0.0223,9.8066,-0.1207,-0.1215,-0.1177,14,-34.87,10.5,95.58,-79.73,-156.93
52.202805,-2.2002,117.75,6.19,2,262.19,25 / 25,13720810,2020-01-08 16:04:04:404,1.0677,-0.6587,9.3205,0.0374,0.0293,9.8065,0.0664,0.2832,-0.1895,13.69,-34.87,10.63,95.64,-80,-156.29
52.202805,-2.2002,117.75,6.19,2,262.19,25 / 25,13720910,2020-01-08 16:04:04:504,3.4767,0.4891,7.6309,-0.0096,-0.0165,9.8065,-0.0643,0.0233,0.0301,13.88,-34.94,10.5,94.19,-80.11,-157.58
52.202805,-2.2002,117.75,6.19,2,262.19,25 / 25,13721009,2020-01-08 16:04:04:603,2.2445,-2.6346,10.6638,0.023,0.0144,9.8065,0.2175,0.1041,-0.1299,13.69,-35.44,10.63,94.21,-80.42,-156.88
52.202805,-2.2002,117.75,6.19,2,262.19,25 / 25,13721110,2020-01-08 16:04:04:704,-1.3823,-1.6194,12.2874,-0.0578,-0.0325,9.8064,0.0477,-0.1541,0.1558,13.56,-35.06,10.44,97.78,-80.63,-156
52.202805,-2.2002,117.75,6.19,2,262.19,25 / 25,13721210,2020-01-08 16:04:04:804,2.9602,-4.6877,9.4062,-0.0502,0.0595,9.8063,0.2119,0.1448,-0.0563,13.63,-35.69,11,97.01,-80.27,-154.85
52.202805,-2.2002,117.75,6.19,2,262.19,23 / 25,13721310,2020-01-08 16:04:04:904,0.3168,0.802,12.3901,-0.0637,0.0033,9.8064,0.2984,-0.0404,0.2483,12.94,-35.06,11.13,95.71,-80.59,-153.79
52.202805,-2.2002,117.75,6.19,2,262.19,23 / 25,13721410,2020-01-08 16:04:05:004,-1.1112,-0.3495,10.4009,-0.057,0.005,9.8064,-0.2481,0.2593,0.0967,12.69,-35.5,11.81,94.28,-80.21,-152.83
52.202805,-2.2002,117.75,6.19,2,262.19,23 / 25,13721510,2020-01-08 16:04:05:104,1.6696,-4.7341,11.9714,0.0587,0.0651,9.8062,-0.1075,0.5538,-0.1413,11.94,-35.31,11.94,96.11,-80.25,-149.44
52.202805,-2.2002,117.75,6.19,2,262.19,23 / 25,13721610,2020-01-08 16:04:05:204,-2.3945,2.1586,11.9721,0.0438,-0.0007,9.8065,-0.4127,-0.4314,0.451,12.25,-35.56,11.94,96.62,-80.1,-149.85
52.202805,-2.2002,117.75,6.19,2,262.19,23 / 25,13721709,2020-01-08 16:04:05:303,1.6462,5.1322,6.4291,0.063,0.1111,9.8057,-0.4878,0.0293,0.0771,12.94,-35.5,11.31,100.93,-79.71,-150.14
52.202805,-2.2002,117.75,6.19,2,262.19,23 / 25,13721809,2020-01-08 16:04:05:403,0.5365,1.3788,10.7103,0.0487,0.0254,9.8065,-0.1109,-0.1731,-0.0129,12.19,-35.37,11.88,99.38,-79.57,-147.45
52.202805,-2.2002,117.75,6.19,2,262.19,23 / 25,13721910,2020-01-08 16:04:05:504,1.4333,-0.298,9.6279,0.0138,0.0111,9.8066,-0.1344,0.272,0.0287,12.63,-35,11.56,101,-79.44,-147.32
52.202805,-2.2002,117.75,6.19,2,262.19,23 / 25,13722010,2020-01-08 16:04:05:604,-0.9866,3.0742,10.824,0.0399,-0.0233,9.8065,-0.0712,-0.0444,0.0827,11.88,-35.69,11.38,102.95,-79.62,-147.58
52.202805,-2.2002,117.75,6.19,2,262.19,23 / 25,13722110,2020-01-08 16:04:05:704,2.1225,0.6294,9.0547,0.0094,-0.0144,9.8066,0.0035,0.2802,-0.2859,12.88,-35.56,11.13,104.85,-79.45,-147
52.202805,-2.2002,117.75,6.19,2,262.19,23 / 25,13722210,2020-01-08 16:04:05:804,1.3751,7.5229,9.8404,0.0256,-0.0752,9.8062,0.2314,0.1166,-0.3499,12.5,-35.69,11.25,104.47,-79.6,-147.1
52.202805,-2.2002,117.75,6.19,2,262.19,24 / 24,13722310,2020-01-08 16:04:05:904,-0.7415,-2.7419,12.6754,-0.0666,-0.0894,9.8059,0.2177,0.5013,-0.3506,12.81,-36.12,10.88,105.15,-79.72,-146.07
52.202805,-2.2002,117.75,6.19,2,262.19,24 / 24,13722410,2020-01-08 16:04:06:004,1.5364,3.6943,6.1898,-0.0252,-0.1124,9.8059,0.3346,-0.0556,-0.1889,12.94,-35.94,9.88,104.15,-79.71,-150.78
52.202805,-2.2002,117.75,6.19,2,262.19,24 / 24,13722510,2020-01-08 16:04:06:104,-0.1612,0.4349,9.9715,-0.0278,-0.0958,9.8061,0.254,0.0618,-0.3557,12.56,-35.69,9.94,105.72,-79.89,-148.59
52.202805,-2.2002,117.75,6.19,2,262.19,24 / 24,13722610,2020-01-08 16:04:06:204,-1.1935,3.3461,9.8587,-0.0172,-0.0711,9.8063,0.2236,0.4002,-0.4004,14.06,-36.06,9,105.59,-79.96,-153.05
52.202805,-2.2002,117.75,6.19,2,262.19,24 / 24,13722710,2020-01-08 16:04:06:304,0.6334,-6.5561,10.8523,-0.0268,-0.1365,9.8056,0.1562,0.308,-0.4537,13.38,-35.5,8.69,99.36,-80.3,-157.71
52.202805,-2.2002,117.75,6.19,2,262.19,24 / 24,13722810,2020-01-08 16:04:06:404,-0.5195,2.3706,9.7681,-0.0358,-0.0559,9.8064,0.0552,0.1995,0.1589,14.5,-35,8.5,100.7,-80.25,-157.92
52.202805,-2.2002,117.75,6.19,2,262.19,24 / 24,13722910,2020-01-08 16:04:06:504,0.3559,-7.98,9.6158,0.0192,-0.0021,9.8066,0.063,0.6442,-0.5586,15.5,-35.25,9.13,99.31,-80.31,-159.92
52.202805,-2.2002,117.75,6.19,2,262.19,24 / 24,13723010,2020-01-08 16:04:06:604,0.4628,-0.4292,9.7357,0.0092,-0.1268,9.8057,0.0392,-0.1127,-0.0006,15.38,-35,9.31,96.37,-80.41,-162.2
52.202805,-2.2002,117.75,6.19,2,262.19,24 / 24,13723110,2020-01-08 16:04:06:704,2.1936,-9.0296,8.2564,-0.0449,-0.0266,9.8064,0.1692,0.9458,-0.5373,16.38,-34.75,10.94,91.27,-80.33,-162.09
52.202805,-2.2002,117.75,6.19,2,262.19,24 / 24,13723210,2020-01-08 16:04:06:804,-0.7405,3.2141,9.7296,0.0346,-0.1015,9.806,0.0898,-0.0629,0.0165,14.5,-34.94,10.69,88.32,-80.28,-164.25
52.202805,-2.2002,117.75,6.19,2,262.19,25 / 25,13723310,2020-01-08 16:04:06:904,-1.4638,-4.8642,11.1042,-0.0414,-0.025,9.8065,0.1201,0.6277,-0.3076,14.81,-35.06,11.38,90.77,-79.93,-162.49
52.202805,-2.2002,117.75,6.19,2,262.19,25 / 25,13723410,2020-01-08 16:04:07:004,-1.1235,3.3463,7.727,0.0496,-0.0524,9.8064,0.3539,0.4736,-0.1524,13.56,-35.37,11.69,86.78,-80.23,-161.7
52.202805,-2.2002,117.75,6.19,2,262.19,25 / 25,13723509,2020-01-08 16:04:07:103,0.6857,-3.9389,10.168,-0.0464,-0.0722,9.8062,0.2608,0.6837,-0.4608,14.69,-35.25,12.31,92.02,-80.1,-157.82
52.202805,-2.2002,117.75,6.19,2,262.19,25 / 25,13723609,2020-01-08 16:04:07:203,-0.4132,4.6089,8.1417,-0.0461,-0.0449,9.8064,0.1849,0.0686,0.0295,12.88,-35.37,11.5,90.93,-79.76,-157.27
52.202805,-2.2002,117.75,6.19,2,262.19,25 / 25,13723710,2020-01-08 16:04:07:304,1.1334,0.8746,10.5416,-0.0126,-0.0038,9.8066,0.2079,0.2376,-0.2371,13.56,-35.31,12.19,94.12,-79.76,-155.22
52.202805,-2.2002,117.75,6.19,2,262.19,25 / 25,13723809,2020-01-08 16:04:07:403,-0.8695,2.5389,9.2782,-0.0298,-0.0584,9.8064,0.0408,-0.0557,0.0784,13.44,-35.81,11.69,93.24,-79.83,-155.38
52.202805,-2.2002,117.75,6.19,2,262.19,25 / 25,13723910,2020-01-08 16:04:07:504,1.0305,0.422,9.8499,0.0232,0.016,9.8065,0.0549,0.0482,-0.0763,12.63,-35.37,12.38,94.67,-79.87,-153.17
52.202805,-2.2002,117.75,6.19,2,262.19,25 / 25,13724009,2020-01-08 16:04:07:603,-2.134,-1.9047,11.3871,0.0216,0.0196,9.8066,-0.1269,-0.4696,0.2979,13.06,-35.44,10.94,98.88,-79.91,-151.92
52.202805,-2.2002,117.75,6.19,2,262.19,25 / 25,13724110,2020-01-08 16:04:07:704,-0.5564,-0.2006,8.6697,0.0223,0.0656,9.8063,-0.289,-0.2097,0.1451,12.88,-35.25,10.88,97.9,-79.84,-153.14
52.202805,-2.2002,117.75,6.19,2,262.19,25 / 25,13724211,2020-01-08 16:04:07:805,1.6326,-0.3427,11.3203,0.0494,0.0443,9.8064,0.1216,-0.577,0.1005,13.69,-36.37,10.44,104.68,-79.77,-150.96
52.202805,-2.2002,117.75,6.19,2,262.19,24 / 24,13724310,2020-01-08 16:04:07:904,-0.2894,2.1928,8.1777,-0.0184,0.0262,9.8065,-0.165,-0.2482,0.1309,13.06,-35.5,10.19,101.43,-79.7,-153.14
52.202805,-2.2002,117.75,6.19,2,262.19,24 / 24,13724410,2020-01-08 16:04:08:004,1.3606,-2.132,8.9395,0.0339,0.0005,9.8065,0.128,-0.469,-0.0008,13.38,-36.06,10.25,101.37,-79.74,-153.78
52.202805,-2.2002,117.75,6.19,2,262.19,24 / 24,13724510,2020-01-08 16:04:08:104,-2.4187,0.7971,8.583,-0.0552,-0.0153,9.8065,0.0143,-0.3304,0.2269,14.38,-35.69,9,103.29,-79.45,-156.82
52.202805,-2.2002,117.75,6.19,2,262.19,24 / 24,13724610,2020-01-08 16:04:08:204,-0.2049,-3.6575,8.8186,0.0254,0.0198,9.8065,0.1608,-0.0871,-0.0324,13.81,-34.87,9.38,100.59,-79.84,-158.24
52.202805,-2.2002,117.75,6.19,2,262.19,24 / 24,13724710,2020-01-08 16:04:08:304,-2.0951,-1.2395,11.2777,-0.0366,-0.0398,9.8064,0.1043,-0.445,0.041,15.19,-35.19,9.13,99.29,-80.16,-159.64
52.202805,-2.2002,117.75,6.19,2,262.19,24 / 24,13724810,2020-01-08 16:04:08:404,0.6375,-4.8593,9.4329,-0.0171,0.0112,9.8065,0.0896,0.2557,-0.2255,14.75,-35.12,8.88,97.85,-80.19,-161.12
52.202805,-2.2002,117.75,6.19,2,262.19,24 / 24,13724909,2020-01-08 16:04:08:503,0.8001,0.1908,10.5427,-0.0274,-0.0363,9.8065,0.1701,-0.1177,0.0898,15,-34.44,8.69,95.82,-80.22,-162.6
52.202805,-2.2002,117.75,6.19,2,262.19,24 / 24,13725010,2020-01-08 16:04:08:604,0.6079,-1.7258,8.9338,-0.0362,-0.0012,9.8066,0.0316,0.2832,0.0368,15.69,-34.5,8.81,94.13,-80,-165.46
52.202805,-2.2002,117.75,6.19,2,262.19,24 / 24,13725110,2020-01-08 16:04:08:704,0.6387,0.6542,9.6199,0.009,-0.0114,9.8066,0.0264,0.0431,-0.1455,16.06,-34.25,9.06,93.18,-80,-166.45
52.202805,-2.2002,117.75,6.19,2,262.19,24 / 24,13725209,2020-01-08 16:04:08:803,0.2233,2.0623,10.9018,0.0199,0.0361,9.8065,0.0234,-0.0405,-0.0545,15.81,-34.44,9.5,93.05,-80.12,-163.16
52.202805,-2.2002,117.75,6.19,2,262.19,24 / 24,13725309,2020-01-08 16:04:08:903,1.4486,3.1291,11.3646,0.0036,0.0469,9.8065,-0.0852,0.0077,0.1876,15.25,-34.56,9.44,98.34,-79.95,-161.1
52.202705,-2.20123,121.16,7.52,2,264.5,24 / 24,13725410,2020-01-08 16:04:09:004,4.7404,-0.0216,5.9836,0.0404,0.021,9.8065,0.535,-0.6188,0.1564,15.69,-35.19,9.75,96.2,-80.15,-160.38
52.202705,-2.20123,121.16,7.52,2,264.5,24 / 24,13725510,2020-01-08 16:04:09:104,-1.4625,0.8526,9.3349,0.0215,-0.0351,9.8065,0.294,-0.6962,0.1843,14.88,-34.5,9.63,93.91,-80.14,-161.43
52.202705,-2.20123,121.16,7.52,2,264.5,24 / 24,13725610,2020-01-08 16:04:09:204,0.1314,-1.4156,8.9824,0.0877,-0.0358,9.8061,0.1987,-0.3347,0.2174,15.75,-34.44,9.69,94.55,-79.84,-162.14
52.202705,-2.20123,121.16,7.52,2,264.5,24 / 24,13725710,2020-01-08 16:04:09:304,2.6453,0.0134,9.5635,0.0295,-0.0345,9.8065,0.028,-0.3817,-0.0514,15.75,-34.56,9.31,95.3,-80.2,-164.41
52.202705,-2.20123,121.16,7.52,2,264.5,24 / 24,13725810,2020-01-08 16:04:09:404,-0.1109,1.6674,9.4868,-0.0186,-0.0082,9.8065,0.106,0.0359,-0.0719,16.31,-34.37,9.13,92.8,-79.91,-167.02
52.202705,-2.20123,121.16,7.52,2,264.5,24 / 24,13725910,2020-01-08 16:04:09:504,-0.8722,-3.6692,8.4544,-0.0372,0.0094,9.8065,-0.1028,0.2262,-0.1822,16.56,-34.19,8.81,92.28,-79.61,-168.68
52.202705,-2.20123,121.16,7.52,2,264.5,24 / 24,13726010,2020-01-08 16:04:09:604,-0.7226,-3.2029,10.478,0.0068,-0.0219,9.8066,-0.0619,-0.4015,0.1194,15.81,-33.94,8.31,93.8,-79.7,-169.73
52.202705,-2.20123,121.16,7.52,2,264.5,24 / 24,13726110,2020-01-08 16:04:09:704,3.1319,-3.9803,8.704,-0.001,-0.0241,9.8065,-0.107,0.0696,0.1382,15.81,-33.37,7.75,91.97,-80,-170.41
52.202705,-2.20123,121.16,7.52,2,264.5,24 / 24,13726210,2020-01-08 16:04:09:804,0.4915,-1.2994,10.2208,0.0038,-0.0555,9.8064,0.0693,-0.3422,0.2682,15.13,-34.44,7.94,92.48,-80.2,-169.6
52.202705,-2.20123,121.16,7.52,2,264.5,25 / 25,13726310,2020-01-08 16:04:09:904,0.565,1.7888,10.0892,-0.0219,0.0156,9.8066,0.0704,0.0787,0.0145,14.69,-33.81,8.5,88.45,-79.95,-170.76
52.202705,-2.20123,121.16,7.52,2,264.5,25 / 25,13726410,2020-01-08 16:04:10:004,-0.4586,-7.2674,8.6212,0.0132,-0.0633,9.8064,0.0134,-0.4187,0.3876,14.56,-34.56,9.06,87.61,-79.79,-172.57
52.202705,-2.20123,121.16,7.52,2,264.5,25 / 25,13726510,2020-01-08 16:04:10:104,-0.0998,-4.484,10.3275,0.0343,0.0083,9.8066,0.1185,-0.0259,0.0485,14.69,-34.44,10.06,85.19,-79.81,-170.93
52.202705,-2.20123,121.16,7.52,2,264.5,25 / 25,13726610,2020-01-08 16:04:10:204,1.2356,-2.6946,8.3394,0.0376,-0.0086,9.8066,-0.1032,-0.0568,0.1538,15.06,-34.19,9.81,85.58,-79.91,-170.34
52.202705,-2.20123,121.16,7.52,2,264.5,25 / 25,13726710,2020-01-08 16:04:10:304,0.2232,1.1181,9.8213,0.037,0.0274,9.8065,0.0647,0.0969,0.1323,14.56,-33.81,10.63,82.71,-80.4,-168.99
52.202705,-2.20123,121.16,7.52,2,264.5,25 / 25,13726809,2020-01-08 16:04:10:403,1.7,-0.6736,9.6696,0.0004,-0.0194,9.8066,-0.0381,-0.0435,0.1324,15.38,-34.37,11.25,84.69,-80.33,-167.19
52.202705,-2.20123,121.16,7.52,2,264.5,25 / 25,13726910,2020-01-08 16:04:10:504,-0.1868,0.8625,9.9249,-0.0223,-0.0084,9.8066,-0.0236,-0.124,0.1058,14.63,-34.81,11.19,85.74,-80.15,-167.09
52.202705,-2.20123,121.16,7.52,2,264.5,25 / 25,13727010,2020-01-08 16:04:10:604,-0.5179,-2.3694,10.6487,-0.0375,-0.0021,9.8065,-0.0524,0.1831,-0.0808,15.19,-34.56,12.25,83.87,-79.86,-166.47
52.202705,-2.20123,121.16,7.52,2,264.5,25 / 25,13727110,2020-01-08 16:04:10:704,-1.8207,-1.3825,10.7498,0.0242,-0.0328,9.8065,0.0096,0.0514,0.1259,14.5,-33.94,12.5,79.96,-79.99,-166.58
52.202705,-2.20123,121.16,7.52,2,264.5,25 / 25,13727210,2020-01-08 16:04:10:804,-1.6822,-2.8795,10.0268,-0.0072,0.0089,9.8066,-0.1111,0.2093,0.0388,15.5,-34.31,12.81,82.39,-79.9,-165.56
52.202705,-2.20123,121.16,7.52,2,264.5,25 / 26,13727310,2020-01-08 16:04:10:904,-1.3274,-2.2426,10.0152,-0.0079,0.0219,9.8066,0.0122,0.1436,-0.0013,14.63,-34,12.63,83.31,-79.95,-163.43
52.202705,-2.20123,121.16,7.52,2,264.5,25 / 26,13727410,2020-01-08 16:04:11:004,-0.545,-1.5674,9.8572,0.0148,0.0137,9.8066,0.006,0.1732,-0.0156,15.56,-34,12.88,85.45,-79.96,-162.45
52.202705,-2.20123,121.16,7.52,2,264.5,25 / 26,13727510,2020-01-08 16:04:11:104,-2.1189,-2.9041,10.4892,0.0188,0.0006,9.8066,0.0219,0.0658,-0.0255,14.25,-33.62,11.94,86.18,-80.11,-161.99
52.202705,-2.20123,121.16,7.52,2,264.5,25 / 26,13727610,2020-01-08 16:04:11:204,-1.8403,-0.9659,10.847,-0.0355,-0.0038,9.8065,-0.0863,0.1674,0.0158,14.44,-33.62,12.25,86.85,-79.89,-161.77
52.202705,-2.20123,121.16,7.52,2,264.5,25 / 26,13727709,2020-01-08 16:04:11:303,-0.6206,-1.1021,9.0723,-0.0357,0.0086,9.8065,-0.203,0.2164,-0.0225,13.38,-33.25,12.44,85.93,-79.93,-160.71
52.202705,-2.20123,121.16,7.52,2,264.5,25 / 26,13727810,2020-01-08 16:04:11:404,-1.7862,1.0637,11.6461,-0.0011,0.0224,9.8066,0.0071,-0.0647,0.1293,12.88,-33.56,11.69,87.91,-79.93,-159.36
52.202705,-2.20123,121.16,7.52,2,264.5,25 / 26,13727910,2020-01-08 16:04:11:504,-1.1528,2.7257,9.4963,-0.047,0.0133,9.8064,-0.0945,-0.1365,0.0824,12.81,-33.81,12.81,87.33,-79.83,-157.07
52.202705,-2.20123,121.16,7.52,2,264.5,25 / 26,13728010,2020-01-08 16:04:11:604,-1.5667,-0.6382,11.9783,-0.0288,-0.0048,9.8065,0.0922,-0.227,0.0261,12.44,-34.12,13.13,87.11,-79.52,-156.44
52.202705,-2.20123,121.16,7.52,2,264.5,25 / 26,13728110,2020-01-08 16:04:11:704,-2.2479,5.6054,8.6893,-0.0631,-0.0775,9.8061,-0.2176,-0.5419,0.2988,12.88,-34.37,13.25,88.7,-79.16,-157.06
52.202705,-2.20123,121.16,7.52,2,264.5,25 / 26,13728210,2020-01-08 16:04:11:804,1.4745,3.6057,8.143,0.0666,0.0438,9.8063,0.2535,-0.0564,-0.1757,13,-34.62,12.63,90.23,-79.71,-154.98
52.202705,-2.20123,121.16,7.52,2,264.5,25 / 25,13728310,2020-01-08 16:04:11:904,-0.4583,4.79,10.1086,0.0346,-0.022,9.8065,0.2419,-0.4963,0.1053,13.63,-35.06,11.25,96.1,-79.73,-156.37
52.202705,-2.20123,121.16,7.52,2,264.5,25 / 25,13728410,2020-01-08 16:04:12:004,3.2769,1.0651,7.9643,0.0324,-0.0253,9.8065,0.2327,0.0048,-0.095,13.63,-35.12,11.38,94.71,-79.5,-158.34
52.202705,-2.20123,121.16,7.52,2,264.5,25 / 25,13728510,2020-01-08 16:04:12:104,0.6963,-2.6915,10.6229,0.0294,-0.0191,9.8066,0.2063,-0.0637,-0.2595,15.13,-35.06,10.81,92.59,-79.46,-161.58
52.202705,-2.20123,121.16,7.52,2,264.5,25 / 25,13728609,2020-01-08 16:04:12:203,1.2374,-3.7477,7.392,-0.0242,0.0558,9.8064,-0.2016,0.3689,-0.5364,14.5,-35.25,10.63,89,-79.51,-165.15
52.202705,-2.20123,121.16,7.52,2,264.5,25 / 25,13728710,2020-01-08 16:04:12:304,0.8922,-2.9547,10.4914,0.0573,-0.0009,9.8064,-0.0435,0.3182,-0.029,15.06,-34.81,10.88,87.45,-79.94,-165.82
52.202705,-2.20123,121.16,7.52,2,264.5,25 / 25,13728809,2020-01-08 16:04:12:403,-0.734,-0.9119,11.9381,-0.0461,-0.0627,9.8062,-0.3192,0.1242,0.1441,14.5,-35.19,10.44,89.62,-79.88,-166.98
52.202705,-2.20123,121.16,7.52,2,264.5,25 / 25,13728910,2020-01-08 16:04:12:504,2.4661,-6.062,8.5204,-0.0597,0.0177,9.8064,-0.2919,0.5138,-0.2288,15.69,-34.75,10.56,87.71,-80.02,-166.31
52.202705,-2.20123,121.16,7.52,2,264.5,25 / 25,13729009,2020-01-08 16:04:12:603,-0.7359,-0.451,12.1764,-0.0113,-0.0184,9.8065,0.0307,-0.291,0.1833,14.88,-35.37,10.81,85.81,-80.19,-166.93
52.202705,-2.20123,121.16,7.52,2,264.5,25 / 25,13729110,2020-01-08 16:04:12:704,-0.6904,0.5121,10.1576,-0.0612,0.0133,9.8064,-0.0267,0.2729,-0.0101,15.31,-35.12,11.44,86.75,-79.95,-166.49
52.202705,-2.20123,121.16,7.52,2,264.5,25 / 25,13729209,2020-01-08 16:04:12:803,-1.1504,-0.8313,11.2503,0.0298,-0.0142,9.8066,0.1542,-0.1838,0.0653,14.75,-34.94,11.13,87,-79.68,-166.79
52.202705,-2.20123,121.16,7.52,2,264.5,25 / 25,13729310,2020-01-08 16:04:12:904,-0.5244,-1.8176,9.3791,0.0095,-0.0046,9.8066,-0.0769,0.0263,0.1209,14.56,-35,11.5,83.18,-79.84,-167.19
52.202705,-2.20123,121.16,7.52,2,264.5,24 / 24,13729412,2020-01-08 16:04:13:006,1.2768,-3.6144,10.8976,-0.0284,0.0046,9.8066,-0.109,-0.1559,0.2605,14,-34.56,12,84.46,-80.01,-164.45
52.202705,-2.20123,121.16,7.52,2,264.5,24 / 24,13729510,2020-01-08 16:04:13:104,-0.708,0.9647,9.7046,-0.0503,-0.0107,9.8064,-0.2312,-0.2153,0.3107,13.56,-35.12,12.63,85.23,-79.58,-161.59
52.202705,-2.20123,121.16,7.52,2,264.5,24 / 24,13729610,2020-01-08 16:04:13:204,-0.1461,-5.3959,11.321,0.0008,-0.0339,9.8065,0.0021,-0.2004,0.0369,13.94,-34.56,13.63,84.72,-79.59,-159.24
52.202705,-2.20123,121.16,7.52,2,264.5,24 / 24,13729710,2020-01-08 16:04:13:304,-0.7567,2.5782,9.9736,-0.0116,-0.0793,9.8063,0.0148,-0.4245,0.4226,13.44,-34.62,13.06,84.53,-79.44,-161.26
52.202705,-2.20123,121.16,7.52,2,264.5,24 / 24,13729810,2020-01-08 16:04:13:404,-0.2894,-1.5643,9.7979,-0.0274,-0.0352,9.8065,-0.0487,0.0198,0.226,13.44,-35.19,13.81,83.65,-78.84,-160.4
52.202705,-2.20123,121.16,7.52,2,264.5,24 / 24,13729910,2020-01-08 16:04:13:504,-3.2904,1.0735,9.6366,-0.0001,0.0045,9.8066,-0.1374,-0.3515,0.0757,12.75,-35.06,13.63,85.73,-78.79,-158.45
52.202705,-2.20123,121.16,7.52,2,264.5,24 / 24,13730010,2020-01-08 16:04:13:604,-4.004,1.227,11.0659,-0.0504,0.025,9.8065,-0.0783,0.1651,-0.1847,14,-34.87,13.56,87.41,-78.82,-158.08
52.202705,-2.20123,121.16,7.52,2,264.5,24 / 24,13730110,2020-01-08 16:04:13:704,-1.0803,1.726,10.2047,0.0119,-0.0223,9.8066,-0.0995,-0.0024,0.0647,13.19,-34.75,13.31,89.74,-78.73,-157.56
52.202705,-2.20123,121.16,7.52,2,264.5,24 / 24,13730210,2020-01-08 16:04:13:804,-0.7612,6.0549,11.548,-0.0412,-0.0288,9.8065,-0.0352,-0.0095,0.0641,13.44,-35.62,12.5,90.69,-78.7,-157.32
52.202705,-2.20123,121.16,7.52,2,264.5,24 / 24,13730311,2020-01-08 16:04:13:905,1.2891,-0.1945,9.705,-0.0508,0.0146,9.8064,-0.1187,0.3453,-0.529,13.38,-35.44,12.25,92.54,-78.42,-158.58
52.202705,-2.20123,121.16,7.52,2,264.5,23 / 24,13730410,2020-01-08 16:04:14:004,-0.7248,3.8604,11.1318,0.0002,-0.0289,9.8066,0.1363,-0.332,-0.2089,14.69,-35,12.63,85.83,-78.5,-164.3
52.202705,-2.20123,121.16,7.52,2,264.5,23 / 24,13730510,2020-01-08 16:04:14:104,1.8974,-3.123,9.3714,-0.0132,-0.0515,9.8065,0.0708,0.378,-0.253,15.5,-34.94,12.06,85.37,-78.58,-168.48
52.202705,-2.20123,121.16,7.52,2,264.5,23 / 24,13730610,2020-01-08 16:04:14:204,2.334,-3.4653,7.2193,0.1258,-0.0802,9.8055,0.0864,-0.6798,0.3606,15.75,-34.31,11.5,77.58,-79.14,-174.33
52.202705,-2.20123,121.16,7.52,2,264.5,23 / 24,13730710,2020-01-08 16:04:14:304,-1.0568,-9.0635,9.5855,0.0546,0.0111,9.8065,0.2753,0.2009,-0.3519,16.69,-34.06,11.31,79.17,-79.51,-175.88
52.202705,-2.20123,121.16,7.52,2,264.5,23 / 24,13730810,2020-01-08 16:04:14:404,2.2614,-1.9135,5.708,0.1152,-0.0502,9.8058,0.0402,-0.5293,0.2703,16.69,-33.69,11.75,72.21,-79.44,-179.69
52.202705,-2.20123,121.16,7.52,2,264.5,23 / 24,13730910,2020-01-08 16:04:14:504,-1.3085,0.7196,11.3019,0.1018,0.0357,9.806,0.4484,-0.241,-0.0776,16.81,-33.44,11.56,66.13,-80.13,176.45
52.202705,-2.20123,121.16,7.52,2,264.5,23 / 24,13731010,2020-01-08 16:04:14:604,3.904,-2.5523,6.1872,0.0041,-0.0277,9.8066,-0.1994,0.0786,0.1473,17.13,-33.94,11.19,68.48,-79.75,174.69
52.202705,-2.20123,121.16,7.52,2,264.5,23 / 24,13731110,2020-01-08 16:04:14:704,-1.8401,-5.0267,13.0436,0.1095,0.0806,9.8057,0.3719,0.4095,-0.1327,16.56,-33.5,12.13,66.99,-80.14,177.24
52.202705,-2.20123,121.16,7.52,2,264.5,23 / 24,13731209,2020-01-08 16:04:14:803,-2.3203,4.5226,12.0061,-0.0884,0.0307,9.8062,-0.3045,0.3472,-0.268,16.44,-33.69,12.13,66.63,-80.02,177.27
52.202705,-2.20123,121.16,7.52,2,264.5,25 / 25,13731310,2020-01-08 16:04:14:904,0.329,-3.418,10.5433,-0.0452,0.0457,9.8063,-0.257,0.7216,-0.2461,16.44,-33.94,12.5,65.4,-79.79,178.52
52.202705,-2.20123,121.16,7.52,2,264.5,25 / 25,13731409,2020-01-08 16:04:15:003,-5.3109,3.8765,12.5583,-0.0068,-0.011,9.8066,-0.1367,-0.1777,0.2437,16.5,-34.31,12.13,69.92,-80.2,179.52
52.202705,-2.20123,121.16,7.52,2,264.5,25 / 25,13731510,2020-01-08 16:04:15:104,0.6258,3.4643,8.8215,-0.062,0.0191,9.8064,-0.2848,0.0602,-0.1781,16.56,-34.31,12.06,70.07,-80.43,-179.95
52.202705,-2.20123,121.16,7.52,2,264.5,25 / 25,13731610,2020-01-08 16:04:15:204,-0.9438,1.5803,11.7211,0.0374,0.0057,9.8065,0.2612,-0.3614,0.0635,16.19,-34.37,11.38,69.36,-80.78,178.22
52.202705,-2.20123,121.16,7.52,2,264.5,25 / 25,13731710,2020-01-08 16:04:15:304,-0.2877,3.853,10.3725,-0.0111,-0.0069,9.8066,0.1209,-0.3927,0.0557,16.75,-34,11.38,71.21,-80.53,178.52
52.202705,-2.20123,121.16,7.52,2,264.5,25 / 25,13731810,2020-01-08 16:04:15:404,-0.1503,3.9461,8.4979,0.0277,0.0547,9.8064,0.1976,0.0974,-0.1859,15.94,-35.19,10.31,74.04,-80.25,178.01
52.202705,-2.20123,121.16,7.52,2,264.5,25 / 25,13731910,2020-01-08 16:04:15:504,-1.6865,4.1547,10.0933,0.0268,-0.0041,9.8065,0.1386,-0.2493,0.0237,16.06,-35.12,9.94,74.71,-80.29,178.69
52.202705,-2.20123,121.16,7.52,2,264.5,25 / 25,13732010,2020-01-08 16:04:15:604,-1.2465,1.7849,9.133,0.0234,0.019,9.8065,-0.0214,0.2228,-0.1294,16.19,-35.12,9.75,74.09,-80.27,178.08
52.202705,-2.20123,121.16,7.52,2,264.5,25 / 25,13732109,2020-01-08 16:04:15:703,0.6652,-2.5138,9.2277,0.0291,0.037,9.8065,-0.0513,0.1147,-0.2683,16.5,-35.06,9.13,77.64,-80.68,178.42
52.202705,-2.20123,121.16,7.52,2,264.5,25 / 25,13732210,2020-01-08 16:04:15:804,0.3859,2.3821,11.1697,-0.0193,0.0199,9.8066,0.0237,-0.0108,-0.1207,16.5,-35.25,8.56,76.1,-80.7,177.03
52.202705,-2.20123,121.16,7.52,2,264.5,25 / 25,13732310,2020-01-08 16:04:15:904,-0.0407,-2.8517,10.3114,-0.0037,0.0233,9.8066,0.044,0.2185,-0.2017,16.5,-35.06,9.06,75.18,-80.76,176.27
52.202705,-2.20123,121.16,7.52,2,264.5,23 / 24,13732409,2020-01-08 16:04:16:003,-0.9783,1.1509,8.8994,-0.0058,-0.0006,9.8066,0.1513,-0.0651,-0.0055,16.44,-34.37,9.44,72.59,-80.57,174.68
52.202705,-2.20123,121.16,7.52,2,264.5,23 / 24,13732510,2020-01-08 16:04:16:104,2.0832,-5.6785,10.0896,0.0108,0.0444,9.8065,0.1308,0.427,-0.332,17,-34.19,9.13,73.39,-80.39,174.41
52.202705,-2.20123,121.16,7.52,2,264.5,23 / 24,13732609,2020-01-08 16:04:16:203,2.5,1.8343,8.7208,0.0108,-0.0074,9.8066,0.075,-0.2363,0.1313,17.69,-33.81,9,72.88,-80.3,173.21
52.202705,-2.20123,121.16,7.52,2,264.5,23 / 24,13732711,2020-01-08 16:04:16:305,0.3124,-0.9553,10.5037,0.057,0.05,9.8063,0.258,0.339,-0.172,17.25,-33.87,9.38,72,-80.43,173.22
52.202705,-2.20123,121.16,7.52,2,264.5,23 / 24,13732809,2020-01-08 16:04:16:403,2.0282,2.7471,8.2183,0.0097,-0.0455,9.8065,-0.1366,-0.3006,0.3723,17.06,-34.5,9.38,70.9,-80.17,171.75
52.202705,-2.20123,121.16,7.52,2,264.5,23 / 24,13732910,2020-01-08 16:04:16:504,0.7996,-2.2038,9.6694,0.024,0.0591,9.8064,0.038,0.1323,-0.1235,17.88,-34.19,9.88,70.53,-80.43,174.14
52.202705,-2.20123,121.16,7.52,2,264.5,23 / 24,13733010,2020-01-08 16:04:16:604,1.4649,-3.8015,10.4494,-0.0135,0.0153,9.8066,-0.1558,-0.3492,0.1903,16.38,-34.37,9.13,72.61,-80.51,174.57
52.202705,-2.20123,121.16,7.52,2,264.5,23 / 24,13733110,2020-01-08 16:04:16:704,1.3059,-1.993,9.3234,0.0284,0.0116,9.8065,-0.0534,-0.0003,0.2659,16.63,-34.31,9.38,76,-80.81,177.62
52.202705,-2.20123,121.16,7.52,2,264.5,23 / 24,13733210,2020-01-08 16:04:16:804,0.7027,-1.7388,9.5724,0.0046,0.0173,9.8066,-0.042,-0.0335,0.087,16.5,-34.87,9.94,76.67,-80.84,-179.17
52.202705,-2.20123,121.16,7.52,2,264.5,25 / 26,13733309,2020-01-08 16:04:16:903,0.3379,0.9558,8.977,-0.0015,0.0319,9.8065,0.0122,-0.0145,0.2411,16.31,-34.5,10,78.43,-80.92,-176.09
52.202705,-2.20123,121.16,7.52,2,264.5,25 / 26,13733410,2020-01-08 16:04:17:004,-0.6759,-0.1899,9.5753,-0.0264,-0.0174,9.8066,-0.1666,-0.0888,0.3608,15,-35.06,10.06,83.17,-80.8,-171.42
52.202705,-2.20123,121.16,7.52,2,264.5,25 / 26,13733510,2020-01-08 16:04:17:104,0.882,3.3137,7.9554,-0.0382,0.021,9.8065,-0.3355,-0.3348,0.1023,15.25,-35.69,10,87.79,-80.86,-167.27
52.202705,-2.20123,121.16,7.52,2,264.5,25 / 26,13733610,2020-01-08 16:04:17:204,0.415,2.5079,11.1505,-0.0395,0.0316,9.8064,0.155,0.054,-0.1458,14.81,-35.12,9.5,88.1,-81.13,-165.85
52.202705,-2.20123,121.16,7.52,2,264.5,25 / 26,13733710,2020-01-08 16:04:17:304,0.5669,1.9608,10.8425,-0.0485,-0.0614,9.8063,0.12,-0.1703,0.2163,15.63,-35.06,9.5,89.8,-80.48,-166.32
52.202705,-2.20123,121.16,7.52,2,264.5,25 / 26,13733810,2020-01-08 16:04:17:404,-1.6886,2.362,9.7781,-0.0491,0.0174,9.8064,0.0842,0.0072,0.0401,14.19,-34.37,9.94,89.96,-79.83,-165.25
52.202705,-2.20123,121.16,7.52,2,264.5,25 / 26,13733909,2020-01-08 16:04:17:503,-1.5195,5.9972,11.1577,-0.0374,0.0148,9.8065,0.1855,-0.3109,0.015,15.31,-34.37,10,92.92,-79.16,-164.49
52.202705,-2.20123,121.16,7.52,2,264.5,25 / 26,13734010,2020-01-08 16:04:17:604,1.5983,-3.9014,6.6208,0.0255,-0.0623,9.8064,-0.3278,-0.1245,0.0643,15.31,-34.44,10,89.48,-79.37,-167.58
52.202705,-2.20123,121.16,7.52,2,264.5,25 / 26,13734110,2020-01-08 16:04:17:704,2.0934,3.7206,8.1845,0.0771,-0.0803,9.8059,-0.2382,-0.5736,0.2944,15,-35.06,8.88,91,-79.96,-168.76
52.202705,-2.20123,121.16,7.52,2,264.5,25 / 26,13734209,2020-01-08 16:04:17:803,0.1243,4.0925,13.4143,-0.0711,0.0002,9.8063,-0.1612,0.9449,-0.451,15.56,-34.12,9.31,90.43,-80.47,-168.32
52.202705,-2.20123,121.16,7.52,2,264.5,25 / 26,13734312,2020-01-08 16:04:17:906,2.3438,-0.5333,6.781,-0.1407,-0.0485,9.8054,-0.2736,0.7064,-0.3199,15.5,-34.44,9,89.11,-79.98,-170.63
52.202568,-2.202332,125.1,8.12,2,264.19,25 / 25,13734410,2020-01-08 16:04:18:004,-0.5757,2.5195,10.8552,0.0071,0.0772,9.8063,0.2402,0.5019,-0.3368,15.69,-33.94,10.56,83.54,-80.09,-169.74
52.202568,-2.202332,125.1,8.12,2,264.19,25 / 25,13734510,2020-01-08 16:04:18:104,1.4007,-3.6108,9.5581,-0.0269,0.0473,9.8065,0.0067,0.3755,-0.1427,15.38,-34.94,10.38,86.09,-79.87,-170.52
52.202568,-2.202332,125.1,8.12,2,264.19,25 / 25,13734611,2020-01-08 16:04:18:205,-0.6715,-0.4092,10.7198,-0.0379,-0.0013,9.8065,-0.0182,0.2079,0.0716,15.38,-34.87,10.75,84.62,-79.73,-169.06
52.202568,-2.202332,125.1,8.12,2,264.19,25 / 25,13734711,2020-01-08 16:04:18:305,0.841,-2.0869,8.5848,-0.03,0.018,9.8065,-0.0818,0.272,-0.0985,15,-34,10.75,85.8,-79.53,-167.71
52.202568,-2.202332,125.1,8.12,2,264.19,25 / 25,13734810,2020-01-08 16:04:18:404,-0.4952,-0.01,8.932,0.0195,0.0381,9.8065,0.0417,0.1786,-0.0171,15.25,-34,11.06,85.66,-79.53,-167.85
52.202568,-2.202332,125.1,8.12,2,264.19,25 / 25,13734910,2020-01-08 16:04:18:504,-0.4222,-2.2381,10.4642,0.0382,0.0703,9.8063,0.1423,0.3771,-0.138,14.63,-34.12,11.38,87.89,-79.8,-165.07
52.202568,-2.202332,125.1,8.12,2,264.19,25 / 25,13735010,2020-01-08 16:04:18:604,-0.6675,3.1138,10.1902,-0.0182,0.0374,9.8065,0.0478,0.0328,0.0014,14.94,-34.62,10.88,91.26,-79.57,-162.72
52.202568,-2.202332,125.1,8.12,2,264.19,25 / 25,13735111,2020-01-08 16:04:18:705,-0.3613,-1.7129,7.2881,-0.041,0.0217,9.8065,-0.2809,0.4696,-0.1438,13.75,-34.56,11,91.04,-79.38,-162.41
52.202568,-2.202332,125.1,8.12,2,264.19,25 / 25,13735210,2020-01-08 16:04:18:804,-4.3571,6.8282,13.081,-0.0101,-0.0374,9.8065,-0.0357,-0.6,0.4769,14.31,-34.12,11,91.77,-79.69,-160.36
52.202568,-2.202332,125.1,8.12,2,264.19,24 / 25,13735309,2020-01-08 16:04:18:903,0.5114,-0.4688,8.9444,-0.076,0.0146,9.8063,-0.1621,0.1012,-0.0623,14.5,-34.06,10.63,94.07,-79.56,-159.23
52.202568,-2.202332,125.1,8.12,2,264.19,24 / 25,13735410,2020-01-08 16:04:19:004,3.4843,-10.1988,6.6932,0.0951,-0.0877,9.8057,0.2837,-1.2795,0.5171,14.63,-34.37,10.88,93.19,-79.6,-160.07
52.202568,-2.202332,125.1,8.12,2,264.19,24 / 25,13735510,2020-01-08 16:04:19:104,0.8525,-1.4535,10.9238,0.0496,-0.083,9.8062,0.1541,-1.0686,0.689,13.75,-33.56,9.88,91.07,-79.96,-163.84
52.202568,-2.202332,125.1,8.12,2,264.19,24 / 25,13735610,2020-01-08 16:04:19:204,2.9337,-12.0333,8.3073,0.0573,-0.1358,9.8055,-0.0744,-0.7709,0.582,14.81,-33.25,10.19,88.41,-80.29,-166.17
52.202568,-2.202332,125.1,8.12,2,264.19,24 / 25,13735710,2020-01-08 16:04:19:304,-2.7418,6.5874,11.1837,0.064,-0.1008,9.8059,0.1314,-1.3339,0.8092,14.81,-33.75,9.94,90.64,-80.25,-164.58
52.202568,-2.202332,125.1,8.12,2,264.19,24 / 25,13735810,2020-01-08 16:04:19:404,3.9151,-10.3789,7.9798,-0.0082,-0.0144,9.8065,-0.1693,0.2712,-0.2284,14.63,-34.19,10.88,90.4,-80.08,-161.98
52.202568,-2.202332,125.1,8.12,2,264.19,24 / 25,13735910,2020-01-08 16:04:19:504,-3.5026,7.1207,10.1605,0.0472,-0.1029,9.806,-0.0861,-1.0112,0.5915,15.44,-34.5,10.69,88.92,-80.25,-163.15
52.202568,-2.202332,125.1,8.12,2,264.19,24 / 25,13736010,2020-01-08 16:04:19:604,-1.8822,4.5927,12.5382,-0.1046,0.0566,9.8059,-0.1953,0.993,-0.6446,14.88,-33.87,11.38,90.69,-80.31,-161.22
52.202568,-2.202332,125.1,8.12,2,264.19,24 / 25,13736110,2020-01-08 16:04:19:704,-1.3683,8.2491,9.4556,-0.0217,-0.0938,9.8061,-0.2302,-0.1058,0.2166,15.69,-34.19,11.38,92.49,-79.9,-161.12
52.202568,-2.202332,125.1,8.12,2,264.19,24 / 25,13736210,2020-01-08 16:04:19:804,-0.8645,-0.2476,12.4607,-0.0583,0.0577,9.8063,0.0082,0.9239,-0.5887,14.75,-33.75,12.06,90.97,-79.73,-159.07
52.202568,-2.202332,125.1,8.12,2,264.19,24 / 26,13736310,2020-01-08 16:04:19:904,0.8835,-1.9339,6.6933,-0.0781,-0.0435,9.8062,-0.3386,0.1958,-0.1641,14.5,-33.62,11.38,91.52,-79.77,-161.45
52.202568,-2.202332,125.1,8.12,2,264.19,24 / 26,13736411,2020-01-08 16:04:20:005,0.0717,4.5133,9.8747,-0.0175,0.075,9.8063,0.167,0.4269,-0.3801,13.88,-33.87,10.94,89.24,-80.17,-161.94
52.202568,-2.202332,125.1,8.12,2,264.19,24 / 26,13736510,2020-01-08 16:04:20:104,2.305,2.4037,8.0367,-0.0492,-0.0245,9.8064,-0.1893,0.1188,0.0542,14.5,-34.81,9.44,98.82,-79.94,-160.62
52.202568,-2.202332,125.1,8.12,2,264.19,24 / 26,13736610,2020-01-08 16:04:20:204,0.9703,4.2916,10.1457,0.0226,0.0478,9.8064,0.3301,0.2036,-0.1174,14.69,-34.56,10.63,93.29,-80.04,-159.67
52.202568,-2.202332,125.1,8.12,2,264.19,24 / 26,13736710,2020-01-08 16:04:20:304,-1.0887,-2.0498,13.0809,-0.0137,0.0501,9.8064,0.2708,0.1042,-0.2263,14.94,-35.12,10.94,95.45,-79.82,-157.87
52.202568,-2.202332,125.1,8.12,2,264.19,24 / 26,13736810,2020-01-08 16:04:20:404,2.0057,3.4961,8.5243,0.0558,0.0993,9.8059,0.1054,-0.0121,-0.2267,14.56,-34.62,10.69,97.47,-79.98,-155.41
52.202568,-2.202332,125.1,8.12,2,264.19,24 / 26,13736910,2020-01-08 16:04:20:504,-0.5942,0.4695,11.9496,0.0707,0.0445,9.8062,0.2713,0.0371,-0.0534,14.63,-35.19,9.81,99.63,-80.1,-156.05
52.202568,-2.202332,125.1,8.12,2,264.19,24 / 26,13737010,2020-01-08 16:04:20:604,1.6265,2.4437,10.3339,-0.0121,-0.0344,9.8065,-0.0712,-0.0782,0.0249,14.88,-34.94,9.5,99.22,-79.89,-156.92
52.202568,-2.202332,125.1,8.12,2,264.19,24 / 26,13737110,2020-01-08 16:04:20:704,0.6562,-0.5507,9.6322,-0.0171,-0.011,9.8065,-0.0237,-0.0301,-0.1942,15.06,-34.69,10,96.68,-79.82,-159.78
52.202568,-2.202332,125.1,8.12,2,264.19,24 / 26,13737210,2020-01-08 16:04:20:804,0.821,-0.5665,9.8914,0.0054,-0.0134,9.8066,0.0108,0.08,-0.1638,15.38,-34.56,9.44,97.17,-79.92,-162.42
52.202568,-2.202332,125.1,8.12,2,264.19,24 / 25,13737310,2020-01-08 16:04:20:904,1.7972,-2.569,9.0922,-0.0001,-0.0095,9.8065,-0.069,-0.0246,-0.0421,14.63,-34.87,9.5,91.86,-80.08,-164.26
52.202568,-2.202332,125.1,8.12,2,264.19,24 / 25,13737409,2020-01-08 16:04:21:003,1.2101,-1.3329,9.2047,-0.0134,0.0142,9.8065,-0.0839,0.1606,-0.1167,14.88,-34.19,9.44,94.53,-80.11,-164.19
52.202568,-2.202332,125.1,8.12,2,264.19,24 / 25,13737511,2020-01-08 16:04:21:105,0.8381,-1.9807,9.6233,0.0139,-0.0191,9.8066,-0.0778,0.1246,0.0389,13.75,-34.5,9.5,89.17,-80.31,-165.01
52.202568,-2.202332,125.1,8.12,2,264.19,24 / 25,13737609,2020-01-08 16:04:21:203,0.9395,-3.8115,10.7396,-0.0373,-0.0312,9.8065,-0.0785,-0.031,0.1212,14.94,-33.56,9.75,90.48,-80.38,-164.46
52.202568,-2.202332,125.1,8.12,2,264.19,24 / 25,13737710,2020-01-08 16:04:21:304,1.5687,-0.6657,9.4514,-0.0376,-0.0162,9.8065,-0.166,-0.0302,0.0874,14.13,-34.25,9.69,89.37,-80.09,-165.29
52.202568,-2.202332,125.1,8.12,2,264.19,24 / 25,13737810,2020-01-08 16:04:21:404,2.0552,-2.1172,9.8845,-0.0077,-0.0145,9.8065,-0.0233,0.157,0.0389,14.69,-33.69,9.19,94.16,-80.16,-164.46
52.202568,-2.202332,125.1,8.12,2,264.19,24 / 25,13737910,2020-01-08 16:04:21:504,2.4475,-1.7199,9.1841,0.0042,0.0018,9.8066,-0.0383,0.2693,-0.0623,14.38,-32.62,10.63,86.45,-80.15,-164.17
52.202568,-2.202332,125.1,8.12,2,264.19,24 / 25,13738010,2020-01-08 16:04:21:604,2.077,-0.4097,9.1316,-0.0372,0.0104,9.8065,-0.1001,0.0664,0.0345,14.44,-32.44,11.88,84.03,-79.98,-163.21
52.202568,-2.202332,125.1,8.12,2,264.19,24 / 25,13738110,2020-01-08 16:04:21:704,1.6675,0.285,9.9043,-0.0065,0.0189,9.8066,0.0681,0.1629,0.0381,15.38,-32.81,12.31,87.22,-79.98,-161.81
52.202568,-2.202332,125.1,8.12,2,264.19,24 / 25,13738210,2020-01-08 16:04:21:804,2.6043,-0.3571,9.9075,0.0103,-0.0042,9.8066,-0.1152,0.1735,-0.0572,15.13,-32.25,12.5,84.15,-79.93,-161.56
52.202568,-2.202332,125.1,8.12,2,264.19,24 / 24,13738310,2020-01-08 16:04:21:904,0.3562,-0.5991,9.8451,0.0007,-0.0099,9.8066,-0.0448,0.0899,0.0173,16.13,-32,11.63,87.36,-80.18,-161.87
52.202568,-2.202332,125.1,8.12,2,264.19,24 / 24,13738410,2020-01-08 16:04:22:004,1.8014,-0.102,9.3474,0.0012,0.0074,9.8066,0.0177,0.1493,0.0393,15.44,-31.94,11.56,86.73,-80.08,-161.56
52.202568,-2.202332,125.1,8.12,2,264.19,24 / 24,13738510,2020-01-08 16:04:22:104,1.0502,0.1284,9.7128,0.0078,0.0177,9.8066,0.0216,-0.0499,0.0244,14.75,-32.12,11.38,90.89,-80.09,-160.34
52.202568,-2.202332,125.1,8.12,2,264.19,24 / 24,13738610,2020-01-08 16:04:22:204,0.183,-0.8964,9.8179,-0.0007,0.0128,9.8066,0.0602,0.155,-0.0524,15.19,-31.44,11.94,88.76,-80.09,-158.97
52.202568,-2.202332,125.1,8.12,2,264.19,24 / 24,13738710,2020-01-08 16:04:22:304,0.0524,-0.2554,10.4353,-0.0027,-0.0035,9.8066,0.058,0.0588,-0.0475,14.88,-32.56,12.31,89.63,-79.96,-159.43
52.202568,-2.202332,125.1,8.12,2,264.19,24 / 24,13738810,2020-01-08 16:04:22:404,1.3351,0.708,9.8002,0.0015,-0.0006,9.8066,-0.0398,0.0484,-0.0065,14.88,-33.06,11.06,91.88,-80.09,-159.89
52.202568,-2.202332,125.1,8.12,2,264.19,24 / 24,13738910,2020-01-08 16:04:22:504,0.4617,-0.6283,9.5779,-0.0014,-0.0012,9.8066,0.077,0.0714,-0.117,13.63,-33.25,11.25,90.46,-80.1,-160.26
52.202568,-2.202332,125.1,8.12,2,264.19,24 / 24,13739010,2020-01-08 16:04:22:604,0.3578,0.5695,9.4501,-0.0001,0.0198,9.8065,0.067,0.102,-0.1294,14.19,-33.94,11.19,89.95,-80.07,-161.42
52.202568,-2.202332,125.1,8.12,2,264.19,24 / 24,13739109,2020-01-08 16:04:22:703,0.9518,-0.4581,10.5177,-0.0037,0.0045,9.8066,0.0192,0.0983,0.0367,13.88,-34.56,12.13,87.65,-79.98,-161.37
52.202568,-2.202332,125.1,8.12,2,264.19,24 / 24,13739210,2020-01-08 16:04:22:804,-1.6849,1.5517,10.4081,0.0129,0.0142,9.8066,0.1454,-0.061,0.0445,13.81,-34.19,12,87.83,-79.96,-160.65
52.202568,-2.202332,125.1,8.12,2,264.19,23 / 23,13739310,2020-01-08 16:04:22:904,-0.3672,-0.7369,10.3394,-0.015,-0.0052,9.8066,0.0839,-0.0613,-0.0391,14.31,-34.56,11.81,88.79,-79.85,-160.5
52.202568,-2.202332,125.1,8.12,2,264.19,23 / 23,13739409,2020-01-08 16:04:23:003,-1.873,0.9667,9.1548,-0.0279,-0.005,9.8066,0.0091,-0.2103,0.1998,13.06,-33.94,11.44,90.71,-79.75,-160.21
52.202568,-2.202332,125.1,8.12,2,264.19,23 / 23,13739510,2020-01-08 16:04:23:104,-1.9696,1.8375,9.845,-0.0202,0.012,9.8066,0.1121,-0.3116,-0.0377,13.56,-34.12,11.25,92.42,-79.8,-159.46
52.202568,-2.202332,125.1,8.12,2,264.19,23 / 23,13739610,2020-01-08 16:04:23:204,-0.1052,1.6619,6.429,-0.0191,0.0029,9.8066,-0.3672,-0.36,0.0083,12.88,-33.81,10.75,93.07,-79.65,-158
52.202568,-2.202332,125.1,8.12,2,264.19,23 / 23,13739710,2020-01-08 16:04:23:304,-1.9145,6.115,9.9174,0.0733,0.0797,9.806,-0.2495,-0.6404,0.5027,12.81,-33.69,10.19,94.67,-79.72,-159.69
52.202568,-2.202332,125.1,8.12,2,264.19,23 / 23,13739810,2020-01-08 16:04:23:404,-1.6275,-2.9413,12.7266,0.0239,0.0604,9.8064,-0.1586,-0.4313,0.2758,13.56,-32.69,10.06,95.21,-80.16,-158.51
52.202568,-2.202332,125.1,8.12,2,264.19,23 / 23,13739910,2020-01-08 16:04:23:504,0.0936,2.471,10.1128,0.0027,0.0263,9.8065,-0.1683,-0.7187,0.2925,14.06,-32.94,10.38,94.87,-80.09,-159.04
52.202568,-2.202332,125.1,8.12,2,264.19,23 / 23,13740010,2020-01-08 16:04:23:604,0.006,-3.2142,8.8157,-0.0552,0.0526,9.8063,-0.0497,-0.673,0.4007,15.06,-33.87,9.44,99.18,-79.48,-160.56
52.202568,-2.202332,125.1,8.12,2,264.19,23 / 23,13740110,2020-01-08 16:04:23:704,-1.7631,5.7729,10.3915,-0.0131,0.0654,9.8064,0.0877,-0.6237,0.3356,15.44,-33.75,10.13,92.34,-79.49,-164.4
52.202568,-2.202332,125.1,8.12,2,264.19,23 / 23,13740210,2020-01-08 16:04:23:804,3.269,1.077,7.743,-0.0229,0.0213,9.8065,-0.2458,-0.5653,0.4217,15.25,-34.75,10.19,92.75,-79.59,-164.39
52.202568,-2.202332,125.1,8.12,2,264.19,23 / 23,13740310,2020-01-08 16:04:23:904,1.4067,2.6753,9.2456,0.0308,0.0525,9.8064,-0.0551,-0.4896,0.1599,14.81,-34.87,10.19,91.05,-80.01,-165.23
52.202568,-2.202332,125.1,8.12,2,264.19,23 / 23,13740409,2020-01-08 16:04:24:003,2.1286,-2.0416,10.0496,0.0106,0.0268,9.8066,-0.0411,0.0356,0.0065,14.88,-34.69,9.44,95.47,-80.27,-163.47
52.202568,-2.202332,125.1,8.12,2,264.19,23 / 23,13740510,2020-01-08 16:04:24:104,-0.7111,-0.4134,10.4195,-0.01,-0.0109,9.8066,0.0339,-0.0373,0.0184,14.94,-35.06,9.88,91.18,-80.3,-164.48
52.202568,-2.202332,125.1,8.12,2,264.19,23 / 23,13740610,2020-01-08 16:04:24:204,-0.2279,-1.9366,9.0862,-0.0124,-0.0008,9.8065,-0.0885,0.0853,0.0097,14.88,-35.25,10,91.05,-80.27,-164.68
52.202568,-2.202332,125.1,8.12,2,264.19,23 / 23,13740710,2020-01-08 16:04:24:304,1.8763,-0.0865,8.6255,0.041,0.0174,9.8065,-0.0478,-0.0135,0.0579,15.25,-34.75,9.38,93.48,-80.22,-165.65
52.202568,-2.202332,125.1,8.12,2,264.19,23 / 23,13740810,2020-01-08 16:04:24:404,0.7844,-2.1612,9.7356,0.0059,0.009,9.8066,-0.1292,0.1439,0.0399,14.56,-35.19,10.13,89.52,-80.4,-165.97
52.202568,-2.202332,125.1,8.12,2,264.19,23 / 23,13740910,2020-01-08 16:04:24:504,1.5431,-1.8173,9.8183,0.012,0.002,9.8066,-0.0141,0.1011,-0.0002,15.63,-35.06,10.19,88.9,-80.38,-167.44
52.202568,-2.202332,125.1,8.12,2,264.19,23 / 23,13741009,2020-01-08 16:04:24:603,0.7117,-2.489,9.2887,-0.0274,-0.006,9.8066,-0.035,0.0933,0.1168,14.88,-35.12,10.19,87.97,-80.27,-167.8
52.202568,-2.202332,125.1,8.12,2,264.19,23 / 23,13741110,2020-01-08 16:04:24:704,0.1155,-2.7397,11.4443,0.0065,0.0259,9.8065,0.0743,0.1861,-0.0298,15.06,-35.25,10.38,89.44,-80.3,-166.26
52.202568,-2.202332,125.1,8.12,2,264.19,23 / 23,13741210,2020-01-08 16:04:24:804,1.0565,-1.0705,9.3789,-0.0011,-0.0044,9.8066,-0.1111,0.0548,0.0495,14.19,-34.87,11.06,85.48,-80.28,-166.03
52.202568,-2.202332,125.1,8.12,2,264.19,23 / 24,13741309,2020-01-08 16:04:24:903,1.4551,0.2547,9.3839,0.0173,0.0358,9.8065,-0.0197,0.1766,0.0228,14.69,-34.25,11.13,86.02,-80.34,-165.86
52.202568,-2.202332,125.1,8.12,2,264.19,23 / 24,13741410,2020-01-08 16:04:25:004,0.2294,1.385,10.4476,0.003,-0.0038,9.8066,0.0748,0.0683,0.0986,14.69,-34.56,11.06,87.29,-80.56,-164.71
52.202568,-2.202332,125.1,8.12,2,264.19,23 / 24,13741510,2020-01-08 16:04:25:104,2.4979,-0.1886,9.9439,-0.0167,-0.0108,9.8066,0.0776,0.1781,-0.1635,14.06,-34.44,11.44,86.87,-80.61,-163.4
52.202568,-2.202332,125.1,8.12,2,264.19,23 / 24,13741610,2020-01-08 16:04:25:204,-0.1871,-0.8434,8.8472,-0.042,-0.0144,9.8065,-0.0056,-0.242,0.2127,14.5,-34.62,11.56,86.36,-80.3,-163.14
52.202568,-2.202332,125.1,8.12,2,264.19,23 / 24,13741710,2020-01-08 16:04:25:304,0.5022,-3.8664,12.0695,-0.044,0.0579,9.8064,0.2895,0.0111,0.0022,13.81,-34,11.81,86.7,-80.24,-161.2
52.202568,-2.202332,125.1,8.12,2,264.19,23 / 24,13741810,2020-01-08 16:04:25:404,1.8405,-0.4236,7.6434,-0.06,-0.0602,9.8063,-0.3101,-0.5794,0.4171,14.13,-33.87,11.75,84.93,-80.12,-163.2
52.202568,-2.202332,125.1,8.12,2,264.19,23 / 24,13741910,2020-01-08 16:04:25:504,0.7076,3.8283,8.5227,0.0324,0.1017,9.806,0.0685,-0.2101,0.1341,13.63,-33.37,11.88,83.06,-80.21,-164.28
52.202568,-2.202332,125.1,8.12,2,264.19,23 / 24,13742010,2020-01-08 16:04:25:604,-0.5871,4.8718,8.7659,0.0021,-0.0147,9.8066,-0.2706,-0.4045,0.3499,14.06,-33.94,11.88,85.2,-80.4,-162.37
52.202568,-2.202332,125.1,8.12,2,264.19,23 / 24,13742110,2020-01-08 16:04:25:704,1.8157,0.4656,8.4449,0.0223,0.0741,9.8063,-0.1224,0.0779,0.0383,14.06,-33.87,11.06,88.78,-80.17,-162.39
52.202568,-2.202332,125.1,8.12,2,264.19,23 / 24,13742210,2020-01-08 16:04:25:804,2.4081,-4.7584,10.0518,0.0421,0.0089,9.8065,-0.1299,-0.8947,0.5263,13.56,-33.87,11.56,86.45,-80.28,-161.37
52.202568,-2.202332,125.1,8.12,2,264.19,23 / 26,13742310,2020-01-08 16:04:25:904,0.6192,-0.0006,9.3589,-0.0116,0.0728,9.8064,-0.1331,-0.6426,0.3034,13.94,-34.06,10.94,91.45,-80.25,-159.53
52.202568,-2.202332,125.1,8.12,2,264.19,23 / 26,13742409,2020-01-08 16:04:26:003,2.159,-3.8818,10.0544,-0.004,0.0608,9.8064,-0.051,-0.679,0.3304,12.56,-33.56,11.19,89.86,-80.25,-159.97
52.202568,-2.202332,125.1,8.12,2,264.19,23 / 26,13742510,2020-01-08 16:04:26:104,-0.9894,4.4619,10.0394,-0.0121,0.057,9.8065,-0.052,-0.6256,0.3538,13,-33.56,10.19,90.19,-80.34,-162.9
52.202568,-2.202332,125.1,8.12,2,264.19,23 / 26,13742610,2020-01-08 16:04:26:204,1.8358,-2.4985,9.777,-0.0099,0.0192,9.8066,0.0068,-0.2352,-0.0424,13.81,-32.56,10.19,90.74,-80.31,-162.82
52.202568,-2.202332,125.1,8.12,2,264.19,23 / 26,13742709,2020-01-08 16:04:26:303,1.5713,3.605,9.8044,-0.0305,-0.0071,9.8065,0.0871,-0.4709,0.2422,13.69,-33.06,10.38,89.03,-80.29,-164.61
52.202568,-2.202332,125.1,8.12,2,264.19,23 / 26,13742810,2020-01-08 16:04:26:404,1.104,-1.1049,9.1825,-0.0157,0.0339,9.8065,0.082,0.1506,-0.097,14.94,-31.87,9.56,89.03,-80.15,-165.25
52.202568,-2.202332,125.1,8.12,2,264.19,23 / 26,13742910,2020-01-08 16:04:26:504,-0.5599,4.462,9.8775,0.009,-0.024,9.8066,-0.0314,-0.4217,0.1777,14.63,-31.75,8.63,91.03,-80.29,-166.24
52.202568,-2.202332,125.1,8.12,2,264.19,23 / 26,13743010,2020-01-08 16:04:26:604,0.4165,-2.6664,9.6198,-0.007,0.0524,9.8065,0.0684,0.5436,-0.1737,15.25,-32.12,9,92.88,-80.33,-164.25
52.202568,-2.202332,125.1,8.12,2,264.19,23 / 26,13743110,2020-01-08 16:04:26:704,0.9712,-4.313,9.8899,0.0003,-0.0541,9.8065,0.0466,0.0589,-0.1013,14.75,-31.25,10,89.57,-80.45,-163.57
52.202568,-2.202332,125.1,8.12,2,264.19,23 / 26,13743210,2020-01-08 16:04:26:804,1.8352,-1.677,7.6907,-0.0236,-0.026,9.8066,-0.1107,0.2102,-0.1714,14.13,-30.56,10.5,83.55,-80.42,-165.35
52.202457,-2.203383,129.01,7.43,3,260.74,23 / 23,13743312,2020-01-08 16:04:26:906,1.3588,-2.9717,10.0611,0.0211,0.0239,9.8066,0.0631,0.2948,-0.0113,14.81,-30.44,11.38,82.13,-80.71,-166.86
52.202457,-2.203383,129.01,7.43,3,260.74,23 / 23,13743409,2020-01-08 16:04:27:003,1.0177,0.6722,9.6509,0.0256,-0.0222,9.8066,-0.0744,0.0555,0.0799,14.75,-29.69,12.5,75.43,-80.97,-167.26
52.202457,-2.203383,129.01,7.43,3,260.74,23 / 23,13743510,2020-01-08 16:04:27:104,1.3151,-5.3121,11.1192,-0.0156,0.0157,9.8066,0.2273,0.4152,-0.1659,15.81,-30.12,12.81,78.85,-81,-165.25
52.202457,-2.203383,129.01,7.43,3,260.74,23 / 23,13743610,2020-01-08 16:04:27:204,-0.1518,3.8195,9.7958,-0.0134,-0.0473,9.8065,0.0152,0.0547,0.2802,15.94,-30.19,12.31,81.15,-81.02,-165.63
52.202457,-2.203383,129.01,7.43,3,260.74,23 / 23,13743710,2020-01-08 16:04:27:304,0.1805,-1.0446,10.7377,-0.0173,-0.0126,9.8065,0.0454,0.3975,-0.4164,16.25,-30.62,12.13,84.42,-81.14,-162.68
52.202457,-2.203383,129.01,7.43,3,260.74,23 / 23,13743810,2020-01-08 16:04:27:404,-0.4503,4.1553,9.5684,0.0034,-0.036,9.8065,0.0904,-0.4984,0.1457,16.63,-31,10.75,89.91,-81.11,-161.05
52.202457,-2.203383,129.01,7.43,3,260.74,23 / 23,13743910,2020-01-08 16:04:27:504,-0.8649,-0.729,10.8966,-0.0384,0.0523,9.8064,0.0883,0.125,0.1125,15.5,-32.06,10.5,89.46,-81.26,-160.72
52.202457,-2.203383,129.01,7.43,3,260.74,23 / 23,13744009,2020-01-08 16:04:27:603,1.5148,-2.4534,8.1153,-0.0149,-0.0531,9.8064,0.1384,-0.4999,0.4083,16.31,-32.25,10,91.51,-81.27,-161.55
52.202457,-2.203383,129.01,7.43,3,260.74,23 / 23,13744110,2020-01-08 16:04:27:704,0.3682,-2.4163,10.7195,-0.0248,0.0072,9.8065,0.146,-0.1407,-0.2016,16.88,-31.37,9.5,92.92,-81.2,-160.63
52.202457,-2.203383,129.01,7.43,3,260.74,23 / 23,13744210,2020-01-08 16:04:27:804,0.7724,-0.7167,8.0279,-0.0546,-0.0204,9.8064,-0.1051,-0.3262,0.1404,15.94,-31.81,8.06,98.63,-81.09,-160.8
52.202457,-2.203383,129.01,7.43,3,260.74,23 / 23,13744310,2020-01-08 16:04:27:904,0.101,2.7736,9.4552,0.0042,0.0535,9.8064,0.1012,-0.2143,0.1793,16.13,-31.31,8.25,96.62,-81.16,-162.25
52.202457,-2.203383,129.01,7.43,3,260.74,23 / 23,13744410,2020-01-08 16:04:28:004,-0.5325,0.9876,8.3335,-0.005,-0.0077,9.8066,-0.2098,-0.2603,0.2403,14.75,-31,8.5,93.43,-81.27,-161.33
52.202457,-2.203383,129.01,7.43,3,260.74,23 / 23,13744510,2020-01-08 16:04:28:104,0.0691,-0.2651,9.982,0.048,0.0219,9.8064,-0.0736,-0.0794,0.0121,14.56,-31.19,7.94,97.6,-81.5,-159.92
52.202457,-2.203383,129.01,7.43,3,260.74,23 / 23,13744610,2020-01-08 16:04:28:204,-1.2966,-2.5568,10.5876,0.0136,-0.0206,9.8066,-0.0995,-0.2253,0.1985,14.94,-31.87,8.06,97.23,-81.91,-160.01
52.202457,-2.203383,129.01,7.43,3,260.74,23 / 23,13744710,2020-01-08 16:04:28:304,-1.7393,-4.5826,12.366,-0.0232,0.033,9.8065,0.2014,0.0025,0.0225,15.5,-32.25,9.56,92.44,-81.69,-159.86
52.202457,-2.203383,129.01,7.43,3,260.74,23 / 23,13744810,2020-01-08 16:04:28:404,-0.3069,0.4535,10.0727,-0.0578,-0.0289,9.8064,-0.2537,-0.2186,0.1754,15.44,-33.12,9.69,90.81,-81.26,-161.82
52.202457,-2.203383,129.01,7.43,3,260.74,23 / 23,13744910,2020-01-08 16:04:28:504,0.2441,0.8565,6.7071,0.0461,0.0499,9.8064,-0.1391,0.2743,-0.0131,14.44,-33.12,10.56,85.94,-80.98,-163.03
52.202457,-2.203383,129.01,7.43,3,260.74,23 / 23,13745010,2020-01-08 16:04:28:604,1.2079,0.8755,8.0011,0.0126,-0.0249,9.8066,-0.5397,-0.2763,0.3154,14.44,-33.12,10.31,87.97,-81,-164.18
52.202457,-2.203383,129.01,7.43,3,260.74,23 / 23,13745110,2020-01-08 16:04:28:704,0.6693,-1.4674,6.1654,0.1114,0.118,9.8052,-0.5204,0.1748,0.1633,15,-32,10.25,87.96,-80.82,-165.04
52.202457,-2.203383,129.01,7.43,3,260.74,23 / 23,13745211,2020-01-08 16:04:28:805,-0.4664,1.048,8.6953,0.101,0.0371,9.806,0.2067,0.1526,0.1304,14.44,-31.5,10.38,86.45,-81.42,-160.64
52.202457,-2.203383,129.01,7.43,3,260.74,23 / 23,13745310,2020-01-08 16:04:28:904,-4.6998,-4.6876,9.5021,-0.0375,-0.0303,9.8065,-0.0409,0.4838,-0.4207,14.63,-30.56,9.13,95.54,-80.9,-159.83
52.202457,-2.203383,129.01,7.43,3,260.74,23 / 23,13745410,2020-01-08 16:04:29:004,-0.3078,3.4379,10.3904,0.0535,-0.0251,9.8065,0.0029,-0.0391,0.1019,14,-30.62,8.75,96.05,-81.08,-158.04
52.202457,-2.203383,129.01,7.43,3,260.74,23 / 23,13745510,2020-01-08 16:04:29:104,-0.2022,-0.79,10.5908,-0.0059,0.0228,9.8065,-0.0548,0.3575,-0.1929,13.5,-31.44,8.56,97.4,-81.53,-155.75
52.202457,-2.203383,129.01,7.43,3,260.74,23 / 23,13745610,2020-01-08 16:04:29:204,-0.6651,3.7654,11.2015,0.0217,-0.0468,9.8064,0.1853,-0.0243,-0.0986,13.06,-31.5,9.5,94.68,-81.51,-154.02
52.202457,-2.203383,129.01,7.43,3,260.74,23 / 23,13745709,2020-01-08 16:04:29:303,-0.0549,-2.4511,11.1407,-0.0391,-0.0509,9.8064,0.1651,0.3608,-0.272,12.81,-31.31,11.5,91.43,-81.36,-151.28
52.202457,-2.203383,129.01,7.43,3,260.74,23 / 23,13745810,2020-01-08 16:04:29:404,-0.0999,3.4085,7.0981,-0.0131,-0.0715,9.8064,0.2722,-0.0944,0.0031,13.69,-31.56,11.13,93.85,-81.11,-154.23
52.202457,-2.203383,129.01,7.43,3,260.74,23 / 23,13745909,2020-01-08 16:04:29:503,-2.0856,2.3559,11.0503,-0.03,-0.0801,9.8062,0.2689,-0.1771,-0.3116,13.94,-32.25,10.19,96.11,-80.93,-155.46
52.202457,-2.203383,129.01,7.43,3,260.74,23 / 23,13746010,2020-01-08 16:04:29:604,-0.6391,4.0598,8.6023,-0.0534,-0.0275,9.8064,-0.3158,-0.0117,-0.0851,13.75,-33.69,8.44,106.04,-80.87,-153.01
52.202457,-2.203383,129.01,7.43,3,260.74,23 / 23,13746110,2020-01-08 16:04:29:704,1.3806,2.4734,9.4459,0.0576,0.0155,9.8064,0.0247,0.0559,-0.0345,13.5,-34.19,7.5,106.01,-81.18,-152.38
52.202457,-2.203383,129.01,7.43,3,260.74,23 / 23,13746209,2020-01-08 16:04:29:803,0.869,5.0143,9.2078,0.0187,-0.0785,9.8063,-0.1175,-0.3851,0.1886,14,-34.87,6.38,109.96,-81.79,-154.79
52.202457,-2.203383,129.01,7.43,3,260.74,23 / 24,13746310,2020-01-08 16:04:29:904,0.4623,-0.368,10.57,-0.0011,-0.0031,9.8066,0.1068,-0.1517,-0.1122,14.31,-34.87,6.31,108.85,-81.75,-156.13
52.202457,-2.203383,129.01,7.43,3,260.74,23 / 24,13746409,2020-01-08 16:04:30:003,0.5208,-4.2197,10.1032,-0.0112,-0.0161,9.8066,-0.1258,-0.555,0.3999,14,-35.19,6.5,102.91,-81.77,-158.77
52.202457,-2.203383,129.01,7.43,3,260.74,23 / 24,13746510,2020-01-08 16:04:30:104,1.0141,-3.6201,9.1974,0.0274,0.0568,9.8064,-0.1273,-0.2237,0.0411,14.81,-36.06,5.75,106.87,-82,-158.59
52.202457,-2.203383,129.01,7.43,3,260.74,23 / 24,13746610,2020-01-08 16:04:30:204,0.983,-1.5596,10.675,0.0419,-0.0071,9.8065,0.0694,-0.5352,0.2158,14,-35.19,5.69,104.05,-82.29,-160.19
52.202457,-2.203383,129.01,7.43,3,260.74,23 / 24,13746709,2020-01-08 16:04:30:303,-0.05,3.7156,11.2317,-0.0449,0.0377,9.8065,0.0298,-0.2581,0.1812,14.75,-35.25,6.31,102.64,-82.39,-161.84
52.202457,-2.203383,129.01,7.43,3,260.74,23 / 24,13746809,2020-01-08 16:04:30:403,0.3197,-2.5368,9.8175,-0.0127,0.0133,9.8066,0.1229,-0.2237,0.1517,14.56,-35.12,6.19,101.58,-82.25,-163.29
52.202457,-2.203383,129.01,7.43,3,260.74,23 / 24,13746910,2020-01-08 16:04:30:504,0.9457,0.3497,10.5313,-0.0276,0.0087,9.8066,0.1215,-0.219,0.1263,14.69,-35,6.63,94.84,-82.42,-166.39
52.202457,-2.203383,129.01,7.43,3,260.74,23 / 24,13747010,2020-01-08 16:04:30:604,1.1208,-3.351,9.1856,-0.028,0.003,9.8065,-0.0903,0.2223,-0.0343,15.06,-35.37,7.44,93.54,-82.3,-167.99
52.202457,-2.203383,129.01,7.43,3,260.74,23 / 24,13747110,2020-01-08 16:04:30:704,0.3464,-2.3706,10.354,0.0301,0.0008,9.8065,0.0206,0.1857,-0.0211,14.69,-34.75,7.31,91.27,-82.81,-169.18
52.202457,-2.203383,129.01,7.43,3,260.74,23 / 24,13747210,2020-01-08 16:04:30:804,2.0238,-2.2499,9.0814,0.0079,-0.0056,9.8066,-0.1288,0.2845,-0.0118,15.25,-34.44,7.38,89.57,-82.94,-170.14
52.202457,-2.203383,129.01,7.43,3,260.74,24 / 24,13747311,2020-01-08 16:04:30:905,1.5975,-2.8797,9.1683,0.0304,0.0164,9.8066,-0.021,0.2897,-0.0346,14.56,-34.75,8.31,85.29,-83.1,-171.05
52.202457,-2.203383,129.01,7.43,3,260.74,24 / 24,13747410,2020-01-08 16:04:31:004,1.9821,-3.228,9.1052,0.0163,-0.001,9.8066,-0.094,0.4303,-0.0855,15.56,-34.69,8.88,82.84,-83.48,-170.34
52.202457,-2.203383,129.01,7.43,3,260.74,24 / 24,13747509,2020-01-08 16:04:31:103,1.5868,-2.9872,9.9179,0.0133,-0.0103,9.8066,0.0001,0.42,-0.087,14.81,-34.06,8.94,83.58,-83.63,-167.95
52.202457,-2.203383,129.01,7.43,3,260.74,24 / 24,13747610,2020-01-08 16:04:31:204,0.9678,-0.9886,9.0674,0.0069,-0.0057,9.8066,0.0175,0.4214,-0.1233,14.88,-34.5,9.63,80.73,-83.85,-167.21
52.202457,-2.203383,129.01,7.43,3,260.74,24 / 24,13747709,2020-01-08 16:04:31:303,0.5636,-1.2521,9.878,0.0138,-0.0072,9.8066,0.0506,0.2807,-0.0032,15.19,-34,9.88,81.98,-84.06,-165.57
52.202457,-2.203383,129.01,7.43,3,260.74,24 / 24,13747809,2020-01-08 16:04:31:403,1.3946,-1.5136,8.9825,-0.0076,0.0159,9.8066,-0.0372,0.3348,-0.0203,14.94,-34.44,10,84.13,-84.14,-163.31
52.202457,-2.203383,129.01,7.43,3,260.74,24 / 24,13747910,2020-01-08 16:04:31:504,0.9502,-1.6369,9.5559,0.0114,0.026,9.8066,0.0119,0.1504,0.0847,15.06,-34.44,10.06,89.76,-84.29,-157.41
52.202457,-2.203383,129.01,7.43,3,260.74,24 / 24,13748010,2020-01-08 16:04:31:604,0.4553,0.8943,9.0486,-0.0105,0.0364,9.8065,-0.115,0.1558,0.0817,13.81,-35.37,10.5,90.57,-84.23,-152.73
52.202457,-2.203383,129.01,7.43,3,260.74,24 / 24,13748109,2020-01-08 16:04:31:703,0.0185,0.5847,9.8658,0.0089,0.0395,9.8065,-0.0238,0.0562,0.0646,14,-35.62,10.38,97.83,-84.19,-148.77
52.202457,-2.203383,129.01,7.43,3,260.74,24 / 24,13748209,2020-01-08 16:04:31:803,-0.1597,0.0508,10.2802,-0.0099,0.026,9.8066,-0.0862,-0.0961,0.0956,13.94,-35,10.25,102.43,-84.04,-143.93
52.202457,-2.203383,129.01,7.43,3,260.74,24 / 24,13748310,2020-01-08 16:04:31:904,-0.1207,1.3954,9.3151,0.0046,-0.0033,9.8066,-0.191,-0.1405,0.0809,12.88,-35.19,10.38,101.72,-84,-143.33
52.202457,-2.203383,129.01,7.43,3,260.74,23 / 23,13748410,2020-01-08 16:04:32:004,-1.1965,1.2927,10.7209,-0.0096,0.0064,9.8066,-0.0812,-0.1276,0.0531,13.63,-35.31,10,105.97,-84.09,-140.09
52.202457,-2.203383,129.01,7.43,3,260.74,23 / 23,13748510,2020-01-08 16:04:32:104,-1.1184,1.2751,9.6146,-0.0163,0.0004,9.8066,-0.074,-0.1277,0.0398,13.06,-35.81,9.69,106.59,-84.03,-138.46
52.202457,-2.203383,129.01,7.43,3,260.74,23 / 23,13748609,2020-01-08 16:04:32:203,0.7385,0.4915,9.8625,-0.0228,0.0227,9.8065,-0.0653,-0.0715,-0.1909,13.69,-35.69,9.13,112.61,-83.83,-137
