GPS LATITUDE (degrees), GPS LONGITUDE (degrees), GPS ALTITUDE (m), GPS SPEED (Kmh), GPS ACCURACY (m), GPS ORIENTATION (Â°),GPS SATELLITES IN RANGE, TIME SINCE START (ms), DATE (YYYY-MO-DD HH-MI-SS_SSS), ACCELEROMETER X (m/s²) , ACCELEROMETER Y (m/s²), ACCELEROMETER Z (m/s²), GRAVITY X (m/s²), GRAVITY Y (m/s²), GRAVITY Z (m/s²), GYROSCOPE Yaw (rad/s), GYROSCOPE Pitch (rad/s), GYROSCOPE Roll (rad/s), MAGNETIC FIELD X (Î¼T), MAGNETIC FIELD Y (Î¼T), MAGNETIC FIELD Z (Î¼T), ORIENTATION (Yaw) (Â°), ORIENTATION (Pitch) (Â°), ORIENTATION (Roll ) (Â°)
52.201836,-2.201769,131.48,3.89,2,90.45,23 / 23,13938310,2020-01-08 16:07:41:904,0.064,1.2419,9.2444,0.0154,0.0325,9.8065,-0.0342,-0.2439,0.1678,-18.56,-36.5,4.19,292.63,-89.15,-167.8
52.201836,-2.201769,131.48,3.89,2,90.45,23 / 23,13938410,2020-01-08 16:07:42:004,0.0569,-2.9698,9.9913,0.024,0.0394,9.8065,0.0101,-0.4286,0.2517,-19.56,-36.56,4.31,288.91,-89.03,-170.74
52.201836,-2.201769,131.48,3.89,2,90.45,23 / 23,13938510,2020-01-08 16:07:42:104,0.6111,0.3082,10.5127,0.0132,0.0164,9.8066,0.0033,-0.0586,0.0544,-18.37,-36.87,3.94,291.67,-88.93,-168.87
52.201836,-2.201769,131.48,3.89,2,90.45,23 / 23,13938610,2020-01-08 16:07:42:204,-1.072,-1.0043,9.2935,0.0376,0.0226,9.8065,-0.0582,-0.2647,0.0106,-18.25,-35.81,4.5,290.53,-88.85,-172.91
52.201836,-2.201769,131.48,3.89,2,90.45,23 / 23,13938710,2020-01-08 16:07:42:304,0.467,-0.712,10.57,0.0001,-0.0296,9.8066,-0.06,0.1594,-0.1697,-19.69,-35.37,4.75,288.35,-89,-174.07
52.201836,-2.201769,131.48,3.89,2,90.45,23 / 23,13938809,2020-01-08 16:07:42:403,-0.1956,-2.5226,9.3292,0.022,0.0349,9.8066,-0.0713,-0.0974,0.1597,-19.06,-35.5,4.38,293.08,-89.05,-167.23
52.201836,-2.201769,131.48,3.89,2,90.45,23 / 23,13938910,2020-01-08 16:07:42:504,0.6237,-0.1828,10.1438,-0.0049,-0.0359,9.8066,-0.0059,0.1835,-0.1147,-18.81,-36.12,4.88,310.22,-89.08,-153.24
52.201836,-2.201769,131.48,3.89,2,90.45,23 / 23,13939011,2020-01-08 16:07:42:605,0.9631,1.3285,8.9846,0.0114,0.0016,9.8066,-0.0644,-0.0626,0.0565,-18.69,-35.12,4.19,316.51,-89,-144.14
52.201836,-2.201769,131.48,3.89,2,90.45,23 / 23,13939109,2020-01-08 16:07:42:703,0.9034,1.1191,9.9183,-0.0025,-0.0381,9.8066,-0.0248,0.1455,-0.0357,-19.37,-35,4.56,337.1,-88.77,-126.79
52.201836,-2.201769,131.48,3.89,2,90.45,23 / 23,13939210,2020-01-08 16:07:42:804,-0.6591,0.3872,9.6111,0.0118,-0.0003,9.8066,-0.0565,-0.0149,-0.0088,-20.19,-35.25,4.5,339.88,-88.72,-123.41
52.201836,-2.201769,131.48,3.89,2,90.45,23 / 23,13939310,2020-01-08 16:07:42:904,0.5483,-0.8265,10.1632,-0.0005,-0.0185,9.8066,-0.0286,0.0385,-0.0672,-19.56,-35,4.63,346.07,-88.66,-117.41
52.201836,-2.201769,131.48,3.89,2,90.45,23 / 23,13939410,2020-01-08 16:07:43:004,0.7506,-0.1011,8.1519,-0.0057,0.0277,9.8066,-0.043,-0.0119,0.0733,-18.87,-35.06,3.63,348.22,-88.7,-113.19
52.201836,-2.201769,131.48,3.89,2,90.45,23 / 23,13939510,2020-01-08 16:07:43:104,1.1884,1.3127,9.5734,-0.0546,-0.0169,9.8064,0.0157,0.0605,0.023,-20,-34.87,3.5,356.34,-88.61,-104.82
52.201836,-2.201769,131.48,3.89,2,90.45,23 / 23,13939610,2020-01-08 16:07:43:204,-0.1039,-2.3097,10.5122,-0.0294,-0.0381,9.8065,-0.0753,-0.0703,0.1178,-20.19,-34.81,4.13,18.05,-88.09,-84.28
52.201836,-2.201769,131.48,3.89,2,90.45,23 / 23,13939709,2020-01-08 16:07:43:303,-1.5682,-2.7794,12.0219,-0.002,-0.011,9.8066,0.068,0.4286,-0.2767,-19.87,-34.69,3.31,21.76,-87.88,-78.14
52.201836,-2.201769,131.48,3.89,2,90.45,23 / 23,13939810,2020-01-08 16:07:43:404,-1.6643,-2.6769,10.6104,0.0533,0.0284,9.8064,-0.0364,0.0372,-0.189,-19.44,-34.87,2.88,14.7,-88.47,-84.98
52.201836,-2.201769,131.48,3.89,2,90.45,23 / 23,13939910,2020-01-08 16:07:43:504,1.1128,1.9923,9.6948,0.0169,-0.0695,9.8064,0.1252,0.4399,-0.3131,-18.87,-34.19,3.25,356.82,-88.94,-102.04
52.201836,-2.201769,131.48,3.89,2,90.45,23 / 23,13940010,2020-01-08 16:07:43:604,1.2523,2.945,9.1146,0.0559,-0.0154,9.8064,0.1669,0.0697,0.1174,-19.5,-34.69,3.88,337.4,-88.24,-123.27
52.201836,-2.201769,131.48,3.89,2,90.45,23 / 23,13940110,2020-01-08 16:07:43:704,1.0346,-0.2721,9.5119,0.0565,-0.0975,9.8059,0.1737,0.2198,-0.1151,-20.5,-34.19,4.31,327.73,-87.5,-131.33
52.201836,-2.201769,131.48,3.89,2,90.45,23 / 23,13940210,2020-01-08 16:07:43:804,0.0053,-1.9626,9.4118,0.0483,-0.0013,9.8065,0.0576,0.0018,-0.1644,-19.81,-34.06,5,321.61,-86.51,-138.8
52.201836,-2.201769,131.48,3.89,2,90.45,23 / 23,13940309,2020-01-08 16:07:43:903,-0.4739,-2.5457,11.1182,0.0019,0.0018,9.8065,0.0172,0.4594,-0.474,-19,-34.56,5.38,310.03,-86.63,-150.06
52.201836,-2.201769,131.48,3.89,2,90.45,23 / 23,13940410,2020-01-08 16:07:44:004,-0.1077,0.1041,9.7699,0.0146,0.0698,9.8063,-0.0253,0.0556,0.0044,-19.62,-35.12,4.38,294.5,-87.11,-162.27
52.201836,-2.201769,131.48,3.89,2,90.45,23 / 23,13940509,2020-01-08 16:07:44:103,-0.6843,1.2321,10.0567,-0.0393,-0.0451,9.8064,0.0976,0.4839,-0.1346,-19.25,-35.06,4.25,294.8,-87.28,-162.6
52.201836,-2.201769,131.48,3.89,2,90.45,23 / 23,13940610,2020-01-08 16:07:44:204,0.4738,4.5402,10.0262,-0.0111,-0.0525,9.8064,0.0739,0.2371,-0.1661,-19.06,-34.87,3.5,307.05,-87.21,-150.78
52.201836,-2.201769,131.48,3.89,2,90.45,23 / 23,13940710,2020-01-08 16:07:44:304,0.481,1.2561,9.3849,-0.0085,-0.076,9.8063,0.0876,0.5136,-0.3029,-20.06,-35.19,4,304.62,-87,-152.41
52.201836,-2.201769,131.48,3.89,2,90.45,23 / 23,13940809,2020-01-08 16:07:44:403,1.4573,2.6221,9.7357,0.0078,-0.02,9.8066,0.0385,0.4374,-0.1931,-20,-35.44,4.5,309.17,-86.74,-150.52
52.201836,-2.201769,131.48,3.89,2,90.45,23 / 23,13940909,2020-01-08 16:07:44:503,0.5302,-1.9864,9.3869,-0.0004,-0.004,9.8066,0.0485,0.2542,-0.0988,-19.62,-35.37,3.44,298.75,-86.76,-154.81
52.201836,-2.201769,131.48,3.89,2,90.45,23 / 23,13941010,2020-01-08 16:07:44:604,0.7141,3.0391,10.5104,-0.0176,-0.0383,9.8065,0.0752,0.4508,-0.3246,-18.87,-34.81,3.31,295.03,-86.76,-158.55
52.201836,-2.201769,131.48,3.89,2,90.45,23 / 23,13941110,2020-01-08 16:07:44:704,-0.7126,-1.169,10.4791,0.0209,-0.0326,9.8065,-0.0204,0.0708,-0.0684,-18.94,-35.56,3.94,291.16,-86.83,-165.21
52.201836,-2.201769,131.48,3.89,2,90.45,23 / 23,13941213,2020-01-08 16:07:44:807,1.0186,-0.1583,9.7152,0.0182,-0.0283,9.8065,0.0043,0.1745,0.0498,-19.12,-35.5,3.13,290.19,-86.54,-162.83
52.201836,-2.201769,131.48,3.89,2,90.45,23 / 24,13941310,2020-01-08 16:07:44:904,1.0467,-0.3936,10.3915,0.0099,-0.0086,9.8066,0.0553,0.0813,0.0652,-19.44,-35.37,3.88,296.81,-86.39,-159.21
52.201836,-2.201769,131.48,3.89,2,90.45,23 / 24,13941410,2020-01-08 16:07:45:004,-0.0345,-1.0686,9.1304,0.0177,-0.0061,9.8066,-0.0199,-0.0183,0.1056,-19.37,-34.87,2.88,293.4,-86.2,-159.15
52.201836,-2.201769,131.48,3.89,2,90.45,23 / 24,13941510,2020-01-08 16:07:45:104,1.1686,0.8689,9.9674,0.0142,-0.0181,9.8065,0.0749,0.1661,-0.0618,-19.44,-35.81,3.94,292.1,-86.22,-163.23
52.201836,-2.201769,131.48,3.89,2,90.45,23 / 24,13941610,2020-01-08 16:07:45:204,0.9259,1.8828,9.0043,0.0092,0.0377,9.8065,0.0348,-0.1555,0.0368,-19.12,-35.31,3.5,288.18,-86.27,-167.26
52.201836,-2.201769,131.48,3.89,2,90.45,23 / 24,13941709,2020-01-08 16:07:45:303,0.9511,0.726,10.7165,-0.0005,-0.021,9.8065,0.0607,-0.0614,0.1,-18.69,-35.56,3.31,287.79,-86.26,-164.46
52.201836,-2.201769,131.48,3.89,2,90.45,23 / 24,13941810,2020-01-08 16:07:45:404,0.6837,1.7307,9.3891,0.0148,-0.0395,9.8066,-0.0548,-0.0783,0.1725,-18.56,-35.25,2.81,289.58,-86.22,-162.85
52.201836,-2.201769,131.48,3.89,2,90.45,23 / 24,13941909,2020-01-08 16:07:45:503,0.2007,-1.9393,9.1784,-0.0271,-0.0441,9.8064,-0.0347,-0.1632,0.1651,-19.69,-35.81,2.88,290.93,-86.24,-161.28
52.201836,-2.201769,131.48,3.89,2,90.45,23 / 24,13942010,2020-01-08 16:07:45:604,0.4811,0.9014,8.9714,0.0021,-0.054,9.8065,-0.141,-0.0997,0.1119,-18.94,-35.12,2.63,299.79,-86.22,-153.15
52.201836,-2.201769,131.48,3.89,2,90.45,23 / 24,13942110,2020-01-08 16:07:45:704,0.0172,-3.1347,9.7442,-0.0262,-0.0372,9.8065,-0.0556,-0.2771,0.2474,-19,-34.25,2.25,297.3,-86.29,-152.78
52.201836,-2.201769,131.48,3.89,2,90.45,23 / 24,13942211,2020-01-08 16:07:45:805,0.4723,0.7587,10.6694,0.0096,0.0312,9.8065,-0.0864,0.0212,-0.0249,-19.44,-34.37,2.81,303.72,-86.31,-149.76
52.201836,-2.201769,131.48,3.89,2,90.45,23 / 23,13942310,2020-01-08 16:07:45:904,0.9714,-0.2855,10.9212,-0.0083,0.0462,9.8065,0.1063,-0.2149,0.1281,-19.12,-35.06,2.31,296.59,-86.64,-153.86
52.201836,-2.201769,131.48,3.89,2,90.45,23 / 23,13942410,2020-01-08 16:07:46:004,-0.5962,2.3595,9.0915,0.0083,0.0547,9.8065,-0.0602,-0.177,0.3415,-19.06,-34.62,1.13,294.16,-86.63,-153.15
52.201836,-2.201769,131.48,3.89,2,90.45,23 / 23,13942509,2020-01-08 16:07:46:103,0.3753,-2.1055,9.7694,-0.009,0.01,9.8066,0.051,-0.2211,-0.0039,-19,-34.37,2.25,296.61,-86.49,-153.77
52.201836,-2.201769,131.48,3.89,2,90.45,23 / 23,13942610,2020-01-08 16:07:46:204,-0.3436,0.1166,9.8932,0.0367,-0.0035,9.8066,-0.0646,-0.2516,0.0256,-19.37,-34.5,1.88,293.69,-86.17,-156.01
52.201836,-2.201769,131.48,3.89,2,90.45,23 / 23,13942710,2020-01-08 16:07:46:304,-1.7611,-2.0101,7.8802,0.0432,0.054,9.8063,-0.1287,-0.097,0.1602,-18.75,-34.94,1.88,291.08,-86.02,-158.05
52.201836,-2.201769,131.48,3.89,2,90.45,23 / 23,13942810,2020-01-08 16:07:46:404,0.161,0.4883,8.8612,0.0014,0.0377,9.8066,0.1229,-0.0853,-0.0069,-19.06,-34.19,2.75,292.39,-85.93,-159.85
52.201836,-2.201769,131.48,3.89,2,90.45,23 / 23,13942910,2020-01-08 16:07:46:504,-0.2742,-0.4675,9.1353,0.0242,0.0105,9.8066,-0.0394,-0.0864,-0.0396,-18.87,-35.37,2.63,284.35,-85.87,-167.28
52.201836,-2.201769,131.48,3.89,2,90.45,23 / 23,13943010,2020-01-08 16:07:46:604,0.2958,0.9625,9.9825,-0.0214,-0.0032,9.8066,0.0428,0.0748,0.0029,-18.19,-35.06,2.19,279.81,-85.99,-168.84
52.201836,-2.201769,131.48,3.89,2,90.45,23 / 23,13943109,2020-01-08 16:07:46:703,0.2506,-0.284,10.4771,-0.0083,-0.0068,9.8066,-0.0076,-0.033,0.0373,-18.5,-34.69,2.69,285.72,-86.12,-166.53
52.201836,-2.201769,131.48,3.89,2,90.45,23 / 23,13943210,2020-01-08 16:07:46:804,-0.1074,1.6104,9.4075,-0.0064,-0.0269,9.8065,-0.0219,0.2514,-0.194,-18.25,-35.44,2.25,286.76,-86.32,-162.72
52.201836,-2.201769,131.48,3.89,2,90.45,23 / 23,13943310,2020-01-08 16:07:46:904,-0.0199,0.3813,9.8586,-0.0099,0.0171,9.8066,-0.0001,0.073,-0.0312,-18.81,-35.94,2.13,282.65,-86.45,-166.79
52.201836,-2.201769,131.48,3.89,2,90.45,23 / 23,13943410,2020-01-08 16:07:47:004,0.0114,-1.4554,10.0538,0.0056,0.0084,9.8066,0.0135,0.1818,-0.0689,-18.44,-35.44,2.13,280.81,-86.39,-168.63
52.201836,-2.201769,131.48,3.89,2,90.45,23 / 23,13943510,2020-01-08 16:07:47:104,0.4917,-0.1294,9.4953,0.013,0.0012,9.8066,-0.0471,0.0479,-0.1381,-18.25,-35.5,3.06,279.12,-86.29,-173.27
52.201836,-2.201769,131.48,3.89,2,90.45,23 / 23,13943610,2020-01-08 16:07:47:204,0.3247,-0.6992,10.0418,-0.0044,-0.0163,9.8066,0.0378,-0.0522,-0.021,-17.87,-35.81,2.75,275.57,-86.32,-176.63
52.201836,-2.201769,131.48,3.89,2,90.45,23 / 23,13943710,2020-01-08 16:07:47:304,-0.4082,-0.701,10.2956,-0.0079,-0.0047,9.8066,0.0334,0.0083,0.0286,-18.31,-34.75,2.44,274.28,-86.34,-174.96
52.201836,-2.201769,131.48,3.89,2,90.45,23 / 23,13943810,2020-01-08 16:07:47:404,-0.3568,-0.7173,9.7909,0.0077,0.0017,9.8066,-0.0267,0.0029,-0.0301,-18.19,-35.5,3.38,277.23,-86.2,-174.95
52.201836,-2.201769,131.48,3.89,2,90.45,23 / 23,13943909,2020-01-08 16:07:47:503,-0.1162,0.6699,9.9679,-0.0028,0.0028,9.8066,0.0265,0.129,-0.0672,-18.69,-35.69,2.94,274.92,-86.24,-177
52.201836,-2.201769,131.48,3.89,2,90.45,23 / 23,13944010,2020-01-08 16:07:47:604,-0.0896,-0.1848,9.3262,-0.0048,0.0083,9.8066,0.0419,0.0784,-0.026,-18.75,-35.62,3.19,272.62,-86.23,-179.28
52.201836,-2.201769,131.48,3.89,2,90.45,23 / 23,13944110,2020-01-08 16:07:47:704,0.4799,-0.0605,9.727,-0.0127,-0.0222,9.8065,0.0452,0.107,-0.1253,-18.69,-35.75,3.13,272.09,-86.28,-179.89
52.201836,-2.201769,131.48,3.89,2,90.45,23 / 23,13944210,2020-01-08 16:07:47:804,-0.5094,-1.9235,9.8152,-0.0046,-0.0051,9.8066,0.0044,0.0984,-0.0214,-18.62,-36,3.31,269.67,-86.26,177.73
52.201836,-2.201769,131.48,3.89,2,90.45,24 / 24,13944310,2020-01-08 16:07:47:904,-0.8242,0.0365,10.0999,-0.0085,-0.018,9.8066,-0.0656,0.1674,-0.153,-18.94,-36,2.63,269.02,-86.34,176.91
52.201836,-2.201769,131.48,3.89,2,90.45,24 / 24,13944410,2020-01-08 16:07:48:004,0.7658,0.5888,10.0877,0.0013,0.0127,9.8066,0.0358,-0.0563,0.016,-18.75,-35.56,3,263.71,-86.35,171.55
52.201836,-2.201769,131.48,3.89,2,90.45,24 / 24,13944510,2020-01-08 16:07:48:104,-1.0798,1.9796,9.1412,0.0271,-0.0195,9.8065,-0.0704,0.0989,-0.0685,-18.62,-35.81,2.13,261.09,-86.19,172.18
52.201836,-2.201769,131.48,3.89,2,90.45,24 / 24,13944610,2020-01-08 16:07:48:204,-0.2562,-0.5339,9.6268,0.004,0.0245,9.8066,0.0757,-0.1414,0.0839,-17.81,-35.56,2.31,259.06,-86.17,170.2
52.201836,-2.201769,131.48,3.89,2,90.45,24 / 24,13944709,2020-01-08 16:07:48:303,1.7189,-2.1227,10.7645,0.0145,0.0012,9.8066,0.0703,-0.0154,0.0235,-17.62,-34.87,2.94,259.87,-85.97,168.02
52.201836,-2.201769,131.48,3.89,2,90.45,24 / 24,13944809,2020-01-08 16:07:48:403,0.4921,-0.439,10.0603,-0.0321,0.0374,9.8065,0.1072,-0.1809,0.1513,-18.44,-35.81,2.81,259.3,-85.91,167.77
52.201836,-2.201769,131.48,3.89,2,90.45,24 / 24,13944910,2020-01-08 16:07:48:504,0.2528,-1.4555,11.3884,-0.038,0.0084,9.8065,0.1246,-0.1576,0.1336,-17.94,-35.31,1.81,254.42,-86.09,165.36
52.201836,-2.201769,131.48,3.89,2,90.45,24 / 24,13945009,2020-01-08 16:07:48:603,-0.1173,1.9169,9.8282,-0.0026,0.0347,9.8066,-0.0216,-0.0841,0.1116,-17.94,-34.87,2.38,253.86,-86.09,164.77
52.201836,-2.201769,131.48,3.89,2,90.45,24 / 24,13945110,2020-01-08 16:07:48:704,-0.2624,0.0743,10.1261,-0.0148,0.0235,9.8066,0.0086,-0.1687,0.0988,-18.44,-35.94,2.31,253.26,-86.08,164.37
52.201836,-2.201769,131.48,3.89,2,90.45,24 / 24,13945210,2020-01-08 16:07:48:804,0.6046,2.2656,9.7543,0.0185,0.023,9.8065,-0.0588,0.0483,0.0039,-18.37,-35.62,1.56,254.19,-86.08,165.35
52.201836,-2.201769,131.48,3.89,2,90.45,23 / 24,13945309,2020-01-08 16:07:48:903,0.3406,-1.3125,9.4912,0.0183,0.0277,9.8066,-0.0132,-0.1657,0.1445,-18.06,-35.25,2.06,252.17,-85.82,163.52
52.201836,-2.201769,131.48,3.89,2,90.45,23 / 24,13945409,2020-01-08 16:07:49:003,0.519,1.8719,9.8375,0.0233,0.0066,9.8066,-0.0073,-0.0111,0.0324,-18.25,-35.06,1.5,253.11,-85.76,164.61
52.201836,-2.201769,131.48,3.89,2,90.45,23 / 24,13945510,2020-01-08 16:07:49:104,0.1604,-2.7207,9.4678,-0.0107,0.0453,9.8065,-0.0433,-0.3091,0.2285,-18,-35.12,0.5,249.49,-85.77,163.99
52.201836,-2.201769,131.48,3.89,2,90.45,23 / 24,13945610,2020-01-08 16:07:49:204,-0.2162,-1.4937,10.3211,-0.0062,-0.0029,9.8066,-0.1105,0.4738,-0.2113,-17.69,-34.19,1.38,252.09,-85.87,166.31
52.201836,-2.201769,131.48,3.89,2,90.45,23 / 24,13945709,2020-01-08 16:07:49:303,0.2175,-4.515,9.3731,-0.0051,0.0254,9.8065,-0.0126,-0.0184,-0.1437,-17.75,-34.75,0.63,248.58,-85.95,162.71
52.201836,-2.201769,131.48,3.89,2,90.45,23 / 24,13945810,2020-01-08 16:07:49:404,-0.5312,1.1916,10.8643,0.0192,-0.0895,9.8061,0.0009,0.6332,-0.6161,-17.56,-34.87,0.5,242.79,-85.91,156.65
52.201836,-2.201769,131.48,3.89,2,90.45,23 / 24,13945910,2020-01-08 16:07:49:504,-0.3748,5.5226,10.5262,0.0126,0.0459,9.8065,-0.0205,0.2309,0.1652,-17.31,-35.06,0.06,240.47,-85.8,157.97
52.201836,-2.201769,131.48,3.89,2,90.45,23 / 24,13946010,2020-01-08 16:07:49:604,1.2377,2.4991,11.3459,-0.0091,-0.0659,9.8063,0.1204,0.874,-0.2102,-17.94,-35.25,-0.56,248.73,-85.99,169.15
52.201836,-2.201769,131.48,3.89,2,90.45,23 / 24,13946110,2020-01-08 16:07:49:704,-1.2752,2.6243,8.5248,0.0183,-0.0762,9.8063,-0.0336,0.2803,-0.4026,-17.75,-35.25,-0.12,252.26,-85.92,169.8
52.201836,-2.201769,131.48,3.89,2,90.45,23 / 24,13946209,2020-01-08 16:07:49:803,-0.9557,-4.5319,9.9698,-0.0038,-0.0792,9.8062,0.0292,0.4883,-0.3415,-17.87,-35.25,0.5,250.1,-85.72,164.71
52.201836,-2.201769,131.48,3.89,2,90.45,23 / 24,13946310,2020-01-08 16:07:49:904,-1.3212,2.2987,9.2039,-0.0026,-0.0011,9.8066,0.0378,0.4217,-0.1142,-17.44,-35.12,0.25,249.1,-85.76,167.24
52.201836,-2.201769,131.48,3.89,2,90.45,23 / 24,13946410,2020-01-08 16:07:50:004,-1.24,-2.8642,10.6381,-0.0078,-0.0409,9.8065,0.1436,0.1863,-0.1852,-17.94,-34.31,0.13,249.78,-85.75,167.29
52.201836,-2.201769,131.48,3.89,2,90.45,23 / 24,13946510,2020-01-08 16:07:50:104,0.2686,2.1464,10.5106,-0.0022,-0.0534,9.8065,0.0461,0.2099,-0.1141,-17.62,-35.37,0.44,251.56,-85.73,169.42
52.201836,-2.201769,131.48,3.89,2,90.45,23 / 24,13946609,2020-01-08 16:07:50:203,-0.2822,-1.4899,9.9719,-0.0257,-0.0324,9.8065,0.0867,0.0804,0.0129,-18.06,-35.69,-0.19,254.38,-85.77,172.52
52.201836,-2.201769,131.48,3.89,2,90.45,23 / 24,13946710,2020-01-08 16:07:50:304,-0.5825,1.4997,9.9301,-0.0087,-0.0391,9.8065,0.0593,0.1671,-0.1689,-17.81,-35.5,-0.19,256,-85.79,173.95
52.201836,-2.201769,131.48,3.89,2,90.45,23 / 24,13946810,2020-01-08 16:07:50:404,-0.1009,0.2333,9.6697,-0.0151,0.0001,9.8066,0.0464,-0.0326,-0.0101,-17.44,-35.31,0.38,253.85,-85.68,172.4
52.201836,-2.201769,131.48,3.89,2,90.45,23 / 24,13946910,2020-01-08 16:07:50:504,-0.5597,0.306,9.77,-0.007,-0.0037,9.8066,-0.0413,-0.0607,-0.0031,-17.69,-35.69,-0.25,253.31,-85.77,171.41
52.201836,-2.201769,131.48,3.89,2,90.45,23 / 24,13947010,2020-01-08 16:07:50:604,-0.5692,0.8509,10.0208,-0.008,-0.0051,9.8066,0.0029,0.0354,0.0124,-17.94,-34.81,-0.25,253.95,-85.85,171.7
52.201836,-2.201769,131.48,3.89,2,90.45,23 / 24,13947110,2020-01-08 16:07:50:704,0.0181,-0.3839,9.5835,0.0129,0.0064,9.8066,-0.0426,-0.1278,0.07,-17.62,-35.62,-0.06,254.69,-85.91,172.57
52.201836,-2.201769,131.48,3.89,2,90.45,23 / 24,13947209,2020-01-08 16:07:50:803,0.1968,1.2163,10.2267,0.0028,-0.0215,9.8066,0.0955,0.1056,-0.1149,-17.87,-35.87,-0.12,257.43,-85.87,175.49
52.201836,-2.201769,131.48,3.89,2,90.45,24 / 25,13947311,2020-01-08 16:07:50:905,-0.1719,0.2275,9.0192,-0.0081,0.0167,9.8066,-0.1035,0.0572,0.0299,-17.75,-34.94,-0.44,255.91,-85.81,173.81
52.20188,-2.201058,132.11,6.55,2,75.55,24 / 25,13947410,2020-01-08 16:07:51:004,-0.3835,0.6731,9.7717,0.0191,0.0114,9.8066,-0.0529,0.0501,-0.0075,-17.44,-35.06,-0.5,257.89,-85.98,175.99
52.20188,-2.201058,132.11,6.55,2,75.55,24 / 25,13947510,2020-01-08 16:07:51:104,-0.0113,-0.7312,10.4088,-0.0102,-0.0021,9.8066,0.0519,-0.0163,0.055,-18.25,-35.56,-0.75,257.49,-86.09,178.3
52.20188,-2.201058,132.11,6.55,2,75.55,24 / 25,13947610,2020-01-08 16:07:51:204,-0.9062,2.074,9.822,-0.0022,-0.0377,9.8065,0.0664,0.2827,-0.1937,-17.75,-35.62,-1,260.02,-86.1,-179.12
52.20188,-2.201058,132.11,6.55,2,75.55,24 / 25,13947710,2020-01-08 16:07:51:304,-0.4533,-2.1807,10.0368,-0.0224,-0.0326,9.8065,-0.0113,0.0851,-0.0873,-18.19,-36.44,-1,257.41,-86.07,178.26
52.20188,-2.201058,132.11,6.55,2,75.55,24 / 25,13947810,2020-01-08 16:07:51:404,-0.5512,2.0513,10.4212,0.0152,-0.0525,9.8065,0.0634,0.3071,-0.1845,-17.81,-36.12,-1,260.68,-86.19,-178.61
52.20188,-2.201058,132.11,6.55,2,75.55,24 / 25,13947910,2020-01-08 16:07:51:504,0.5904,-2.4767,9.5295,0.0048,-0.0182,9.8065,0.0135,-0.1322,0.068,-18.19,-35.44,0.31,262.3,-85.93,-179.83
52.20188,-2.201058,132.11,6.55,2,75.55,24 / 25,13948010,2020-01-08 16:07:51:604,0.4421,-0.0011,9.7897,0.0035,-0.0374,9.8065,0.0997,0.1627,-0.0935,-17.87,-36.19,0.44,264.91,-85.8,-176.69
52.20188,-2.201058,132.11,6.55,2,75.55,24 / 25,13948110,2020-01-08 16:07:51:704,-0.0389,-1.4639,8.952,-0.0032,0.0126,9.8066,-0.0463,-0.0368,0.1238,-18.31,-35.94,0.38,264.55,-85.75,-176.96
52.20188,-2.201058,132.11,6.55,2,75.55,24 / 25,13948210,2020-01-08 16:07:51:804,-0.7116,1.0232,10.1995,-0.0038,-0.033,9.8065,0.0208,0.097,-0.1582,-18.25,-35.87,1,269.8,-85.73,-174.81
52.20188,-2.201058,132.11,6.55,2,75.55,23 / 24,13948310,2020-01-08 16:07:51:904,-0.6155,-1.5311,9.5789,-0.0101,-0.0237,9.8066,0.0563,-0.0534,-0.0056,-17.87,-35.56,0.75,267.77,-85.8,-177
52.20188,-2.201058,132.11,6.55,2,75.55,23 / 24,13948410,2020-01-08 16:07:52:004,0.6468,0.7649,9.224,-0.0269,-0.0113,9.8065,-0.0293,0.1412,-0.1415,-18.94,-35.06,0.94,270.3,-85.89,-175.13
52.20188,-2.201058,132.11,6.55,2,75.55,23 / 24,13948509,2020-01-08 16:07:52:103,-0.0677,-1.8522,9.6304,-0.0017,-0.0516,9.8064,-0.0649,0.1104,0.0007,-19.06,-35.19,1.13,269.57,-86.19,-176.4
52.20188,-2.201058,132.11,6.55,2,75.55,23 / 24,13948609,2020-01-08 16:07:52:203,-0.5521,0.5948,10.4717,0.0133,-0.0338,9.8065,0.0476,0.0847,-0.1236,-18.94,-35.81,0.13,273.08,-86.15,-169.61
52.20188,-2.201058,132.11,6.55,2,75.55,23 / 24,13948710,2020-01-08 16:07:52:304,-0.5404,0.1608,9.0562,0.0289,-0.0208,9.8065,-0.0412,0.0124,-0.1182,-19,-34.44,0.81,275.75,-85.98,-170.07
52.20188,-2.201058,132.11,6.55,2,75.55,23 / 24,13948810,2020-01-08 16:07:52:404,-1.0407,0.7615,9.0488,-0.0053,0.026,9.8066,-0.0716,0.0988,0.0125,-18.81,-35.75,0.56,271.95,-86,-173.45
52.20188,-2.201058,132.11,6.55,2,75.55,23 / 24,13948910,2020-01-08 16:07:52:504,-0.9192,1.8902,9.2505,-0.0084,0.0128,9.8065,0.019,-0.3113,0.1399,-19,-35.44,0.94,275.27,-85.96,-170.29
52.20188,-2.201058,132.11,6.55,2,75.55,23 / 24,13949009,2020-01-08 16:07:52:603,0.6331,-1.2266,10.2962,-0.0152,0.0196,9.8066,0.0454,-0.3257,0.2471,-18.87,-35.12,0.75,276.96,-86.03,-168.75
52.20188,-2.201058,132.11,6.55,2,75.55,23 / 24,13949109,2020-01-08 16:07:52:703,-0.8135,1.6536,8.7807,-0.0249,0.0756,9.8063,-0.1042,-0.3629,0.2429,-19.06,-35.5,0.63,281.3,-86.18,-164.77
52.20188,-2.201058,132.11,6.55,2,75.55,23 / 24,13949210,2020-01-08 16:07:52:804,-0.5341,-1.3577,9.1063,-0.0446,0.0258,9.8065,0.0292,-0.2069,-0.0037,-18.62,-35.62,-0.25,272.93,-86.56,-170.54
52.20188,-2.201058,132.11,6.55,2,75.55,24 / 24,13949310,2020-01-08 16:07:52:904,1.863,0.5455,9.5432,0.0678,0.0108,9.8064,-0.0885,-0.1585,-0.0148,-19.12,-34.37,0.25,271.22,-86.61,-172.69
52.20188,-2.201058,132.11,6.55,2,75.55,24 / 24,13949410,2020-01-08 16:07:53:004,0.5551,-1.7964,8.4772,0.0365,0.0299,9.8064,-0.1078,-0.1569,0.2137,-19.06,-35.12,-0.06,268.43,-86.1,-174.37
52.20188,-2.201058,132.11,6.55,2,75.55,24 / 24,13949510,2020-01-08 16:07:53:104,0.2837,0.3513,10.168,0.0016,0.0181,9.8066,-0.0203,-0.1528,0.0945,-18.87,-34.94,0.75,275.66,-86.16,-170.27
52.20188,-2.201058,132.11,6.55,2,75.55,24 / 24,13949609,2020-01-08 16:07:53:203,0.471,0.6247,9.5304,0.0091,0.0019,9.8065,-0.0861,-0.0518,-0.0116,-18.31,-35.37,1,273.96,-86.24,-171.89
52.20188,-2.201058,132.11,6.55,2,75.55,24 / 24,13949710,2020-01-08 16:07:53:304,0.5281,0.317,10.473,-0.0124,0.0016,9.8066,-0.0038,-0.0558,0.0371,-18.31,-35.19,0.44,271.15,-86.5,-172.01
52.20188,-2.201058,132.11,6.55,2,75.55,24 / 24,13949810,2020-01-08 16:07:53:404,0.349,0.4935,10.3227,0.0186,-0.0105,9.8066,-0.041,0.053,-0.0202,-18.31,-35.5,0.88,276,-86.47,-170.33
52.20188,-2.201058,132.11,6.55,2,75.55,24 / 24,13949909,2020-01-08 16:07:53:503,1.0604,-0.3336,8.9714,-0.0064,-0.0102,9.8066,0.0306,0.0353,-0.0432,-18.37,-36,1,276.26,-86.41,-169.75
52.20188,-2.201058,132.11,6.55,2,75.55,24 / 24,13950009,2020-01-08 16:07:53:603,1.2454,1.5854,10.8744,-0.0417,-0.0259,9.8064,0.131,0.1841,0.0272,-18.37,-35.62,0.63,277.44,-86.47,-168.7
52.20188,-2.201058,132.11,6.55,2,75.55,24 / 24,13950110,2020-01-08 16:07:53:704,0.8243,1.7275,10.3877,0.0334,0.0396,9.8064,-0.0927,-0.2091,0.3171,-18.56,-35.44,1.25,280.92,-86.3,-165.37
52.20188,-2.201058,132.11,6.55,2,75.55,24 / 24,13950210,2020-01-08 16:07:53:804,-0.6615,3.555,9.5689,0.0081,-0.0561,9.8065,-0.1371,0.1711,-0.1442,-18.19,-35.94,1.31,280.63,-86.02,-164.68
52.20188,-2.201058,132.11,6.55,2,75.55,24 / 24,13950311,2020-01-08 16:07:53:905,-0.1111,0.3965,11.4571,0.0132,0.0267,9.8066,0.0226,-0.2129,0.0595,-18.19,-35.62,1.25,274.87,-86.05,-170.41
52.20188,-2.201058,132.11,6.55,2,75.55,24 / 24,13950410,2020-01-08 16:07:54:004,1.48,-0.9278,10.7455,0.0365,0.0276,9.8065,-0.0191,-0.1216,0.1322,-18.69,-35.37,1.19,273.07,-86.04,-172.62
52.20188,-2.201058,132.11,6.55,2,75.55,24 / 24,13950510,2020-01-08 16:07:54:104,0.723,1.4977,9.6611,-0.0149,0.0396,9.8065,0.0261,-0.0251,0.1075,-18.69,-35.37,0.44,270.83,-86.04,-171.85
52.20188,-2.201058,132.11,6.55,2,75.55,24 / 24,13950610,2020-01-08 16:07:54:204,0.3372,0.5061,9.4515,0.0281,0.0146,9.8065,-0.0234,0.0411,-0.0278,-19.62,-35.37,1.06,270.91,-85.9,-174.74
52.20188,-2.201058,132.11,6.55,2,75.55,24 / 24,13950710,2020-01-08 16:07:54:304,1.4683,0.5219,10.778,0.0109,-0.0306,9.8066,-0.0182,0.2188,-0.1877,-20.06,-35.12,0.31,265.71,-86.13,-177.52
52.20188,-2.201058,132.11,6.55,2,75.55,24 / 24,13950809,2020-01-08 16:07:54:403,0.2083,0.0855,10.4138,-0.0048,0.0015,9.8066,-0.032,0.0999,0.098,-21.12,-34.81,0.69,271.67,-86.15,-174.62
52.20188,-2.201058,132.11,6.55,2,75.55,24 / 24,13950910,2020-01-08 16:07:54:504,0.6171,0.1172,10.5124,0.0151,-0.016,9.8065,-0.0541,0.1546,0.0013,-21.44,-34.12,1.63,277.53,-86,-171.49
52.20188,-2.201058,132.11,6.55,2,75.55,24 / 24,13951009,2020-01-08 16:07:54:603,0.2736,1.3049,9.0118,0.0425,0.0013,9.8065,-0.0932,0.0198,0.0683,-21,-33.75,1.19,274.71,-85.91,-171.38
52.20188,-2.201058,132.11,6.55,2,75.55,24 / 24,13951109,2020-01-08 16:07:54:703,1.0464,1.461,10.7601,0.0158,-0.0352,9.8065,-0.0793,0.0922,-0.0499,-20.81,-33.69,1.88,281.71,-86.05,-167.44
52.20188,-2.201058,132.11,6.55,2,75.55,24 / 24,13951210,2020-01-08 16:07:54:804,-0.5042,-2.519,8.2605,0.0423,0.0392,9.8064,-0.2138,-0.0454,0.2064,-20.25,-34,-0.06,279.22,-85.97,-163.96
52.20188,-2.201058,132.11,6.55,2,75.55,23 / 24,13951310,2020-01-08 16:07:54:904,0.121,-0.6914,9.2479,-0.0266,-0.0361,9.8065,0.2652,0.2213,-0.18,-20.06,-34.5,-0.37,281.31,-86.12,-162.17
52.20188,-2.201058,132.11,6.55,2,75.55,23 / 24,13951410,2020-01-08 16:07:55:004,-1.3967,-1.3637,9.4674,0.0202,-0.013,9.8066,0.0287,0.2184,-0.0536,-20,-34.56,-0.44,283.23,-86.01,-159.91
52.20188,-2.201058,132.11,6.55,2,75.55,23 / 24,13951509,2020-01-08 16:07:55:103,1.0471,-0.4609,10.0405,0.0136,-0.0536,9.8064,0.0556,0.2529,-0.1164,-19.81,-35.37,-0.44,288.49,-85.79,-154.45
52.20188,-2.201058,132.11,6.55,2,75.55,23 / 24,13951610,2020-01-08 16:07:55:204,-1.2779,1.0635,7.767,0.0375,-0.0219,9.8065,-0.1236,0.1188,-0.1689,-19.69,-35.37,-0.56,283.54,-85.62,-156.09
52.20188,-2.201058,132.11,6.55,2,75.55,23 / 24,13951710,2020-01-08 16:07:55:304,-0.6192,-2.8859,10.0844,-0.0133,-0.068,9.8063,0.0549,0.2869,-0.2811,-19.87,-34.87,-0.25,287.91,-85.85,-155.11
52.20188,-2.201058,132.11,6.55,2,75.55,23 / 24,13951809,2020-01-08 16:07:55:403,-0.3765,-2.7547,8.6648,0.0473,0.0249,9.8065,-0.1013,-0.0255,0.0738,-20.31,-34.56,-0.25,290.52,-85.77,-152.47
52.20188,-2.201058,132.11,6.55,2,75.55,23 / 24,13951910,2020-01-08 16:07:55:504,0.0085,0.8827,9.5691,-0.0553,-0.032,9.8063,0.2363,0.1474,-0.0626,-19.87,-34.87,-1.12,292.79,-85.96,-147.76
52.20188,-2.201058,132.11,6.55,2,75.55,23 / 24,13952010,2020-01-08 16:07:55:604,0.609,0.4695,11.1573,0.0018,-0.0125,9.8066,0.1048,-0.0711,0.0181,-20.31,-34.62,-0.37,295.24,-85.69,-147.85
52.20188,-2.201058,132.11,6.55,2,75.55,23 / 24,13952110,2020-01-08 16:07:55:704,0.1525,0.8397,8.6525,-0.0033,-0.0459,9.8065,-0.0677,0.2729,-0.1793,-19.75,-34.5,-0.62,292.82,-85.56,-147.27
52.20188,-2.201058,132.11,6.55,2,75.55,23 / 24,13952210,2020-01-08 16:07:55:804,-3.5423,1.2893,10.2231,-0.0306,-0.0138,9.8065,-0.0189,0.179,-0.0702,-20.19,-33.75,0.38,300.36,-85.63,-143.15
52.20188,-2.201058,132.11,6.55,2,75.55,23 / 24,13952310,2020-01-08 16:07:55:904,-0.0854,-3.9378,10.1468,-0.0155,-0.0363,9.8065,-0.0485,0.101,-0.11,-20.62,-34.37,0.19,306.74,-85.71,-137.6
52.20188,-2.201058,132.11,6.55,2,75.55,23 / 24,13952410,2020-01-08 16:07:56:004,-0.3415,-0.2681,10.3169,0.0283,-0.0267,9.8065,-0.039,-0.1197,-0.0639,-20.81,-32.75,1.69,310.09,-85.75,-140.18
52.20188,-2.201058,132.11,6.55,2,75.55,23 / 24,13952510,2020-01-08 16:07:56:104,-0.2133,-0.3175,9.9644,0.0172,-0.0146,9.8065,0.121,-0.1853,-0.022,-21.25,-32.87,1.75,308.47,-85.62,-141.51
52.20188,-2.201058,132.11,6.55,2,75.55,23 / 24,13952610,2020-01-08 16:07:56:204,0.0462,-1.7818,9.6332,-0.0102,0.0346,9.8065,0.0116,-0.172,0.0286,-22.19,-31.44,1.44,303.55,-85.45,-143.61
52.20188,-2.201058,132.11,6.55,2,75.55,23 / 24,13952709,2020-01-08 16:07:56:303,0.0409,-1.5943,9.5668,-0.0029,-0.0223,9.8066,-0.0234,-0.163,0.0067,-22.5,-31.12,1.25,305.16,-85.34,-141.97
52.20188,-2.201058,132.11,6.55,2,75.55,23 / 24,13952810,2020-01-08 16:07:56:404,0.6463,-1.9772,10.051,-0.0458,0.0021,9.8065,0.0865,-0.1066,-0.0239,-21.81,-31.31,0.25,304.91,-85.55,-139.85
52.20188,-2.201058,132.11,6.55,2,75.55,23 / 24,13952909,2020-01-08 16:07:56:503,-0.4852,-3.0328,9.772,-0.0328,-0.039,9.8065,-0.004,-0.2311,-0.0752,-21.19,-31.81,0.69,307.83,-85.62,-139.54
52.20188,-2.201058,132.11,6.55,2,75.55,23 / 24,13953010,2020-01-08 16:07:56:604,0.2644,-1.7621,11.1727,-0.0084,-0.0006,9.8065,0.1349,-0.3573,-0.0132,-19.19,-31.62,1.56,314.3,-85.69,-136.45
52.20188,-2.201058,132.11,6.55,2,75.55,23 / 24,13953110,2020-01-08 16:07:56:704,-0.6187,-0.9604,9.8691,-0.0366,-0.001,9.8065,0.0239,0.0693,-0.1648,-18.81,-32.06,2.06,313.42,-85.71,-137.28
52.20188,-2.201058,132.11,6.55,2,75.55,23 / 24,13953210,2020-01-08 16:07:56:804,-0.0035,-2.5163,9.5046,-0.0186,0.0153,9.8065,0.0763,-0.2217,-0.1333,-19,-33.25,3.44,315.1,-86.18,-139.18
52.20188,-2.201058,132.11,6.55,2,75.55,23 / 24,13953310,2020-01-08 16:07:56:904,-0.5113,-0.5832,8.1364,-0.0399,0.0681,9.8063,0.0646,-0.06,-0.0326,-18.87,-33.56,3.56,306.11,-86.91,-151.36
52.20188,-2.201058,132.11,6.55,2,75.55,23 / 24,13953410,2020-01-08 16:07:57:004,1.6912,0.858,11.1224,-0.0527,0.0131,9.8064,0.022,0.133,-0.1115,-17.94,-35.5,3.88,306.27,-87.35,-152.18
52.20188,-2.201058,132.11,6.55,2,75.55,23 / 24,13953510,2020-01-08 16:07:57:104,-0.5392,-2.8032,11.93,0.0491,-0.04,9.8064,-0.0307,0.0893,-0.2621,-18.37,-34.75,3.69,301.26,-87.59,-157.33
52.20188,-2.201058,132.11,6.55,2,75.55,23 / 24,13953610,2020-01-08 16:07:57:204,-1.679,-0.4626,10.8456,0.0612,0.0124,9.8064,0.0458,0.0391,-0.0896,-17.69,-35.06,4.56,290.01,-87.13,-170.43
52.20188,-2.201058,132.11,6.55,2,75.55,23 / 24,13953710,2020-01-08 16:07:57:304,1.497,0.164,10.3307,0.0125,0.0607,9.8064,0.3583,-0.0157,0.2479,-16.75,-34.56,4.5,273.72,-86.6,174.06
52.20188,-2.201058,132.11,6.55,2,75.55,23 / 24,13953810,2020-01-08 16:07:57:404,1.6536,2.5537,10.2685,-0.0064,-0.0386,9.8065,0.2332,0.0859,-0.1764,-16.25,-34.37,4.38,275.74,-85.94,-179.9
52.20188,-2.201058,132.11,6.55,2,75.55,23 / 24,13953909,2020-01-08 16:07:57:503,-0.0261,2.0097,9.5515,-0.0294,-0.0047,9.8065,-0.0957,-0.0957,-0.1974,-15.87,-33.94,2.5,268.39,-85.81,176.57
52.20188,-2.201058,132.11,6.55,2,75.55,23 / 24,13954010,2020-01-08 16:07:57:604,2.4622,2.4952,10.2285,-0.035,0.0616,9.8063,-0.0525,-0.0289,0.3927,-16.94,-33.75,0,253.28,-86.31,170.33
52.20188,-2.201058,132.11,6.55,2,75.55,23 / 24,13954110,2020-01-08 16:07:57:704,-1.007,3.8783,9.4811,-0.0353,0.0792,9.8062,-0.0145,-0.0133,0.3879,-17.81,-34.12,-2.06,253.28,-86.53,175.84
52.20188,-2.201058,132.11,6.55,2,75.55,23 / 24,13954210,2020-01-08 16:07:57:804,-0.4961,1.229,9.2705,-0.0062,-0.0075,9.8066,0.0581,-0.2478,-0.0807,-19,-34.37,-1.44,254.06,-86.6,172.91
52.20188,-2.201058,132.11,6.55,2,75.55,23 / 24,13954309,2020-01-08 16:07:57:903,1.1008,6.4659,8.7948,0.0696,-0.0284,9.8063,-0.029,0.3248,-0.3911,-20.31,-34.69,-0.5,255.5,-85.94,172.37
52.20188,-2.201058,132.11,6.55,2,75.55,23 / 24,13954410,2020-01-08 16:07:58:004,-0.4974,-0.8373,10.0417,0.0296,0.0988,9.806,-0.0686,0.131,0.3669,-21.31,-34.94,0.94,253.35,-85.52,167.75
52.20188,-2.201058,132.11,6.55,2,75.55,23 / 24,13954509,2020-01-08 16:07:58:103,0.961,0.1739,10.1071,0.0156,0.0007,9.8066,-0.1434,0.4056,0.0552,-20.44,-35.25,1.56,260.72,-85.6,172.58
52.20188,-2.201058,132.11,6.55,2,75.55,23 / 24,13954609,2020-01-08 16:07:58:203,0.2135,1.0983,10.3324,0.0001,-0.0419,9.8065,-0.1956,0.1693,-0.1468,-19.37,-35.5,0.69,260.25,-85.78,174.89
52.20188,-2.201058,132.11,6.55,2,75.55,23 / 24,13954710,2020-01-08 16:07:58:304,2.8527,2.5001,10.6352,0.0008,-0.0211,9.8066,-0.1025,0.0273,0.1352,-19.19,-35.44,0.56,261.51,-86.23,175.36
52.20188,-2.201058,132.11,6.55,2,75.55,23 / 24,13954810,2020-01-08 16:07:58:404,0.6199,-0.4161,8.2481,0.0344,0.01,9.8065,-0.132,-0.0582,0.063,-19,-35.37,-0.12,266.02,-86.36,-177.28
52.20188,-2.201058,132.11,6.55,2,75.55,23 / 24,13954910,2020-01-08 16:07:58:504,2.6472,1.5456,10.3914,0.0253,-0.0165,9.8066,0.0086,0.1135,-0.153,-18.44,-35.5,-0.37,267.07,-86.18,-175.49
52.20188,-2.201058,132.11,6.55,2,75.55,23 / 24,13955010,2020-01-08 16:07:58:604,-0.216,-0.1461,8.9193,0.015,0.0297,9.8066,-0.1027,-0.0574,0.1126,-19.06,-36.12,-1,261.46,-86.13,-178.28
52.20188,-2.201058,132.11,6.55,2,75.55,23 / 24,13955109,2020-01-08 16:07:58:703,0.3087,3.2673,10.4761,0.0229,-0.0014,9.8066,0.0368,0.0477,-0.115,-18.06,-36.06,-0.62,261.47,-86.13,-177.7
52.20188,-2.201058,132.11,6.55,2,75.55,23 / 24,13955210,2020-01-08 16:07:58:804,1.0337,-1.805,10.6962,0.0201,0.0592,9.8064,0.0525,-0.172,0.2063,-17.75,-35.69,-0.69,259.11,-85.79,-179.44
52.20188,-2.201058,132.11,6.55,2,75.55,23 / 23,13955310,2020-01-08 16:07:58:904,0.4239,-1.3414,10.8597,0.045,-0.0196,9.8065,-0.0026,0.1772,-0.0548,-18.06,-35.69,-0.44,263.26,-85.43,-177.63
52.20188,-2.201058,132.11,6.55,2,75.55,23 / 23,13955409,2020-01-08 16:07:59:003,1.909,-0.7258,9.8784,0.0163,-0.032,9.8065,0.0014,-0.0981,0.0533,-18.44,-35.69,-1.19,262.94,-85.13,-174.18
52.20188,-2.201058,132.11,6.55,2,75.55,23 / 23,13955510,2020-01-08 16:07:59:104,1.0393,0.7991,9.6438,-0.0088,0.0038,9.8066,0.0075,-0.058,0.0619,-18.25,-34.94,-0.62,267.19,-85.15,-170.17
52.20188,-2.201058,132.11,6.55,2,75.55,23 / 23,13955610,2020-01-08 16:07:59:204,1.6802,1.2744,9.8639,-0.0178,0.0008,9.8066,-0.0454,0.0325,-0.0879,-19.12,-35.5,-0.31,273.38,-85.26,-167.84
52.20188,-2.201058,132.11,6.55,2,75.55,23 / 23,13955709,2020-01-08 16:07:59:303,-3.7418,-2.462,9.5617,-0.0139,-0.0035,9.8066,0.2377,0.4642,-0.1695,-18.81,-35,0,276.77,-85.49,-164.91
52.20188,-2.201058,132.11,6.55,2,75.55,23 / 23,13955810,2020-01-08 16:07:59:404,2.1939,1.5826,8.2734,0.0755,-0.0554,9.8062,0.1625,0.3151,-0.4327,-18.75,-34.81,-1.5,271.18,-84.89,-166.33
52.20188,-2.201058,132.11,6.55,2,75.55,23 / 23,13955910,2020-01-08 16:07:59:504,0.2302,-3.5281,5.8944,-0.0558,-0.0928,9.806,0.0478,0.0165,-0.0706,-18.94,-35.25,-0.19,269.7,-84.81,-170.67
52.20188,-2.201058,132.11,6.55,2,75.55,23 / 23,13956010,2020-01-08 16:07:59:604,4.0557,-1.2209,8.7915,-0.0719,-0.0841,9.806,0.3293,0.6433,0.1019,-19.06,-34.62,-0.06,278.77,-84.78,-161.63
52.20188,-2.201058,132.11,6.55,2,75.55,23 / 23,13956110,2020-01-08 16:07:59:704,2.7682,-6.0503,11.1119,-0.0291,0.0095,9.8065,0.0984,-0.2971,0.3191,-19.75,-34.44,-0.25,282.29,-84.11,-157.78
52.20188,-2.201058,132.11,6.55,2,75.55,23 / 23,13956209,2020-01-08 16:07:59:803,0.0381,0.4815,11.0426,0.006,-0.0999,9.8061,0.0916,0.0026,-0.1867,-19.87,-34.69,-0.06,283.93,-84.06,-155.82
52.20201,-2.200019,131.08,11.71,3,75.32,23 / 23,13956310,2020-01-08 16:07:59:904,0.1754,4.3407,10.0133,-0.0011,0.0914,9.8061,-0.1192,-0.5242,0.6238,-19.69,-34.06,0,285.93,-83.8,-153.75
52.20201,-2.200019,131.08,11.71,3,75.32,23 / 23,13956410,2020-01-08 16:08:00:004,1.8127,-4.142,10.4692,0.0492,-0.0652,9.8062,0.009,0.2922,-0.3622,-19.25,-34.94,0.69,283.29,-83.94,-158.69
52.20201,-2.200019,131.08,11.71,3,75.32,23 / 23,13956509,2020-01-08 16:08:00:103,-0.8179,0.4655,8.6599,0.0117,0.0541,9.8064,-0.0923,0.2784,-0.0391,-18.25,-34.25,0.88,281.79,-83.75,-159.65
52.20201,-2.200019,131.08,11.71,3,75.32,23 / 23,13956610,2020-01-08 16:08:00:204,1.508,-1.2316,11.7852,-0.0039,-0.025,9.8065,0.1904,0.188,-0.1625,-18.56,-33.5,1.75,284.11,-83.81,-161.36
52.20201,-2.200019,131.08,11.71,3,75.32,23 / 23,13956709,2020-01-08 16:08:00:303,2.5243,3.9782,11.2002,-0.0214,-0.0681,9.8064,0.1737,0.3426,-0.3336,-19,-33.75,1.5,284.07,-83.72,-160.9
52.20201,-2.200019,131.08,11.71,3,75.32,23 / 23,13956810,2020-01-08 16:08:00:404,0.3509,1.3754,9.5224,0.0138,0.0191,9.8066,-0.0296,-0.198,0.2049,-19.94,-34.19,1.5,280.48,-83.42,-164.1
52.20201,-2.200019,131.08,11.71,3,75.32,23 / 23,13956910,2020-01-08 16:08:00:504,0.6586,3.511,9.0298,-0.0157,-0.0303,9.8065,0.0093,0.0542,-0.0716,-18.69,-33.87,1.75,282.25,-83.35,-161.98
52.20201,-2.200019,131.08,11.71,3,75.32,23 / 23,13957010,2020-01-08 16:08:00:604,0.6271,2.6515,8.5108,-0.0514,0.0242,9.8064,-0.0403,-0.3688,0.1974,-19.5,-34.75,0.25,275.8,-83.38,-161.89
52.20201,-2.200019,131.08,11.71,3,75.32,23 / 23,13957110,2020-01-08 16:08:00:704,0.7827,-3.433,10.2835,-0.0384,0.0172,9.8065,0.0811,-0.2671,0.2149,-19.19,-34.94,1.06,280.35,-83.87,-161.4
52.20201,-2.200019,131.08,11.71,3,75.32,23 / 23,13957210,2020-01-08 16:08:00:804,-0.2486,1.8108,10.3964,0.0135,0.0394,9.8066,0.0158,-0.1016,0.1066,-19.31,-35,0.5,280.08,-83.69,-161.32
52.20201,-2.200019,131.08,11.71,3,75.32,23 / 23,13957310,2020-01-08 16:08:00:904,0.5697,-2.7068,9.8818,0.0362,0.0339,9.8065,-0.0604,-0.297,0.2287,-19.31,-34.87,0.75,276.87,-83.35,-163.8
52.20201,-2.200019,131.08,11.71,3,75.32,23 / 23,13957409,2020-01-08 16:08:01:003,1.7883,2.3025,10.638,0.0227,0.0219,9.8066,-0.048,0.0517,0.039,-19.06,-35.12,1.94,280.7,-83.11,-162.67
52.20201,-2.200019,131.08,11.71,3,75.32,23 / 23,13957509,2020-01-08 16:08:01:103,1.1036,-0.1585,8.6944,0.0143,0.0392,9.8065,-0.1184,-0.0184,0.1669,-19.94,-34.12,1.06,275.86,-82.93,-164.87
52.20201,-2.200019,131.08,11.71,3,75.32,23 / 23,13957610,2020-01-08 16:08:01:204,0.5087,-0.7164,9.7229,0.0399,0.0608,9.8063,-0.2386,0.0483,-0.018,-20.12,-35.06,0.44,274.01,-83.1,-163.77
52.20201,-2.200019,131.08,11.71,3,75.32,23 / 23,13957710,2020-01-08 16:08:01:304,-0.1131,0.8147,8.2086,0.0388,0.0267,9.8065,-0.2544,0.0218,-0.0518,-20.5,-34.44,0.94,271.9,-83.11,-169.11
52.20201,-2.200019,131.08,11.71,3,75.32,23 / 23,13957810,2020-01-08 16:08:01:404,1.0149,-0.0477,12.4135,0.0516,0.0174,9.8064,-0.0126,0.3168,-0.1452,-19.75,-33.56,2.06,270.74,-82.9,-172.8
52.20201,-2.200019,131.08,11.71,3,75.32,23 / 23,13957909,2020-01-08 16:08:01:503,0.6356,1.5861,8.6597,0.0763,-0.0211,9.8063,-0.1428,0.3287,-0.137,-19.06,-33.94,1.69,269.92,-82.77,-173.03
52.20201,-2.200019,131.08,11.71,3,75.32,23 / 23,13958009,2020-01-08 16:08:01:603,1.3988,-0.6981,11.7274,0.0197,-0.0797,9.8063,0.0506,0.3273,-0.2,-19.31,-34.56,1.38,266.69,-82.72,-172.78
52.20201,-2.200019,131.08,11.71,3,75.32,23 / 23,13958109,2020-01-08 16:08:01:703,-0.775,2.496,9.9998,0.0335,-0.0446,9.8064,-0.0581,0.1692,0.0154,-18.87,-34.37,1.69,275.1,-82.54,-167.44
52.20201,-2.200019,131.08,11.71,3,75.32,23 / 23,13958210,2020-01-08 16:08:01:804,2.7448,0.5122,11.3807,0.024,-0.0194,9.8065,0.1648,0.2754,-0.1096,-18.62,-34.25,1.06,274.26,-82.2,-164.59
52.20201,-2.200019,131.08,11.71,3,75.32,23 / 23,13958310,2020-01-08 16:08:01:904,0.9559,1.6212,8.983,0.0505,-0.0151,9.8065,-0.0825,0.1676,-0.026,-19.06,-33.69,0.94,273.22,-81.85,-164.94
52.20201,-2.200019,131.08,11.71,3,75.32,23 / 23,13958409,2020-01-08 16:08:02:003,0.6257,-4.0688,6.203,-0.0789,-0.0237,9.8063,0.4291,0.4864,0.0384,-20.19,-33.44,0.81,275.08,-81.76,-163.97
52.20201,-2.200019,131.08,11.71,3,75.32,23 / 23,13958510,2020-01-08 16:08:02:104,-1.4648,1.0659,8.0214,-0.0036,-0.1419,9.8056,-0.013,0.561,-0.7906,-19.81,-31.94,1.13,279.38,-81.9,-160.43
52.20201,-2.200019,131.08,11.71,3,75.32,23 / 23,13958610,2020-01-08 16:08:02:204,0.4717,-3.1139,11.8228,0.0035,-0.175,9.805,0.3379,0.5836,-0.9089,-20.62,-32.06,1.31,273.81,-82.02,-166.58
52.20201,-2.200019,131.08,11.71,3,75.32,23 / 23,13958710,2020-01-08 16:08:02:304,0.7897,4.6171,10.7893,0.0127,-0.0136,9.8066,0.0701,0.2319,0.1048,-20.81,-32,1,276.46,-81.83,-163.66
52.20201,-2.200019,131.08,11.71,3,75.32,23 / 23,13958810,2020-01-08 16:08:02:404,1.5457,2.5367,11.051,-0.0241,-0.0549,9.8065,0.1228,0.4014,-0.0437,-20.44,-33.19,0.69,279.98,-81.59,-158.9
52.20201,-2.200019,131.08,11.71,3,75.32,23 / 23,13958910,2020-01-08 16:08:02:504,-0.7278,0.8423,9.4238,0.0028,-0.0214,9.8066,-0.1092,0.1464,-0.1979,-21.06,-33.31,1.19,281.77,-81.54,-157.62
52.20201,-2.200019,131.08,11.71,3,75.32,23 / 23,13959010,2020-01-08 16:08:02:604,1.1301,-0.1265,13.2858,0.0832,0.0117,9.8062,-0.2895,0.1304,-0.2198,-19.69,-33.62,1.38,280.72,-81.95,-158.4
52.20201,-2.200019,131.08,11.71,3,75.32,23 / 23,13959110,2020-01-08 16:08:02:704,1.6721,-5.4963,8.1622,0.091,0.1166,9.8054,-0.4448,-0.2939,0.3001,-20.06,-33.06,0.81,276.07,-81.71,-162.91
52.20201,-2.200019,131.08,11.71,3,75.32,23 / 23,13959210,2020-01-08 16:08:02:804,2.2886,-2.2,11.4528,0.0145,-0.0714,9.8063,0.1602,0.5112,-0.2263,-20.12,-33.87,1.25,279.59,-81.45,-158.59
52.20201,-2.200019,131.08,11.71,3,75.32,23 / 23,13959311,2020-01-08 16:08:02:905,1.5116,1.3182,11.5983,0.0041,-0.0449,9.8065,0.183,0.069,-0.1107,-20.25,-34.12,1.63,283.02,-81.35,-158.03
52.20201,-2.200019,131.08,11.71,3,75.32,23 / 23,13959410,2020-01-08 16:08:03:004,-0.1397,1.1784,8.5911,-0.0228,-0.0473,9.8065,0.1291,-0.0671,-0.0409,-20.31,-34.62,1.69,281.73,-80.93,-158.06
52.20201,-2.200019,131.08,11.71,3,75.32,23 / 23,13959510,2020-01-08 16:08:03:104,0.0382,-2.5421,11.4513,-0.068,0.0225,9.8064,0.2186,-0.1859,0.2104,-20.87,-34.69,2.44,284.89,-80.95,-155.58
52.20201,-2.200019,131.08,11.71,3,75.32,23 / 23,13959610,2020-01-08 16:08:03:204,-1.0248,-2.5406,10.4639,0.037,-0.0283,9.8065,-0.0158,0.688,-0.2462,-21.19,-34.69,1.81,285.24,-80.74,-154.9
52.20201,-2.200019,131.08,11.71,3,75.32,23 / 23,13959710,2020-01-08 16:08:03:304,-0.9145,5.9094,9.9935,0.0223,-0.0417,9.8065,0.0821,0.2881,-0.4189,-20.5,-34.06,2.44,284.21,-80.44,-155.29
52.20201,-2.200019,131.08,11.71,3,75.32,23 / 23,13959810,2020-01-08 16:08:03:404,-0.4786,1.2583,9.6053,0.0382,-0.0021,9.8065,-0.0394,0.2602,-0.1895,-20.31,-34.37,1.94,279.38,-80.08,-159.23
52.20201,-2.200019,131.08,11.71,3,75.32,23 / 23,13959910,2020-01-08 16:08:03:504,-0.5352,2.7028,10.3215,-0.0005,0.0138,9.8066,0.0591,0.3072,-0.2166,-19.44,-34.56,2.38,277.07,-80.11,-160.35
52.20201,-2.200019,131.08,11.71,3,75.32,23 / 23,13960010,2020-01-08 16:08:03:604,0.0975,-1.2036,10.5279,0.007,-0.0057,9.8066,0.1025,-0.1129,-0.0417,-19.44,-34.62,2.81,278.58,-80.22,-162.22
52.20201,-2.200019,131.08,11.71,3,75.32,23 / 23,13960110,2020-01-08 16:08:03:704,0.7198,5.1615,9.9163,0.0016,-0.0476,9.8065,0.2916,0.6391,-0.1567,-19.81,-34.31,2.69,280.09,-80.12,-161.54
52.20201,-2.200019,131.08,11.71,3,75.32,23 / 23,13960210,2020-01-08 16:08:03:804,-0.7757,-4.151,8.6982,-0.0028,0.0112,9.8066,-0.1234,-0.3749,0.3084,-19.5,-34.81,1.94,276.38,-79.82,-160.45
52.20201,-2.200019,131.08,11.71,3,75.32,24 / 24,13960310,2020-01-08 16:08:03:904,-1.745,-2.3121,8.6562,0.0103,-0.0907,9.8062,-0.0751,-0.1582,-0.0731,-20.31,-34.56,2.81,282.2,-79.73,-158.31
52.20201,-2.200019,131.08,11.71,3,75.32,24 / 24,13960409,2020-01-08 16:08:04:003,-0.5283,-2.6724,8.438,-0.0384,-0.0195,9.8065,0.009,-0.0637,0.1773,-20.62,-34.37,2.56,284.68,-79.77,-156.99
52.20201,-2.200019,131.08,11.71,3,75.32,24 / 24,13960510,2020-01-08 16:08:04:104,-1.5385,2.1728,9.1675,-0.0492,-0.0364,9.8064,0.009,0.185,-0.0779,-20.81,-33.94,2.63,288.68,-80.02,-153.7
52.20201,-2.200019,131.08,11.71,3,75.32,24 / 24,13960609,2020-01-08 16:08:04:203,-1.9964,-0.531,9.617,-0.0139,-0.0082,9.8066,0.0815,-0.1212,-0.1208,-21.19,-34.56,2.13,286.18,-80.11,-152.93
52.20201,-2.200019,131.08,11.71,3,75.32,24 / 24,13960710,2020-01-08 16:08:04:304,0.134,0.141,12.2579,-0.0119,-0.0045,9.8065,0.3022,-0.1081,0.0917,-21,-34.75,2,284.97,-80.1,-154.02
52.20201,-2.200019,131.08,11.71,3,75.32,24 / 24,13960810,2020-01-08 16:08:04:404,-0.1016,0.6696,10.1709,0.0167,0.0662,9.8064,0.0186,-0.0217,0.2631,-20.81,-35.12,2.75,283.26,-79.69,-157.69
52.20201,-2.200019,131.08,11.71,3,75.32,24 / 24,13960910,2020-01-08 16:08:04:504,1.5048,2.029,9.8914,0.0016,-0.0287,9.8065,0.0926,0.0765,-0.2549,-20.12,-34.75,2.88,283.1,-79.42,-156.87
52.20201,-2.200019,131.08,11.71,3,75.32,24 / 24,13961009,2020-01-08 16:08:04:603,-1.4796,0.9287,8.7629,-0.0313,-0.0708,9.8063,-0.0507,0.0926,-0.2825,-20.62,-35.12,3.19,281.97,-79.46,-158.5
52.20201,-2.200019,131.08,11.71,3,75.32,24 / 24,13961110,2020-01-08 16:08:04:704,-0.3258,-0.7932,10.7399,-0.0198,0.0167,9.8065,0.0326,0.0385,0.2028,-21.19,-34.75,2.38,281.52,-79.84,-156.81
52.20201,-2.200019,131.08,11.71,3,75.32,24 / 24,13961210,2020-01-08 16:08:04:804,-1.8157,-1.214,8.62,-0.0126,0.0349,9.8066,0.1663,0.1731,0.1527,-20.75,-34.37,3,286.16,-79.69,-155.48
52.20201,-2.200019,131.08,11.71,3,75.32,24 / 24,13961310,2020-01-08 16:08:04:904,-0.6217,1.9375,9.909,0.0254,-0.0554,9.8064,-0.0276,-0.0012,0.1514,-20.31,-34.31,3.31,284.76,-79.49,-156
52.20201,-2.200019,131.08,11.71,3,75.32,24 / 24,13961410,2020-01-08 16:08:05:004,0.8958,0.045,9.4555,-0.0051,-0.0193,9.8066,-0.0992,-0.0478,-0.0096,-20.19,-34.25,3.25,282.74,-79.61,-158.11
52.20201,-2.200019,131.08,11.71,3,75.32,24 / 24,13961510,2020-01-08 16:08:05:104,-0.9735,-0.1589,10.7859,-0.0115,0.0272,9.8065,-0.0393,-0.1313,-0.0793,-20.94,-33.5,2.63,283.08,-79.8,-159.03
52.20201,-2.200019,131.08,11.71,3,75.32,24 / 24,13961609,2020-01-08 16:08:05:203,1.3959,-1.3856,10.2916,0.0068,-0.0081,9.8066,0.0086,-0.29,0.2127,-20.31,-34.19,2.63,281.65,-79.66,-159.23
52.20201,-2.200019,131.08,11.71,3,75.32,24 / 24,13961709,2020-01-08 16:08:05:303,0.3283,1.9142,10.2738,-0.003,-0.0458,9.8065,0.0153,-0.0375,0.1351,-21.69,-34.19,2.88,282.91,-79.56,-158.7
52.20201,-2.200019,131.08,11.71,3,75.32,24 / 24,13961810,2020-01-08 16:08:05:404,-1.588,-1.7877,8.3021,-0.0241,-0.0298,9.8065,-0.1012,-0.2645,0.0645,-20.69,-34.81,3.13,280.72,-79.62,-159.97
52.20201,-2.200019,131.08,11.71,3,75.32,24 / 24,13961910,2020-01-08 16:08:05:504,-0.3224,1.12,10.0164,-0.0021,-0.0068,9.8066,-0.0791,0.0434,0.0247,-20.75,-34.56,2.56,281.12,-79.6,-159.56
52.20201,-2.200019,131.08,11.71,3,75.32,24 / 24,13962010,2020-01-08 16:08:05:604,3.2138,2.6635,14.8873,0.0325,-0.0291,9.8065,0.4151,0.1455,0.0483,-20.94,-34.5,3.69,284.4,-79.41,-159.43
52.20201,-2.200019,131.08,11.71,3,75.32,24 / 24,13962110,2020-01-08 16:08:05:704,1.0394,-3.3567,7.7188,0.1076,0.0527,9.8059,-0.4364,-0.4672,0.3838,-21.12,-35,3.5,280.84,-79.09,-161.71
52.20201,-2.200019,131.08,11.71,3,75.32,24 / 24,13962210,2020-01-08 16:08:05:804,-0.5528,-6.9872,7.5934,-0.0607,-0.1044,9.8058,-0.0633,-0.0863,0.0654,-20.62,-34.75,2.94,277.76,-79.46,-162.53
52.20201,-2.200019,131.08,11.71,3,75.32,23 / 24,13962310,2020-01-08 16:08:05:904,0.2095,-0.6267,11.3749,-0.0592,-0.0232,9.8064,-0.1778,-0.2698,0.3041,-21,-34.62,3.06,280.84,-79.95,-160.44
52.20201,-2.200019,131.08,11.71,3,75.32,23 / 24,13962410,2020-01-08 16:08:06:004,-1.3145,-0.776,7.7658,-0.0003,-0.0002,9.8066,-0.2516,-0.0953,0.0434,-21.06,-34.37,3.19,280.37,-79.99,-161.46
52.20201,-2.200019,131.08,11.71,3,75.32,23 / 24,13962509,2020-01-08 16:08:06:103,-2.3169,1.1587,9.1944,-0.0248,-0.0223,9.8066,0.1778,-0.0353,0.1491,-20.75,-34.06,2.44,277.18,-79.98,-161.74
52.20201,-2.200019,131.08,11.71,3,75.32,23 / 24,13962610,2020-01-08 16:08:06:204,-2.4092,-2.9307,7.067,0.0487,0.0003,9.8064,-0.1053,-0.2196,-0.0486,-21.19,-34,3.06,279.65,-79.74,-161.7
52.20201,-2.200019,131.08,11.71,3,75.32,23 / 24,13962710,2020-01-08 16:08:06:304,-0.635,3.8809,8.9293,-0.0274,-0.0215,9.8065,0.0939,0.0905,-0.4122,-21.06,-33.62,2.25,279.49,-79.93,-159.41
52.20201,-2.200019,131.08,11.71,3,75.32,23 / 24,13962810,2020-01-08 16:08:06:404,0.7274,-0.5447,11.4323,0.0375,0.0196,9.8065,0.1505,-0.2427,0.3743,-21.25,-33.56,2.31,281.02,-80.22,-158.46
52.20201,-2.200019,131.08,11.71,3,75.32,23 / 24,13962910,2020-01-08 16:08:06:504,-2.2174,1.3796,9.1203,0.0495,-0.0134,9.8064,0.1267,0.37,-0.141,-20.06,-34.12,1.25,275.96,-80.18,-159.83
52.20201,-2.200019,131.08,11.71,3,75.32,23 / 24,13963010,2020-01-08 16:08:06:604,-1.4255,2.0802,12.0745,0.0382,0.0711,9.8063,0.358,0.1898,-0.2779,-19.94,-34.81,1.75,278.21,-80.37,-160.39
52.20201,-2.200019,131.08,11.71,3,75.32,23 / 24,13963109,2020-01-08 16:08:06:703,0.793,-3.8771,9.268,0.0681,0.0558,9.8062,-0.0532,0.3726,-0.2959,-20.12,-35.06,2.13,274.49,-80.02,-163.36
52.20201,-2.200019,131.08,11.71,3,75.32,23 / 24,13963210,2020-01-08 16:08:06:804,-0.4835,-0.2229,12.014,-0.0375,0.0357,9.8065,0.1587,0.2867,-0.1476,-19.81,-35.56,2.38,274.68,-80.35,-163.29
52.20201,-2.200019,131.08,11.71,3,75.32,23 / 23,13963310,2020-01-08 16:08:06:904,0.1079,-4.195,8.6215,0.031,0.0159,9.8065,-0.2257,0.2343,-0.0012,-19.75,-35.87,2.06,275.23,-80.28,-162.61
52.20201,-2.200019,131.08,11.71,3,75.32,23 / 23,13963410,2020-01-08 16:08:07:004,-0.8023,0.0827,9.2456,-0.0337,0.0158,9.8065,0.0995,0.3452,-0.3481,-20.44,-35.44,2.38,278.34,-80.43,-160.37
52.20201,-2.200019,131.08,11.71,3,75.32,23 / 23,13963509,2020-01-08 16:08:07:103,0.2847,-2.5813,9.4942,-0.0215,0.084,9.8062,-0.1122,0.0121,-0.0982,-20.25,-35.5,2.63,279.92,-80.91,-162.67
52.20201,-2.200019,131.08,11.71,3,75.32,23 / 23,13963610,2020-01-08 16:08:07:204,-1.7583,0.5428,8.7931,-0.0543,0.0268,9.8064,-0.167,0.1514,-0.1779,-19.56,-35.37,2.38,275.79,-81.36,-164.61
52.20201,-2.200019,131.08,11.71,3,75.32,23 / 23,13963710,2020-01-08 16:08:07:304,-0.8953,2.2803,11.4506,-0.023,-0.0149,9.8065,-0.0262,-0.3275,0.124,-19,-36.31,1.75,273.77,-81.36,-165.6
52.20201,-2.200019,131.08,11.71,3,75.32,23 / 23,13963810,2020-01-08 16:08:07:404,-2.1895,1.1843,8.4742,0.0218,-0.0339,9.8065,-0.0809,-0.2567,0.2103,-19.87,-35.94,2,272.97,-81.45,-167.12
52.20201,-2.200019,131.08,11.71,3,75.32,23 / 23,13963910,2020-01-08 16:08:07:504,-0.9359,3.7389,9.08,-0.0021,-0.0586,9.8064,0.0117,-0.6001,0.3456,-19.31,-35.75,2.38,274.66,-81.36,-164.72
52.20201,-2.200019,131.08,11.71,3,75.32,23 / 23,13964009,2020-01-08 16:08:07:603,-0.443,-5.3826,9.8979,0.02,-0.0808,9.8062,-0.018,-0.3551,0.3329,-20.31,-35.94,2.06,275.84,-81.6,-164.56
52.20201,-2.200019,131.08,11.71,3,75.32,23 / 23,13964110,2020-01-08 16:08:07:704,-0.4056,0.1098,9.5558,-0.0386,-0.0241,9.8064,0.0243,-0.2429,0.2166,-20,-35.25,1.69,279.08,-81.91,-162.4
52.20201,-2.200019,131.08,11.71,3,75.32,23 / 23,13964209,2020-01-08 16:08:07:803,0.1331,-1.8919,8.1055,-0.0133,-0.0102,9.8066,-0.1127,-0.1334,0.0117,-20.25,-35.5,0.38,276.25,-82.46,-160.37
52.20201,-2.200019,131.08,11.71,3,75.32,22 / 23,13964309,2020-01-08 16:08:07:903,-3.1621,1.293,8.7158,-0.0625,0.0103,9.8064,0.1952,0.0843,-0.1574,-19.75,-36.12,0.25,276.37,-83.24,-161.34
52.20201,-2.200019,131.08,11.71,3,75.32,22 / 23,13964409,2020-01-08 16:08:08:003,-0.4615,2.9226,12.056,0.0549,0.0288,9.8064,-0.0794,-0.2072,0.0987,-19.87,-35.87,0.63,278.59,-83.5,-162.53
52.20201,-2.200019,131.08,11.71,3,75.32,22 / 23,13964510,2020-01-08 16:08:08:104,-1.0334,0.9353,11.9799,0.002,-0.0524,9.8065,0.2116,-0.0523,0.0636,-19.19,-35.56,0,274.33,-83.12,-162.45
52.20201,-2.200019,131.08,11.71,3,75.32,22 / 23,13964610,2020-01-08 16:08:08:204,3.7596,-3.9121,11.4703,0.1318,-0.0826,9.8054,0.1407,-0.5661,0.3687,-19.81,-36.37,-0.94,272.59,-83.51,-162.75
52.20201,-2.200019,131.08,11.71,3,75.32,22 / 23,13964710,2020-01-08 16:08:08:304,-0.3334,3.1437,10.8212,0.1207,-0.0247,9.8058,-0.497,0.5785,-0.3069,-19.31,-36.12,-0.62,277.91,-82.89,-155.49
52.20201,-2.200019,131.08,11.71,3,75.32,22 / 23,13964810,2020-01-08 16:08:08:404,1.0602,-12.1294,10.5887,-0.1632,0.0137,9.8052,-0.4444,-1.1895,0.6955,-19.62,-35.5,0.31,288.55,-84.13,-151.55
52.20201,-2.200019,131.08,11.71,3,75.32,22 / 23,13964910,2020-01-08 16:08:08:504,-1.1219,14.3996,8.2138,-0.02,-0.2337,9.8038,-0.6245,0.2839,-0.2828,-18.87,-35.81,-2.56,286.68,-83.82,-143.07
52.20201,-2.200019,131.08,11.71,3,75.32,22 / 23,13965010,2020-01-08 16:08:08:604,-2.709,0.6322,5.1072,-0.1549,-0.0484,9.8052,-0.6962,-0.9281,0.9413,-19.37,-35.69,-2.06,281.24,-84.96,-153.32
52.20201,-2.200019,131.08,11.71,3,75.32,22 / 23,13965110,2020-01-08 16:08:08:704,0.6657,10.0835,7.5391,-0.0895,-0.1988,9.8042,-0.3835,0.8876,-0.5132,-18.87,-35.19,-2.5,293.89,-86.08,-143.46
52.20201,-2.200019,131.08,11.71,3,75.32,22 / 23,13965210,2020-01-08 16:08:08:804,1.4585,0.051,5.2479,-0.1623,0.0113,9.8052,-0.6743,0.0141,0.287,-19.06,-35.25,-4.56,292.39,-87.4,-138.56
52.202343,-2.198283,129.99,13.46,2,67.83,23 / 23,13965310,2020-01-08 16:08:08:904,-0.1502,-0.4261,9.9315,-0.1249,-0.136,9.8048,-0.2166,0.6114,-0.2577,-18.87,-34.94,-4.75,318.92,-87.68,-113.59
52.202343,-2.198283,129.99,13.46,2,67.83,23 / 23,13965409,2020-01-08 16:08:09:003,-0.9713,0.4888,6.4575,-0.0684,-0.057,9.8062,-0.346,0.0651,0.0214,-19.37,-35.31,-7.37,326.16,-88.24,-101.92
52.202343,-2.198283,129.99,13.46,2,67.83,23 / 23,13965510,2020-01-08 16:08:09:104,-1.5401,-0.9518,7.7686,-0.0494,-0.0748,9.8062,0.2614,0.2953,-0.3643,-18.37,-34.69,-6.31,341.14,-88.42,-89.47
52.202343,-2.198283,129.99,13.46,2,67.83,23 / 23,13965610,2020-01-08 16:08:09:204,0.7196,-1.777,9.1022,-0.0395,0.045,9.8064,0.2561,-0.0222,0.072,-18.37,-35.56,-7.75,350.82,-88.45,-74.76
52.202343,-2.198283,129.99,13.46,2,67.83,23 / 23,13965710,2020-01-08 16:08:09:304,2.1371,-2.0142,9.8876,-0.059,-0.0794,9.8061,0.1844,0.111,0.0292,-18.62,-36.19,-7.37,354.42,-88.41,-75.08
52.202343,-2.198283,129.99,13.46,2,67.83,23 / 23,13965810,2020-01-08 16:08:09:404,4.1239,-0.5192,10.8936,0.0568,0.014,9.8064,0.038,-0.0088,-0.0994,-17.94,-35.75,-8.06,350.08,-88.23,-75.4
52.202343,-2.198283,129.99,13.46,2,67.83,23 / 23,13965910,2020-01-08 16:08:09:504,-1.4115,2.4043,9.863,-0.0496,0.0006,9.8065,-0.0663,-0.0792,0.0048,-17.62,-35.94,-8.37,2.79,-88.7,-63.37
52.202343,-2.198283,129.99,13.46,2,67.83,23 / 23,13966009,2020-01-08 16:08:09:603,-1.0937,-2.1869,8.4323,0.0063,0.0483,9.8065,-0.1765,-0.1612,0.2048,-17.81,-35.75,-8.19,8.89,-88.67,-57.52
52.202343,-2.198283,129.99,13.46,2,67.83,23 / 23,13966110,2020-01-08 16:08:09:704,-0.2745,2.5571,10.4128,0.0255,0.0012,9.8065,-0.0179,-0.1668,0.0858,-17.06,-35.37,-7.31,358.99,-88.59,-68.58
52.202343,-2.198283,129.99,13.46,2,67.83,23 / 23,13966210,2020-01-08 16:08:09:804,1.7619,-0.9919,10.6911,0.0075,0.0465,9.8065,-0.1464,-0.3813,0.3943,-18.19,-34.81,-7.44,352.07,-88.4,-76.27
52.202343,-2.198283,129.99,13.46,2,67.83,23 / 23,13966310,2020-01-08 16:08:09:904,0.8806,3.5306,10.2057,0.0055,0.0435,9.8065,-0.2026,-0.0897,0.1198,-18.25,-34.62,-7.44,353.06,-87.84,-75.21
52.202343,-2.198283,129.99,13.46,2,67.83,23 / 23,13966410,2020-01-08 16:08:10:004,-0.6601,-1.2882,8.8098,-0.0139,0.0422,9.8065,-0.1037,-0.3107,0.1494,-18.62,-35.25,-7.31,359.32,-87.91,-70.41
52.202343,-2.198283,129.99,13.46,2,67.83,23 / 23,13966509,2020-01-08 16:08:10:103,-1.1279,1.266,8.3931,0.0013,0.0429,9.8065,-0.1725,-0.0907,0.0728,-17.94,-34.94,-7.81,357.99,-87.98,-67.92
52.202343,-2.198283,129.99,13.46,2,67.83,23 / 23,13966609,2020-01-08 16:08:10:203,1.6449,-1.7201,10.3782,-0.0438,0.0485,9.8064,0.0368,-0.1941,0.2708,-17.81,-34.44,-8,3.96,-87.93,-62.33
52.202343,-2.198283,129.99,13.46,2,67.83,23 / 23,13966709,2020-01-08 16:08:10:303,-0.411,-0.3958,8.4828,-0.0263,-0.0112,9.8066,0.116,0.1425,0.0027,-18.75,-35.12,-8.5,2.57,-87.72,-64.77
52.202343,-2.198283,129.99,13.46,2,67.83,23 / 23,13966810,2020-01-08 16:08:10:404,2.8244,-3.2124,11.4026,-0.0289,-0.0427,9.8065,0.2382,-0.1644,-0.1802,-19.5,-34.62,-7.62,5.69,-87.56,-61.89
52.202343,-2.198283,129.99,13.46,2,67.83,23 / 23,13966910,2020-01-08 16:08:10:504,-0.0033,-1.4431,8.8887,0.0493,-0.033,9.8064,-0.134,0.1263,-0.1823,-18.69,-35.5,-7.94,4.54,-87.83,-62.92
52.202343,-2.198283,129.99,13.46,2,67.83,23 / 23,13967009,2020-01-08 16:08:10:603,2.5995,-2.6306,10.4611,-0.0305,0.0279,9.8065,-0.0244,0.0874,0.1852,-18.56,-33.87,-7.69,1.95,-87.82,-65.34
52.202343,-2.198283,129.99,13.46,2,67.83,23 / 23,13967110,2020-01-08 16:08:10:704,1.8718,-1.3875,10.6799,-0.0318,0.0541,9.8064,0.1628,0.0506,0.1158,-18.5,-34.62,-7.62,9.06,-87.95,-57.56
52.202343,-2.198283,129.99,13.46,2,67.83,23 / 23,13967210,2020-01-08 16:08:10:804,0.1656,3.6278,8.4183,0.053,-0.0619,9.8063,-0.0568,0.2307,-0.4691,-18.37,-34.56,-7.37,2.95,-88.06,-65.99
52.202343,-2.198283,129.99,13.46,2,67.83,23 / 23,13967309,2020-01-08 16:08:10:903,1.4377,-1.4046,9.425,0.0248,-0.064,9.8064,-0.0168,0.0515,-0.2203,-18.62,-34.62,-7.31,13.42,-88.44,-56.98
52.202343,-2.198283,129.99,13.46,2,67.83,23 / 23,13967410,2020-01-08 16:08:11:004,1.2244,0.7662,10.1612,-0.0075,-0.0389,9.8065,0.0368,-0.1149,-0.1016,-18.75,-34.56,-7.56,1.1,-87.84,-66.14
52.202343,-2.198283,129.99,13.46,2,67.83,23 / 23,13967510,2020-01-08 16:08:11:104,2.0572,-0.1866,10.0641,0.0115,-0.0009,9.8066,-0.023,0.0506,0.1442,-18.5,-34.44,-7.5,3.73,-87.71,-65.28
52.202343,-2.198283,129.99,13.46,2,67.83,23 / 23,13967610,2020-01-08 16:08:11:204,1.0512,-0.2407,9.1547,-0.0169,-0.0077,9.8066,0.0432,-0.1924,0.1746,-18.75,-34.81,-7.5,1.53,-87.4,-68.37
52.202343,-2.198283,129.99,13.46,2,67.83,23 / 23,13967710,2020-01-08 16:08:11:304,4.0868,-5.8275,11.2909,0.0123,0.0517,9.8064,-0.1868,-0.9777,0.2433,-19.44,-34.5,-7.44,3.05,-87.61,-66.94
52.202343,-2.198283,129.99,13.46,2,67.83,23 / 23,13967810,2020-01-08 16:08:11:404,-1.6332,4.6934,8.5809,0.0322,0.0292,9.8065,-0.357,0.2198,0.0284,-18.62,-35.19,-7.69,7.58,-87.03,-60.26
52.202343,-2.198283,129.99,13.46,2,67.83,23 / 23,13967909,2020-01-08 16:08:11:503,-0.1729,0.131,9.7592,-0.0284,0.1087,9.806,-0.134,-0.1445,0.0807,-18.62,-34.94,-7.94,8.72,-87.14,-59.19
52.202343,-2.198283,129.99,13.46,2,67.83,23 / 23,13968009,2020-01-08 16:08:11:603,0.3354,2.0656,10.503,-0.0085,-0.0768,9.8063,0.3077,0.3752,-0.5028,-18.06,-34.87,-7.5,11.16,-86.92,-58.68
52.202343,-2.198283,129.99,13.46,2,67.83,23 / 23,13968110,2020-01-08 16:08:11:704,1.199,1.6577,11.0715,-0.0161,-0.0043,9.8065,0.2416,0.1501,-0.201,-19.06,-34.75,-6.44,15,-87.65,-58.55
52.202343,-2.198283,129.99,13.46,2,67.83,23 / 23,13968210,2020-01-08 16:08:11:804,-0.6556,-3.8672,7.7962,-0.0668,-0.0491,9.8063,0.174,0.3666,-0.0607,-18.87,-35.06,-7.19,17.1,-87.84,-53.78
52.202343,-2.198283,129.99,13.46,2,67.83,22 / 23,13968310,2020-01-08 16:08:11:904,1.5631,0.6435,9.5126,-0.0194,-0.1419,9.8056,0.3352,0.6119,-0.6722,-19.19,-35.12,-6.75,20.1,-87.17,-51.38
52.202343,-2.198283,129.99,13.46,2,67.83,22 / 23,13968410,2020-01-08 16:08:12:004,1.4945,-9.3664,8.1727,-0.0029,-0.1477,9.8055,0.0702,0.2665,-0.3651,-18.81,-34.5,-6.69,27.47,-87.75,-44.06
52.202343,-2.198283,129.99,13.46,2,67.83,22 / 23,13968509,2020-01-08 16:08:12:103,0.675,3.6121,10.5235,0.011,-0.1039,9.806,0.087,0.4996,-0.3882,-18.44,-34.94,-6.56,20.52,-87.32,-49.95
52.202343,-2.198283,129.99,13.46,2,67.83,22 / 23,13968610,2020-01-08 16:08:12:204,-0.3656,-1.23,9.2398,-0.0147,0.0364,9.8065,0.0786,-0.0743,0.1172,-18.69,-35,-6.56,33.58,-87.78,-38.34
52.202343,-2.198283,129.99,13.46,2,67.83,22 / 23,13968710,2020-01-08 16:08:12:304,-1.1946,4.2326,9.9876,0.0041,-0.0809,9.8063,0.1324,0.5432,-0.4428,-18.31,-35,-7.25,28.17,-87.76,-42.52
52.202343,-2.198283,129.99,13.46,2,67.83,22 / 23,13968810,2020-01-08 16:08:12:404,1.6706,-2.2169,9.4243,0.0384,0.0005,9.8065,-0.2365,-0.5202,-0.0168,-18.44,-34.94,-6.69,41.31,-87.88,-30
52.202343,-2.198283,129.99,13.46,2,67.83,22 / 23,13968910,2020-01-08 16:08:12:504,2.1976,-2.9319,9.6798,-0.0112,-0.0117,9.8066,0.1191,0.1163,0.1906,-18,-34.81,-6.62,39.06,-87.96,-32.04
52.202343,-2.198283,129.99,13.46,2,67.83,22 / 23,13969010,2020-01-08 16:08:12:604,0.6824,-3.9521,10.5322,-0.0597,0.0309,9.8063,0.1525,-0.1806,0.17,-18.87,-35.12,-6.56,27.92,-87.89,-43.57
52.202343,-2.198283,129.99,13.46,2,67.83,22 / 23,13969110,2020-01-08 16:08:12:704,1.3911,1.6245,10.5227,-0.021,-0.0518,9.8064,0.0783,0.0993,-0.3592,-18.75,-34.87,-6.5,42.97,-87.78,-32.2
52.202343,-2.198283,129.99,13.46,2,67.83,22 / 23,13969210,2020-01-08 16:08:12:804,1.3569,1.9561,11.0479,0.0265,0.0571,9.8064,-0.3954,-0.4187,-0.0215,-18.06,-34.94,-6,65.35,-88.16,-9.31
52.202343,-2.198283,129.99,13.46,2,67.83,23 / 23,13969311,2020-01-08 16:08:12:905,-0.593,1.3225,12.0755,-0.0555,0.0654,9.8062,-0.1032,-0.1114,0.3103,-17.94,-34.69,-6.5,78.98,-87.96,3.71
52.202343,-2.198283,129.99,13.46,2,67.83,23 / 23,13969410,2020-01-08 16:08:13:004,3.2717,-0.6781,11.5581,0.0457,0.1189,9.8057,-0.0363,-0.0598,0.2367,-17.94,-35.25,-5.69,70.58,-87.99,-4.49
52.202343,-2.198283,129.99,13.46,2,67.83,23 / 23,13969510,2020-01-08 16:08:13:104,0.2196,-0.2758,10.0456,0.0799,0.0033,9.8063,-0.1196,-0.1179,-0.1882,-17.5,-35,-5.62,90.81,-88.6,17.53
52.202343,-2.198283,129.99,13.46,2,67.83,23 / 23,13969610,2020-01-08 16:08:13:204,-1.2945,-1.5923,11.8338,0.0074,0.0212,9.8066,0.097,0.1464,-0.0863,-17.31,-35.06,-6,104.01,-88.43,30.5
52.202343,-2.198283,129.99,13.46,2,67.83,23 / 23,13969710,2020-01-08 16:08:13:304,-0.7881,-3.7094,6.993,0.1143,0.0681,9.8057,-0.1755,0.0428,-0.1401,-17.31,-35.19,-6.69,128.84,-88.75,59.37
52.202343,-2.198283,129.99,13.46,2,67.83,23 / 23,13969810,2020-01-08 16:08:13:404,1.4977,-1.7831,10.2183,-0.0699,-0.1131,9.8057,0.4854,0.4983,-0.4328,-19.31,-34.62,-5.87,159.2,-88.43,85.75
