GPS LATITUDE (degrees), GPS LONGITUDE (degrees), GPS ALTITUDE (m), GPS SPEED (Kmh), GPS ACCURACY (m), GPS ORIENTATION (Â°),GPS SATELLITES IN RANGE, TIME SINCE START (ms), DATE (YYYY-MO-DD HH-MI-SS_SSS), ACCELEROMETER X (m/s²) , ACCELEROMETER Y (m/s²), ACCELEROMETER Z (m/s²), GRAVITY X (m/s²), GRAVITY Y (m/s²), GRAVITY Z (m/s²), GYROSCOPE Yaw (rad/s), GYROSCOPE Pitch (rad/s), GYROSCOPE Roll (rad/s), MAGNETIC FIELD X (Î¼T), MAGNETIC FIELD Y (Î¼T), MAGNETIC FIELD Z (Î¼T), ORIENTATION (Yaw) (Â°), ORIENTATION (Pitch) (Â°), ORIENTATION (Roll ) (Â°)
52.23328,-2.138977,124.32,24.09,2,20.82,22 / 22,5,2020-01-08 16:17:20:205,-0.2621,-2.21,9.5948,0.0535,0.0237,9.8064,-0.096,-0.0099,-0.0467,-12.87,-32.94,-11.25,262.61,-85.56,-138.59
52.23328,-2.138977,124.32,24.09,2,20.82,22 / 22,105,2020-01-08 16:17:20:305,-1.2349,1.8131,10.2659,-0.0156,0.0062,9.8066,0.0861,-0.286,-0.0486,-11.94,-33.75,-10.06,259.29,-85.53,-141.3
52.23328,-2.138977,124.32,24.09,2,20.82,22 / 22,205,2020-01-08 16:17:20:405,0.4871,-1.9677,8.3698,-0.05,0.0762,9.8062,-0.2685,-0.3022,0.3009,-10.62,-34.31,-10.31,252.52,-85.74,-145.91
52.23328,-2.138977,124.32,24.09,2,20.82,22 / 22,305,2020-01-08 16:17:20:505,-2.8322,1.6392,7.4344,-0.0148,0.0707,9.8063,-0.347,-0.2121,0.0478,-9.62,-34.56,-11.12,246.62,-85.88,-146.76
52.23328,-2.138977,124.32,24.09,2,20.82,22 / 22,405,2020-01-08 16:17:20:605,1.5837,-2.4452,8.7402,-0.0724,0.0663,9.8061,-0.1554,-0.2603,0.3972,-10.25,-35.19,-12,246.36,-86.12,-145.48
52.23328,-2.138977,124.32,24.09,2,20.82,22 / 22,505,2020-01-08 16:17:20:705,0.1364,0.8405,11.3391,0.018,0.0425,9.8064,-0.0119,0.0253,0.015,-9.75,-35.69,-10.81,247.9,-85.72,-144.77
52.23328,-2.138977,124.32,24.09,2,20.82,22 / 22,605,2020-01-08 16:17:20:805,2.1154,-2.7112,8.3655,0.0381,0.0711,9.8062,-0.2208,-0.2336,0.045,-9.62,-34.87,-11,247.24,-85.59,-145.45
52.23328,-2.138977,124.32,24.09,2,20.82,21 / 22,705,2020-01-08 16:17:20:905,-1.7064,1.4806,10.0429,-0.0024,-0.0404,9.8065,0.1772,0.0519,-0.0819,-9.87,-35.06,-11,249.76,-85.64,-142.87
52.23328,-2.138977,124.32,24.09,2,20.82,21 / 22,805,2020-01-08 16:17:21:005,0.9818,-1.3022,10.1125,-0.0524,0.0387,9.8064,-0.0557,-0.3271,0.2439,-9.5,-35.56,-11.44,247.53,-85.79,-141.89
52.23328,-2.138977,124.32,24.09,2,20.82,21 / 22,904,2020-01-08 16:17:21:104,-2.4113,0.5239,9.4463,-0.0247,-0.0043,9.8066,-0.0124,0.1395,0.0201,-9.5,-35.81,-11.69,247.25,-85.92,-140.59
52.23328,-2.138977,124.32,24.09,2,20.82,21 / 22,1005,2020-01-08 16:17:21:205,1.113,0.9499,10.9523,-0.0332,-0.0338,9.8065,0.2009,-0.152,0.0016,-9.25,-35.62,-11.37,250.36,-85.98,-139.33
52.23328,-2.138977,124.32,24.09,2,20.82,21 / 22,1105,2020-01-08 16:17:21:305,3.5576,-0.8801,10.0194,0.0415,-0.0161,9.8065,0.0576,0.4614,-0.2361,-8.87,-35.44,-11.87,248.46,-85.68,-139.03
52.23328,-2.138977,124.32,24.09,2,20.82,21 / 22,1205,2020-01-08 16:17:21:405,1.0215,-0.4299,8.3591,0.015,0.0001,9.8066,-0.0576,0.148,-0.1664,-9.06,-36.25,-11.12,247.61,-85.76,-141.75
52.23328,-2.138977,124.32,24.09,2,20.82,21 / 22,1305,2020-01-08 16:17:21:505,1.078,-1.4488,9.845,0.0223,-0.0616,9.8064,0.2923,0.2381,-0.1518,-9.19,-35.37,-11.44,244.86,-85.75,-144.97
52.23328,-2.138977,124.32,24.09,2,20.82,21 / 22,1404,2020-01-08 16:17:21:604,-0.9346,2.3283,11.3005,0.0225,-0.0092,9.8065,0.0865,0.1489,-0.1174,-10.06,-35.62,-11.44,250.45,-85.66,-141.9
52.23328,-2.138977,124.32,24.09,2,20.82,21 / 22,1508,2020-01-08 16:17:21:708,-2.385,0.4941,9.3843,0.0394,-0.0532,9.8064,0.0413,0.1179,-0.3653,-9.44,-35.75,-11.62,248.29,-85.64,-138.85
52.23328,-2.138977,124.32,24.09,2,20.82,21 / 22,1605,2020-01-08 16:17:21:805,0.8035,0.5493,10.7744,-0.0412,-0.0104,9.8065,0.153,0.0075,0.1193,-9.5,-35.94,-11.69,245.41,-85.87,-142.45
52.23328,-2.138977,124.32,24.09,2,20.82,21 / 22,1705,2020-01-08 16:17:21:905,2.3085,-0.1332,11.1107,0.0217,0.0279,9.8065,-0.0325,0.3916,-0.0698,-9.25,-36.06,-11.87,244.93,-85.54,-142.25
52.23328,-2.138977,124.32,24.09,2,20.82,21 / 22,1805,2020-01-08 16:17:22:005,-0.0067,0.7516,9.8965,0.0486,0.0267,9.8065,-0.2254,0.3277,-0.2977,-9.31,-36,-11.44,246.55,-85.54,-142.36
52.23328,-2.138977,124.32,24.09,2,20.82,21 / 22,1905,2020-01-08 16:17:22:105,1.5278,1.8336,11.9034,0.0306,0.0263,9.8065,-0.0755,-0.1973,-0.0537,-9.25,-35.94,-11.25,244.91,-85.88,-144.92
52.23328,-2.138977,124.32,24.09,2,20.82,21 / 22,2004,2020-01-08 16:17:22:204,1.8291,-1.7024,9.2684,-0.0065,0.0611,9.8064,-0.2133,0.0942,0.2255,-8.87,-36.37,-11.19,242.41,-85.69,-147.22
52.23328,-2.138977,124.32,24.09,2,20.82,21 / 22,2105,2020-01-08 16:17:22:305,0.0722,-0.1191,11.6732,-0.0421,-0.0002,9.8065,0.1021,-0.2795,0.1383,-9.87,-36.06,-12.25,246.67,-85.88,-144.42
52.23328,-2.138977,124.32,24.09,2,20.82,21 / 22,2205,2020-01-08 16:17:22:405,2.1765,-0.3606,9.1636,0.0189,0.0315,9.8065,0.0007,-0.2764,0.0626,-10.06,-36.06,-11.62,247.04,-85.79,-143.84
52.23328,-2.138977,124.32,24.09,2,20.82,21 / 22,2304,2020-01-08 16:17:22:504,0.6802,-1.2854,7.4414,0.001,-0.0705,9.8064,0.3431,0.241,-0.1677,-10,-35.87,-11.69,247.84,-85.69,-142.78
52.23328,-2.138977,124.32,24.09,2,20.82,21 / 22,2405,2020-01-08 16:17:22:605,3.3762,-1.0221,11.3926,-0.0575,-0.0415,9.8063,0.2153,-0.0846,0.0124,-9.37,-36,-11.87,246.86,-85.72,-140.56
52.23328,-2.138977,124.32,24.09,2,20.82,21 / 22,2505,2020-01-08 16:17:22:705,2.4742,-0.362,10.1513,0.0508,-0.004,9.8065,-0.0841,0.5081,-0.2662,-9.44,-36,-11.75,244.35,-85.37,-142.5
52.23328,-2.138977,124.32,24.09,2,20.82,21 / 22,2605,2020-01-08 16:17:22:805,-2.3435,2.4293,8.5541,0.0289,-0.0007,9.8065,-0.1374,0.3179,-0.1985,-9.37,-35.94,-11.87,243.36,-85.53,-143.93
52.23328,-2.138977,124.32,24.09,2,20.82,21 / 21,2704,2020-01-08 16:17:22:904,2.0504,-0.658,9.6729,0.0281,-0.0274,9.8065,0.0577,0.0182,-0.0255,-9.37,-36.06,-11.56,245.48,-85.63,-141.85
52.23328,-2.138977,124.32,24.09,2,20.82,21 / 21,2804,2020-01-08 16:17:23:004,-0.9845,-0.4589,8.6944,0.0353,0.0232,9.8065,-0.1326,0.0493,-0.0768,-9.94,-35.75,-11.44,248.84,-85.51,-143.28
52.23328,-2.138977,124.32,24.09,2,20.82,21 / 21,2905,2020-01-08 16:17:23:105,-0.6618,0.3289,9.3806,-0.0118,0.0065,9.8066,0.0111,-0.2814,0.037,-9.44,-35.69,-11,245.65,-85.67,-143.63
52.23328,-2.138977,124.32,24.09,2,20.82,21 / 21,3005,2020-01-08 16:17:23:205,1.6622,1.0403,10.3217,-0.0372,-0.0028,9.8066,0.0398,-0.2551,0.2265,-9.44,-35.62,-11.69,242.33,-85.74,-145.49
52.23328,-2.138977,124.32,24.09,2,20.82,21 / 21,3105,2020-01-08 16:17:23:305,-0.6034,0.251,8.5219,0.0071,0.0075,9.8066,-0.2024,0.0947,0.0181,-9.69,-36,-10.75,246.34,-85.55,-146.06
52.23328,-2.138977,124.32,24.09,2,20.82,21 / 21,3204,2020-01-08 16:17:23:404,0.0829,0.9858,10.7519,-0.0179,0.012,9.8065,-0.0003,-0.2568,0.2587,-10,-36.12,-11.62,248.36,-85.62,-142.06
52.23328,-2.138977,124.32,24.09,2,20.82,21 / 21,3305,2020-01-08 16:17:23:505,3.0614,0.252,10.1666,0.0328,0.0288,9.8065,-0.2038,-0.2192,-0.0758,-9.69,-35.56,-11.94,250,-85.46,-139.96
52.23328,-2.138977,124.32,24.09,2,20.82,21 / 21,3404,2020-01-08 16:17:23:604,0.2517,0.5589,9.6633,-0.0089,0.0064,9.8066,-0.0063,-0.2047,-0.0473,-10,-35.69,-11.87,250.21,-85.79,-140.46
52.23328,-2.138977,124.32,24.09,2,20.82,21 / 21,3505,2020-01-08 16:17:23:705,1.1133,-1.8071,10.3189,-0.029,0.0186,9.8066,0.052,-0.1299,0.1544,-10.06,-35.75,-11.31,249.42,-85.87,-143.5
52.23328,-2.138977,124.32,24.09,2,20.82,21 / 21,3605,2020-01-08 16:17:23:805,0.3107,1.0296,10.519,-0.0042,0.0052,9.8066,-0.1312,0.0495,-0.0755,-9.69,-36,-11.44,247.59,-85.78,-145.23
52.23328,-2.138977,124.32,24.09,2,20.82,21 / 22,3705,2020-01-08 16:17:23:905,1.287,-0.4539,10.8127,-0.0245,-0.0108,9.8065,0.0382,-0.1838,0.129,-9.62,-36.62,-11.75,245.89,-85.89,-145.03
52.23328,-2.138977,124.32,24.09,2,20.82,21 / 22,3806,2020-01-08 16:17:24:006,0.7634,0.1134,9.9558,0.0364,-0.012,9.8065,-0.0662,0.2322,-0.0522,-9.44,-36.06,-11.44,246.83,-85.8,-142.68
52.23328,-2.138977,124.32,24.09,2,20.82,21 / 22,3905,2020-01-08 16:17:24:105,-0.7951,0.7449,8.2126,0.0267,-0.0306,9.8065,-0.121,0.1496,0.0048,-9.75,-35.62,-11.5,255.78,-85.68,-136.33
52.23328,-2.138977,124.32,24.09,2,20.82,21 / 22,4005,2020-01-08 16:17:24:205,0.1745,2.1887,9.2269,0.022,0.036,9.8065,-0.0525,-0.0007,-0.1065,-9.75,-36.06,-11.69,251.85,-85.49,-138.06
52.23328,-2.138977,124.32,24.09,2,20.82,21 / 22,4104,2020-01-08 16:17:24:304,-0.671,0.5194,10.1862,-0.0145,0.0348,9.8065,-0.0282,0.1217,-0.0577,-10.19,-36.25,-11.25,251.04,-85.56,-141.06
52.23328,-2.138977,124.32,24.09,2,20.82,21 / 22,4205,2020-01-08 16:17:24:405,0.5983,0.5462,10.4669,0.0231,0.0126,9.8065,-0.0596,0.0404,-0.0411,-10,-36,-11.5,248.2,-85.54,-144.03
52.23328,-2.138977,124.32,24.09,2,20.82,21 / 22,4304,2020-01-08 16:17:24:504,-0.5601,0.3378,9.4335,-0.0047,0.0052,9.8066,0.0261,-0.0614,0.0698,-9.56,-35.62,-11.62,244.74,-85.42,-145.54
52.23328,-2.138977,124.32,24.09,2,20.82,21 / 22,4405,2020-01-08 16:17:24:605,-0.3188,1.4184,9.9859,-0.0201,0.0083,9.8066,0.0064,-0.0198,0.0462,-9.37,-35.81,-11.37,243.98,-85.43,-144.92
52.23328,-2.138977,124.32,24.09,2,20.82,21 / 22,4506,2020-01-08 16:17:24:706,0.5769,1.4371,9.8325,0.0203,0.0033,9.8066,-0.0422,-0.0501,0.0869,-9.87,-36.31,-11.94,246.06,-85.33,-143.92
52.23328,-2.138977,124.32,24.09,2,20.82,21 / 22,4605,2020-01-08 16:17:24:805,-0.7016,-0.0744,9.2387,-0.0004,0.004,9.8066,-0.0534,0.0657,0.057,-9.81,-36.37,-11.31,249.86,-85.47,-142.1
52.235165,-2.137835,125.59,25.96,2,20.22,22 / 22,4705,2020-01-08 16:17:24:905,0.5705,0.5891,10.3396,-0.0144,0.0205,9.8066,-0.0453,-0.1376,-0.037,-9.31,-35.87,-11.81,245.22,-85.37,-141.57
52.235165,-2.137835,125.59,25.96,2,20.22,22 / 22,4805,2020-01-08 16:17:25:005,1.0904,0.305,10.4664,0.0002,0.019,9.8066,-0.0138,-0.0503,0.0602,-9.37,-36.19,-11.56,241.89,-85.44,-145.33
52.235165,-2.137835,125.59,25.96,2,20.22,22 / 22,4904,2020-01-08 16:17:25:104,-0.6124,1.914,9.7763,-0.006,0.0075,9.8066,0.0449,-0.0934,0.0213,-9.19,-36.25,-11.69,242.04,-85.46,-145.21
52.235165,-2.137835,125.59,25.96,2,20.22,22 / 22,5005,2020-01-08 16:17:25:205,1.5349,-0.0035,10.3513,-0.0306,-0.0163,9.8065,0.0844,-0.1382,0.1676,-9.56,-36.5,-11.31,247.37,-85.44,-144.69
52.235165,-2.137835,125.59,25.96,2,20.22,22 / 22,5104,2020-01-08 16:17:25:304,-0.3998,-0.4245,9.6091,0.0112,-0.0155,9.8066,0.0034,0.0879,-0.1155,-9.25,-36.12,-12.19,242.25,-85.27,-144.58
52.235165,-2.137835,125.59,25.96,2,20.22,22 / 22,5205,2020-01-08 16:17:25:405,1.6419,0.953,9.6681,-0.0239,-0.0082,9.8065,-0.0958,-0.082,0.0603,-9.37,-36.25,-11.81,242.9,-85.26,-143.86
52.235165,-2.137835,125.59,25.96,2,20.22,22 / 22,5305,2020-01-08 16:17:25:505,2.225,-0.712,10.6201,-0.0126,0.016,9.8066,0.0285,0.2344,-0.2987,-9.37,-36.19,-11.56,242,-85.46,-145.26
52.235165,-2.137835,125.59,25.96,2,20.22,22 / 22,5405,2020-01-08 16:17:25:605,0.6637,0.636,8.6024,-0.0231,0.0031,9.8066,-0.2133,0.0782,0.0835,-9.5,-36.06,-11.94,243.01,-85.58,-144.41
52.235165,-2.137835,125.59,25.96,2,20.22,22 / 22,5505,2020-01-08 16:17:25:705,-0.4274,-1.5361,9.9859,0.0007,-0.0408,9.8065,0.1446,0.1339,0.0734,-9.31,-36.06,-11.37,244.73,-85.54,-144.34
52.235165,-2.137835,125.59,25.96,2,20.22,22 / 22,5605,2020-01-08 16:17:25:805,-0.5889,0.3175,9.9854,0.0044,0.0177,9.8065,-0.14,0.0434,-0.1134,-9.31,-35.56,-12.12,244.97,-85.63,-142.41
52.235165,-2.137835,125.59,25.96,2,20.22,22 / 22,5704,2020-01-08 16:17:25:904,1.0177,1.299,11.2293,-0.0303,-0.0107,9.8065,0.1564,-0.1251,-0.0463,-9.69,-36.37,-11.87,247.74,-85.58,-142.63
52.235165,-2.137835,125.59,25.96,2,20.22,22 / 22,5805,2020-01-08 16:17:26:005,0.0186,1.6091,10.2959,0.0099,0.0419,9.8065,0.0748,-0.0375,-0.0712,-9.31,-36,-11.94,238.26,-85.27,-148.98
52.235165,-2.137835,125.59,25.96,2,20.22,22 / 22,5905,2020-01-08 16:17:26:105,-0.7466,-0.9877,7.4339,-0.0009,-0.0191,9.8066,0.2275,0.0722,0.1189,-9.75,-35.94,-12.44,245.22,-85.42,-145.01
52.235165,-2.137835,125.59,25.96,2,20.22,22 / 22,6005,2020-01-08 16:17:26:205,-0.2791,0.0959,8.9625,0.0382,0.0554,9.8063,0.1701,-0.0804,-0.0967,-9.62,-36.06,-11.81,250.06,-85.63,-140.28
52.235165,-2.137835,125.59,25.96,2,20.22,22 / 22,6105,2020-01-08 16:17:26:305,0.0747,-0.3443,10.0804,0.002,0.0262,9.8066,0.1213,0.1125,0.031,-9.44,-36.87,-11.44,245.26,-85.53,-143.46
52.235165,-2.137835,125.59,25.96,2,20.22,22 / 22,6205,2020-01-08 16:17:26:405,0.174,-0.2975,8.4428,-0.0277,-0.0001,9.8065,-0.1711,-0.1631,-0.0868,-9.5,-35.44,-11.87,240.84,-85.62,-147.12
52.235165,-2.137835,125.59,25.96,2,20.22,22 / 22,6305,2020-01-08 16:17:26:505,0.2237,0.0057,10.2385,0.0105,-0.0324,9.8066,-0.0089,0.0473,-0.0539,-9.44,-35.87,-12,244.9,-85.4,-141.97
52.235165,-2.137835,125.59,25.96,2,20.22,22 / 22,6405,2020-01-08 16:17:26:605,0.1038,1.7656,11.0319,0.0166,-0.0021,9.8066,0.0589,0.1233,0.0058,-9.25,-36.25,-12.31,243.24,-85.32,-143.61
52.235165,-2.137835,125.59,25.96,2,20.22,22 / 22,6504,2020-01-08 16:17:26:704,-0.6954,-1.0986,9.7189,0.0366,0.0102,9.8066,0.0047,0.0216,0.0676,-9.87,-35.69,-11.75,247.74,-85.27,-141.99
52.235165,-2.137835,125.59,25.96,2,20.22,22 / 22,6605,2020-01-08 16:17:26:805,-0.3696,-0.4368,10.1976,-0.0084,-0.0355,9.8065,-0.0977,0.0314,0.0434,-9.81,-35.69,-11.75,250.59,-85.35,-139.1
52.235165,-2.137835,125.59,25.96,2,20.22,22 / 22,6707,2020-01-08 16:17:26:907,0.2196,0.029,10.8918,0.0028,-0.0105,9.8066,0.0744,0.0015,-0.048,-9.19,-36,-12,250.74,-85.4,-135.68
52.235165,-2.137835,125.59,25.96,2,20.22,22 / 22,6805,2020-01-08 16:17:27:005,-0.9477,-0.1797,9.9212,0.0115,0.0268,9.8065,-0.0035,0.0937,-0.0614,-9.94,-36,-11.19,253.4,-85.39,-138.15
52.235165,-2.137835,125.59,25.96,2,20.22,22 / 22,6905,2020-01-08 16:17:27:105,0.064,-1.4293,7.0628,-0.0082,0.031,9.8065,0.2907,0.079,0.0573,-10.87,-35.44,-11.69,252.86,-85.43,-140.25
52.235165,-2.137835,125.59,25.96,2,20.22,22 / 22,7005,2020-01-08 16:17:27:205,-0.6102,0.6433,10.991,0.0344,0.012,9.8066,0.176,-0.1048,0.1147,-9.94,-35.31,-11.94,250.33,-85.18,-139.31
52.235165,-2.137835,125.59,25.96,2,20.22,22 / 22,7105,2020-01-08 16:17:27:305,-0.1542,0.6201,10.2648,0.0201,-0.0156,9.8065,0.109,0.0457,-0.0825,-9.56,-35.56,-11.81,250.35,-85.3,-139.24
52.235165,-2.137835,125.59,25.96,2,20.22,22 / 22,7206,2020-01-08 16:17:27:406,0.0239,1.3789,10.3715,0.0041,0.0296,9.8065,0.0995,0.1459,-0.0571,-9.12,-35.56,-10.81,245.72,-85.26,-142.6
52.235165,-2.137835,125.59,25.96,2,20.22,22 / 22,7305,2020-01-08 16:17:27:505,1.2634,0.1686,9.9735,0.0069,-0.0552,9.8065,-0.1914,-0.0664,-0.0752,-10.25,-35.44,-11.5,252.68,-85.27,-138.93
52.235165,-2.137835,125.59,25.96,2,20.22,22 / 22,7405,2020-01-08 16:17:27:605,0.936,0.35,11.4458,-0.0173,-0.0348,9.8065,0.1052,0.0084,0.1213,-9.75,-35.75,-11.5,256.05,-85.48,-135.54
52.235165,-2.137835,125.59,25.96,2,20.22,22 / 22,7505,2020-01-08 16:17:27:705,2.0624,0.426,8.6678,0.0047,0.0185,9.8066,-0.08,0.26,0.024,-9.5,-35.5,-11.87,247.92,-85.51,-139.25
52.235165,-2.137835,125.59,25.96,2,20.22,22 / 22,7605,2020-01-08 16:17:27:805,0.4336,0.2854,10.3124,0.0061,-0.0003,9.8066,0.1973,0.2071,-0.0748,-9.75,-35.87,-12.12,250.71,-85.58,-139.47
52.235165,-2.137835,125.59,25.96,2,20.22,22 / 22,7705,2020-01-08 16:17:27:905,-0.5018,-0.0637,9.7207,0.0191,0.0474,9.8065,0.0371,0.0913,0.0987,-9.31,-35.37,-11.44,245.6,-85.5,-143.6
52.235165,-2.137835,125.59,25.96,2,20.22,22 / 22,7804,2020-01-08 16:17:28:004,-1.664,1.1874,9.1526,0.0024,-0.0012,9.8065,0.0637,0.1098,-0.252,-9.62,-35.37,-11.44,250.98,-85.7,-141.71
52.235165,-2.137835,125.59,25.96,2,20.22,22 / 22,7904,2020-01-08 16:17:28:104,0.5406,-1.219,10.1444,-0.0414,0.0108,9.8065,0.0441,-0.154,-0.1777,-9.94,-35.56,-12.06,249.85,-85.65,-140.55
52.235165,-2.137835,125.59,25.96,2,20.22,22 / 22,8005,2020-01-08 16:17:28:205,-0.4671,2.3356,9.7795,0.0353,0.0087,9.8065,-0.0815,0.1169,-0.172,-10.12,-35.06,-12.62,246.85,-85.43,-141.77
52.235165,-2.137835,125.59,25.96,2,20.22,22 / 22,8105,2020-01-08 16:17:28:305,0.0745,0.1466,9.008,0.0323,0.0125,9.8065,-0.1673,-0.029,-0.0318,-9.94,-35.62,-11.62,249.54,-85.54,-140.63
52.235165,-2.137835,125.59,25.96,2,20.22,22 / 22,8205,2020-01-08 16:17:28:405,-0.3464,0.8376,9.4783,-0.0322,0.0243,9.8065,-0.0404,0.1055,0.1478,-9.75,-35.62,-12.62,250.02,-85.69,-138.65
52.235165,-2.137835,125.59,25.96,2,20.22,22 / 22,8305,2020-01-08 16:17:28:505,-1.3505,-0.9277,9.4633,0.0218,-0.0073,9.8066,-0.1084,0.0571,-0.1001,-9.5,-35.69,-11.69,250.73,-85.46,-135.82
52.235165,-2.137835,125.59,25.96,2,20.22,22 / 22,8405,2020-01-08 16:17:28:605,-0.0633,-0.0544,10.1951,0.0217,-0.0001,9.8065,-0.0646,-0.0925,-0.0329,-9.81,-35.94,-11.62,251.41,-85.54,-138.63
52.235165,-2.137835,125.59,25.96,2,20.22,22 / 22,8504,2020-01-08 16:17:28:704,-0.1856,-0.1683,7.6479,0.0103,0.026,9.8066,-0.3101,0.0798,0.0374,-10.31,-35.87,-11.81,252.87,-85.47,-136.95
52.235165,-2.137835,125.59,25.96,2,20.22,22 / 22,8605,2020-01-08 16:17:28:805,1.049,-0.0866,11.7433,0.0242,-0.002,9.8066,0.0609,-0.0061,-0.0442,-9.94,-35.06,-11.5,259.26,-85.43,-132.39
52.235165,-2.137835,125.59,25.96,2,20.22,21 / 22,8705,2020-01-08 16:17:28:905,-1.3759,-0.5033,8.8154,0.0437,0.0584,9.8063,-0.1099,0.0457,-0.1088,-10.19,-35.94,-12.19,252.67,-85.27,-136.71
52.235165,-2.137835,125.59,25.96,2,20.22,21 / 22,8806,2020-01-08 16:17:29:006,-1.0037,0.8984,10.1654,-0.0206,-0.0171,9.8066,0.2014,-0.0672,-0.1239,-9.56,-35.62,-11.37,252.62,-85.49,-139.21
52.235165,-2.137835,125.59,25.96,2,20.22,21 / 22,8905,2020-01-08 16:17:29:105,1.4225,0.8484,11.529,-0.0293,-0.012,9.8066,0.143,-0.1396,0.0798,-9.75,-35.44,-11.87,248.74,-85.6,-141.88
52.235165,-2.137835,125.59,25.96,2,20.22,21 / 22,9005,2020-01-08 16:17:29:205,0.6159,-0.1883,9.1316,-0.0144,-0.0217,9.8066,-0.0422,-0.0148,0.0894,-9.5,-35.81,-12.12,247.09,-85.47,-139.75
52.235165,-2.137835,125.59,25.96,2,20.22,21 / 22,9105,2020-01-08 16:17:29:305,0.9966,0.1728,11.1973,-0.0406,-0.0402,9.8064,0.1525,-0.0923,0.0881,-10.06,-36.06,-11.25,255.42,-85.78,-136.94
52.235165,-2.137835,125.59,25.96,2,20.22,21 / 22,9205,2020-01-08 16:17:29:405,-0.0937,1.4182,8.9344,-0.0185,-0.0078,9.8065,-0.03,0.0516,0.0218,-10.25,-36.19,-11.56,251.99,-85.57,-138.09
52.235165,-2.137835,125.59,25.96,2,20.22,21 / 22,9305,2020-01-08 16:17:29:505,-0.193,-0.7139,9.591,-0.0176,-0.0157,9.8066,0.1437,-0.0522,-0.0253,-9.87,-36.06,-11.75,252.96,-85.7,-137.35
52.235165,-2.137835,125.59,25.96,2,20.22,21 / 22,9404,2020-01-08 16:17:29:604,0.3913,-2.4382,9.1231,0.0232,0.0097,9.8065,-0.0082,-0.1603,0.0337,-10.12,-35.25,-12,255.3,-85.85,-135.49
52.235165,-2.137835,125.59,25.96,2,20.22,21 / 22,9505,2020-01-08 16:17:29:705,-1.207,-0.2235,10.2551,-0.0055,-0.0617,9.8064,0.1466,-0.035,-0.1156,-9.25,-35.62,-11.69,253.57,-85.85,-133.72
52.235165,-2.137835,125.59,25.96,2,20.22,21 / 22,9604,2020-01-08 16:17:29:804,1.8699,-2.5706,7.4207,0.0205,0.073,9.8063,0.0095,-0.2324,0.1472,-9.06,-35.81,-12.06,246.94,-85.71,-140.45
52.235165,-2.137835,125.59,25.96,2,20.22,21 / 22,9705,2020-01-08 16:17:29:905,-1.4002,1.0378,9.7833,0.0096,0.005,9.8066,0.348,0.1874,-0.1468,-9.19,-35.94,-11.94,248.89,-85.88,-138.76
52.235165,-2.137835,125.59,25.96,2,20.22,21 / 21,9804,2020-01-08 16:17:30:004,-1.5214,1.8828,10.6221,-0.029,0.0612,9.8064,0.13,-0.2738,-0.0518,-9.44,-36.12,-11.94,250.09,-85.93,-137.59
52.235165,-2.137835,125.59,25.96,2,20.22,21 / 21,9904,2020-01-08 16:17:30:104,-3.2213,2.315,7.7263,0.0634,0.0326,9.8064,-0.0198,0.1474,-0.154,-9.31,-35.19,-12.06,247.9,-85.67,-139.6
52.235165,-2.137835,125.59,25.96,2,20.22,21 / 21,10005,2020-01-08 16:17:30:205,0.8739,1.1321,10.3249,-0.0127,-0.0356,9.8066,0.0612,-0.0137,0.1958,-9.25,-35.81,-11.5,253.14,-86.14,-136.77
52.235165,-2.137835,125.59,25.96,2,20.22,21 / 21,10105,2020-01-08 16:17:30:305,1.2462,-1.0787,11.7246,-0.0206,0.0466,9.8064,-0.089,0.2276,-0.1597,-9.37,-36.25,-12.06,248.07,-86.24,-140.44
52.235165,-2.137835,125.59,25.96,2,20.22,21 / 21,10205,2020-01-08 16:17:30:405,1.2643,1.4403,10.1825,-0.0591,0.0157,9.8064,-0.1386,0.1898,-0.1399,-9.69,-36.25,-12.19,250.48,-86.21,-141.11
52.235165,-2.137835,125.59,25.96,2,20.22,21 / 21,10305,2020-01-08 16:17:30:505,0.9812,1.2231,11.1701,0.0001,-0.0288,9.8065,-0.0528,0.185,0.0275,-9.69,-35.56,-12.19,252.71,-85.99,-138.27
52.235165,-2.137835,125.59,25.96,2,20.22,21 / 21,10405,2020-01-08 16:17:30:605,-0.603,-0.4505,7.1255,-0.0275,-0.0482,9.8064,-0.3742,0.0915,-0.0328,-9.81,-35.06,-12,252.45,-85.96,-138.72
52.235165,-2.137835,125.59,25.96,2,20.22,21 / 21,10505,2020-01-08 16:17:30:705,1.002,2.9963,11.9336,-0.0284,-0.0786,9.8062,-0.1185,-0.1004,0.0214,-9.69,-36.44,-11.87,255.47,-86.11,-135.65
52.235165,-2.137835,125.59,25.96,2,20.22,21 / 21,10605,2020-01-08 16:17:30:805,0.4239,-2.4205,7.3611,0.0143,-0.0581,9.8064,-0.3932,-0.0883,0.2871,-10.06,-35.87,-11.69,254.07,-86.02,-136.9
52.235165,-2.137835,125.59,25.96,2,20.22,21 / 21,10704,2020-01-08 16:17:30:904,-1.3819,3.8659,11.9548,-0.0459,0.0527,9.8063,-0.1911,0.1999,-0.0504,-9.25,-35.94,-11.56,245.3,-85.99,-142.84
52.235165,-2.137835,125.59,25.96,2,20.22,22 / 22,10805,2020-01-08 16:17:31:005,0.258,-1.3444,6.6074,0.0207,0.079,9.8063,0.3318,0.1224,0.0063,-9.87,-36.19,-12.75,248.94,-85.72,-139.86
52.235165,-2.137835,125.59,25.96,2,20.22,22 / 22,10904,2020-01-08 16:17:31:104,-2.3689,2.4818,10.2604,-0.0425,-0.0488,9.8064,0.2373,0.2342,-0.2469,-9.75,-36.31,-12.12,251.42,-85.7,-138.99
52.235165,-2.137835,125.59,25.96,2,20.22,22 / 22,11005,2020-01-08 16:17:31:205,1.7769,-0.5035,11.5154,-0.059,0.0323,9.8064,-0.0865,0.2689,-0.1761,-9.31,-36,-11.94,247.37,-85.97,-140.58
52.235165,-2.137835,125.59,25.96,2,20.22,22 / 22,11105,2020-01-08 16:17:31:305,-1.5194,2.5677,8.6386,-0.0383,-0.0133,9.8065,-0.2342,0.2444,-0.1217,-9.31,-36.12,-12.06,248.35,-85.85,-139.25
52.235165,-2.137835,125.59,25.96,2,20.22,22 / 22,11205,2020-01-08 16:17:31:405,1.9385,1.0551,11.6232,-0.0665,-0.0786,9.8061,-0.2345,0.2664,-0.123,-9.06,-36.25,-12.31,253.14,-86.27,-135.15
52.235165,-2.137835,125.59,25.96,2,20.22,22 / 22,11305,2020-01-08 16:17:31:505,-1.1708,-1.6325,7.5808,-0.0004,0.0285,9.8066,-0.2545,0.1635,-0.0507,-8.87,-35.81,-11.37,252.71,-86.08,-137.09
52.235165,-2.137835,125.59,25.96,2,20.22,22 / 22,11406,2020-01-08 16:17:31:606,-0.1847,-1.1558,9.9905,-0.039,-0.0676,9.8063,-0.2574,-0.0252,0.0856,-9.62,-35.75,-11.75,258.26,-86.23,-133.02
52.235165,-2.137835,125.59,25.96,2,20.22,22 / 22,11505,2020-01-08 16:17:31:705,-0.158,3.9053,11.4428,0.0089,0.078,9.8063,-0.1537,-0.023,0.0692,-9.25,-35.31,-11.87,248.47,-86.02,-139.76
52.235165,-2.137835,125.59,25.96,2,20.22,22 / 22,11605,2020-01-08 16:17:31:805,0.858,-1.5664,6.732,-0.009,-0.0466,9.8065,0.209,-0.0253,-0.004,-9.31,-35.62,-12.31,254.28,-86.19,-133.77
52.235165,-2.137835,125.59,25.96,2,20.22,22 / 22,11705,2020-01-08 16:17:31:905,-0.1365,-0.895,10.7296,0.0395,0.0904,9.8061,0.4025,0.0279,0.0147,-9.69,-36.19,-12,258.46,-86.19,-132.73
52.235165,-2.137835,125.59,25.96,2,20.22,22 / 22,11805,2020-01-08 16:17:32:005,2.1074,-3.6123,6.2862,0.0311,0.0792,9.8062,0.432,0.4555,-0.3057,-9.31,-35.62,-12.31,251.79,-85.97,-135.87
52.235165,-2.137835,125.59,25.96,2,20.22,22 / 22,11905,2020-01-08 16:17:32:105,-1.8044,-0.3514,10.1484,-0.0281,0.0231,9.8065,0.344,0.4017,-0.3271,-9.5,-35.5,-11.94,252.13,-86,-135.86
52.235165,-2.137835,125.59,25.96,2,20.22,22 / 22,12006,2020-01-08 16:17:32:206,4.0648,-4.7848,6.8327,-0.0365,0.1241,9.8058,-0.214,0.1444,0.0343,-9.56,-35.37,-12.37,250.59,-85.99,-140.75
52.235165,-2.137835,125.59,25.96,2,20.22,22 / 22,12104,2020-01-08 16:17:32:304,-0.749,0.1281,9.3254,0.0133,-0.1493,9.8054,-0.4981,-0.2497,0.2312,-9.5,-35.31,-12.37,243.78,-85.92,-144.56
52.235165,-2.137835,125.59,25.96,2,20.22,22 / 22,12205,2020-01-08 16:17:32:405,-4.0917,4.8103,12.9312,-0.0052,-0.0563,9.8064,-0.4279,-0.5933,0.4234,-9.25,-35.94,-11.87,249.1,-86.08,-138.98
52.235165,-2.137835,125.59,25.96,2,20.22,22 / 22,12304,2020-01-08 16:17:32:504,4.2283,-4.7688,8.25,0.0522,-0.1035,9.8059,-0.3129,-0.4518,0.4859,-9.25,-35.94,-11.75,254.94,-86.02,-132.69
52.235165,-2.137835,125.59,25.96,2,20.22,22 / 22,12405,2020-01-08 16:17:32:605,-0.281,0.4362,10.7265,-0.005,-0.0536,9.8064,-0.0093,-0.2371,0.095,-9.19,-35.69,-12.25,252.53,-86.42,-136.13
52.235165,-2.137835,125.59,25.96,2,20.22,22 / 22,12504,2020-01-08 16:17:32:704,2.9634,-4.0318,7.6885,-0.0019,-0.0124,9.8066,0.0461,-0.2953,-0.0247,-9.81,-35.62,-11.87,254.63,-86.51,-137.42
52.235165,-2.137835,125.59,25.96,2,20.22,22 / 22,12605,2020-01-08 16:17:32:805,-1.6501,0.8895,10.3531,0.0467,-0.1104,9.8058,0.1539,-0.0373,0.0732,-9.87,-35.94,-12.31,259.82,-86.45,-131.91
52.235165,-2.137835,125.59,25.96,2,20.22,22 / 22,12705,2020-01-08 16:17:32:905,-1.0101,3.4148,12.3161,0.0497,0.0212,9.8064,0.2583,0.0778,0.1,-9.56,-35.44,-11.5,254.71,-86.21,-138.93
52.235165,-2.137835,125.59,25.96,2,20.22,22 / 22,12805,2020-01-08 16:17:33:005,-2.7238,2.7786,11.8454,0.027,-0.0285,9.8065,0.3442,0.3462,-0.2511,-8.94,-35.81,-11.12,253.83,-86.29,-136.4
52.235165,-2.137835,125.59,25.96,2,20.22,22 / 22,12904,2020-01-08 16:17:33:104,1.7188,-0.7947,11.1722,-0.0317,0.0701,9.8063,0.1831,0.2466,-0.3871,-8.31,-35.87,-12.19,247.04,-86.28,-138.1
52.235165,-2.137835,125.59,25.96,2,20.22,22 / 22,13004,2020-01-08 16:17:33:204,-1.9161,1.0013,8.2606,0.0619,0.0004,9.8064,-0.1736,0.2324,-0.1727,-8.69,-35.44,-12.69,252.29,-86.05,-134.08
52.235165,-2.137835,125.59,25.96,2,20.22,22 / 22,13104,2020-01-08 16:17:33:304,-0.3837,-0.4055,8.5364,0.0045,-0.0567,9.8064,-0.1611,0.1719,0.0343,-8.75,-35.56,-13.5,249.9,-86.38,-137.06
52.235165,-2.137835,125.59,25.96,2,20.22,22 / 22,13205,2020-01-08 16:17:33:405,-1.3496,-0.9066,7.8157,-0.0329,0.0007,9.8065,-0.2218,0.2757,-0.1235,-9.12,-35.62,-12.75,251.77,-86.61,-135.59
52.235165,-2.137835,125.59,25.96,2,20.22,22 / 22,13304,2020-01-08 16:17:33:504,0.2766,-0.4924,9.8003,-0.0587,-0.0395,9.8063,-0.2647,-0.0292,-0.2778,-9.56,-35.5,-12.06,259.51,-86.75,-133.13
52.235165,-2.137835,125.59,25.96,2,20.22,22 / 22,13405,2020-01-08 16:17:33:605,-0.8882,3.2788,11.9879,0.0463,-0.0345,9.8064,-0.1226,0.0112,0.1191,-9.37,-35.75,-12.31,253.84,-86.48,-134.91
52.235165,-2.137835,125.59,25.96,2,20.22,22 / 22,13505,2020-01-08 16:17:33:705,-0.6815,1.2206,8.8218,0.0228,0.0077,9.8066,0.1324,0.0897,0.1626,-9.5,-36.25,-11.75,250.85,-86.53,-138.14
52.235165,-2.137835,125.59,25.96,2,20.22,22 / 22,13605,2020-01-08 16:17:33:805,1.4465,-1.0081,10.4655,-0.0557,-0.0023,9.8064,0.204,-0.1266,0.0021,-8.37,-35.81,-12.19,246.93,-86.69,-139.16
52.235165,-2.137835,125.59,25.96,2,20.22,22 / 22,13705,2020-01-08 16:17:33:905,1.3183,2.8404,10.6595,0.0029,0.0688,9.8064,0.1233,-0.0466,-0.0468,-8.94,-35.81,-11.94,250.03,-86.55,-139.05
52.237137,-2.13665,126.36,25.61,3,19.05,21 / 23,13805,2020-01-08 16:17:34:005,1.612,-2.428,6.2206,0.0051,-0.1078,9.806,-0.013,0.0648,-0.0827,-8.44,-35.5,-11.56,249.51,-86.6,-136.45
52.237137,-2.13665,126.36,25.61,3,19.05,21 / 23,13905,2020-01-08 16:17:34:105,0.9279,1.9874,10.8359,0.0035,-0.0745,9.8063,-0.0934,0.0741,0.059,-8.81,-35.87,-12.06,247.14,-86.34,-141.64
52.237137,-2.13665,126.36,25.61,3,19.05,21 / 23,14005,2020-01-08 16:17:34:205,1.7949,-1.49,8.7349,0.0443,-0.0459,9.8064,-0.157,-0.079,0.0801,-9.06,-35.69,-12.31,246.96,-86.2,-141.53
52.237137,-2.13665,126.36,25.61,3,19.05,21 / 23,14104,2020-01-08 16:17:34:304,-1.8345,0.6168,9.641,0.0064,-0.0543,9.8065,-0.1604,-0.0682,0.0285,-8.87,-35.81,-12.69,244.72,-86.32,-142.42
52.237137,-2.13665,126.36,25.61,3,19.05,21 / 23,14205,2020-01-08 16:17:34:405,0.9236,-1.5828,7.2217,0.0163,0.0454,9.8064,-0.162,-0.1491,0.109,-9.06,-35.56,-12.12,243.35,-86.12,-145.22
52.237137,-2.13665,126.36,25.61,3,19.05,21 / 23,14305,2020-01-08 16:17:34:505,-1.4777,1.3931,9.3733,0.0099,-0.0364,9.8066,-0.028,-0.3186,0.1329,-9.5,-36.12,-11.37,250.67,-86.31,-139.79
52.237137,-2.13665,126.36,25.61,3,19.05,21 / 23,14405,2020-01-08 16:17:34:605,0.1032,2.7245,11.6379,-0.0001,0.0652,9.8064,0.1229,-0.2507,0.1791,-9.12,-35.62,-12.06,249.94,-86.37,-138.74
52.237137,-2.13665,126.36,25.61,3,19.05,21 / 23,14505,2020-01-08 16:17:34:705,-1.9443,1.0263,9.1997,0.0475,0.0213,9.8064,0.2084,-0.0951,0.0705,-8.87,-35.56,-12.62,245,-86.18,-141.84
52.237137,-2.13665,126.36,25.61,3,19.05,21 / 23,14605,2020-01-08 16:17:34:805,-0.6348,-0.033,9.4898,-0.0216,0.0091,9.8066,0.0492,-0.1045,-0.0915,-8.87,-35.81,-11.87,244.74,-86.27,-144.05
52.237137,-2.13665,126.36,25.61,3,19.05,22 / 22,14704,2020-01-08 16:17:34:904,1.9819,0.1583,11.4179,-0.0035,-0.0134,9.8066,-0.0974,0.1207,0.1027,-8.62,-36.06,-12.06,246.81,-86.14,-141.56
52.237137,-2.13665,126.36,25.61,3,19.05,22 / 22,14804,2020-01-08 16:17:35:004,0.2596,-1.7381,9.1344,-0.0362,-0.0487,9.8064,-0.2365,0.0534,0.1133,-9.06,-36.06,-12.19,244.6,-86.01,-143.64
52.237137,-2.13665,126.36,25.61,3,19.05,22 / 22,14905,2020-01-08 16:17:35:105,0.9955,0.6323,11.7768,-0.0245,-0.0393,9.8064,-0.2371,0.0826,-0.0416,-9.5,-35.69,-12.81,245.26,-86.36,-141.93
52.237137,-2.13665,126.36,25.61,3,19.05,22 / 22,15005,2020-01-08 16:17:35:205,1.1594,0.7245,9.2217,-0.0014,-0.0146,9.8066,-0.1038,0.078,0.0835,-9.06,-36.5,-12.75,244.34,-86.29,-142.75
52.237137,-2.13665,126.36,25.61,3,19.05,22 / 22,15105,2020-01-08 16:17:35:305,1.5955,-0.1123,10.663,-0.0034,-0.0154,9.8066,0.013,-0.0669,0.0934,-9.56,-35.75,-12.5,246.65,-86.28,-145.29
52.237137,-2.13665,126.36,25.61,3,19.05,22 / 22,15205,2020-01-08 16:17:35:405,-0.5275,1.0375,9.6813,0.0306,0.0206,9.8065,0.0887,0.0752,-0.0462,-9.25,-35.19,-12.12,242.92,-86.16,-145.99
52.237137,-2.13665,126.36,25.61,3,19.05,22 / 22,15304,2020-01-08 16:17:35:504,0.179,-0.5293,9.8273,0.0001,0.0447,9.8065,0.1107,0.1205,-0.0351,-9.62,-35.19,-11.75,245.73,-86.08,-146.09
52.237137,-2.13665,126.36,25.61,3,19.05,22 / 22,15405,2020-01-08 16:17:35:605,0.0856,2.1445,11.3108,0.0275,0.008,9.8066,0.0619,-0.081,0.082,-9.94,-35.44,-12,249.07,-86.24,-142.87
52.237137,-2.13665,126.36,25.61,3,19.05,22 / 22,15505,2020-01-08 16:17:35:705,0.8423,0.9975,9.7307,0.0092,0.0336,9.8066,-0.1723,-0.0871,0.1367,-8.69,-35,-11.31,243.62,-86.01,-146.89
52.237137,-2.13665,126.36,25.61,3,19.05,22 / 22,15604,2020-01-08 16:17:35:804,-0.5289,-1.212,8.8162,-0.0028,-0.0836,9.8062,-0.2874,-0.0919,0.1221,-8.87,-35.5,-12.12,247.48,-86.24,-141.3
52.237137,-2.13665,126.36,25.61,3,19.05,21 / 22,15705,2020-01-08 16:17:35:905,-0.9494,-0.0519,11.8415,-0.0215,-0.0485,9.8065,-0.2229,-0.1379,0.0644,-9,-35.25,-11.75,246.36,-86.25,-142.5
52.237137,-2.13665,126.36,25.61,3,19.05,21 / 22,15804,2020-01-08 16:17:36:004,-1.4671,0.5536,9.2171,0.0007,-0.0315,9.8065,-0.151,-0.09,0.1058,-9.06,-36.12,-12.5,242.29,-86.18,-146.49
52.237137,-2.13665,126.36,25.61,3,19.05,21 / 22,15905,2020-01-08 16:17:36:105,1.347,0.4828,9.4048,-0.014,-0.0365,9.8065,-0.1435,-0.3973,0.1758,-8.75,-35.56,-12.37,244.17,-86.38,-144.88
52.237137,-2.13665,126.36,25.61,3,19.05,21 / 22,16005,2020-01-08 16:17:36:205,1.0333,-0.7734,9.0674,0.0354,-0.0472,9.8064,-0.0869,-0.3023,0.2725,-8.81,-35.37,-12.62,240.99,-86.56,-147.06
52.237137,-2.13665,126.36,25.61,3,19.05,21 / 22,16105,2020-01-08 16:17:36:305,-3.0441,1.3484,9.3298,-0.0027,-0.0312,9.8065,0.1217,-0.339,0.1579,-9.37,-36.19,-12.19,245.91,-86.73,-143.8
52.237137,-2.13665,126.36,25.61,3,19.05,21 / 22,16205,2020-01-08 16:17:36:405,1.8262,-1.9242,8.6969,0.0299,-0.0043,9.8066,0.0852,-0.2088,0.0344,-9,-35.81,-12.25,246.21,-86.5,-142.98
52.237137,-2.13665,126.36,25.61,3,19.05,21 / 22,16306,2020-01-08 16:17:36:506,-3.9052,1.0304,9.8902,-0.0405,0.0247,9.8064,0.0881,0.1179,-0.1659,-8.5,-36.25,-11.75,245.32,-86.44,-140.32
52.237137,-2.13665,126.36,25.61,3,19.05,21 / 22,16405,2020-01-08 16:17:36:605,1.0906,0.562,11.6895,-0.0607,0.0394,9.8063,0.2192,0.2004,-0.125,-9.69,-35.87,-12.12,244.83,-86.52,-147.73
52.237137,-2.13665,126.36,25.61,3,19.05,21 / 22,16505,2020-01-08 16:17:36:705,-2.2158,1.3015,8.8749,0.0022,-0.0019,9.8066,-0.1155,0.288,-0.1491,-9.37,-36.37,-11.94,244.14,-86.43,-145.03
52.237137,-2.13665,126.36,25.61,3,19.05,21 / 22,16605,2020-01-08 16:17:36:805,1.5745,-0.499,10.4698,-0.0502,-0.0099,9.8065,-0.179,0.2373,-0.2233,-8.87,-35.87,-12.19,243.32,-86.65,-146.38
52.237137,-2.13665,126.36,25.61,3,19.05,21 / 21,16704,2020-01-08 16:17:36:904,1.7785,0.2435,12.1879,0.0462,0.0535,9.8063,-0.2122,0.3175,-0.1715,-8.81,-35.81,-11.87,241.33,-86.23,-147.63
52.237137,-2.13665,126.36,25.61,3,19.05,21 / 21,16804,2020-01-08 16:17:37:004,-0.5734,-0.8731,10.5486,0.007,0.0279,9.8065,-0.1138,0.1933,-0.0353,-9.19,-36.56,-11.56,242.2,-86.33,-146.67
52.237137,-2.13665,126.36,25.61,3,19.05,21 / 21,16905,2020-01-08 16:17:37:105,0.4469,0.9901,9.2708,0.0577,0.0833,9.8061,-0.1221,-0.097,-0.138,-8.56,-36.06,-11.94,241.87,-86.19,-146.95
52.237137,-2.13665,126.36,25.61,3,19.05,21 / 21,17005,2020-01-08 16:17:37:205,-1.5813,-4.0255,5.1449,0.0092,0.0628,9.8064,0.1615,-0.0494,-0.0501,-9.44,-36.06,-11.69,243.54,-86.42,-145.65
52.237137,-2.13665,126.36,25.61,3,19.05,21 / 21,17104,2020-01-08 16:17:37:304,-1.5261,-2.858,9.9257,-0.0132,-0.0284,9.8065,0.5769,-0.0485,-0.0874,-9.25,-36,-11.75,245.9,-86.51,-143.34
52.237137,-2.13665,126.36,25.61,3,19.05,21 / 21,17205,2020-01-08 16:17:37:405,-1.0839,-1.2088,8.8456,0.0327,0.0488,9.8064,0.4248,-0.1292,0.0166,-9.37,-35.87,-11.56,247.2,-86.44,-141.8
52.237137,-2.13665,126.36,25.61,3,19.05,21 / 21,17305,2020-01-08 16:17:37:505,0.4735,0.6905,10.696,-0.0356,-0.0217,9.8065,-0.005,0.0248,-0.0762,-8.81,-36.25,-11.44,249.42,-86.67,-141.96
52.237137,-2.13665,126.36,25.61,3,19.05,21 / 21,17405,2020-01-08 16:17:37:605,2.8087,-0.3807,10.1603,-0.037,0.0119,9.8065,0.1064,0.2268,-0.1308,-8.94,-36.06,-11.56,247.45,-86.69,-142.09
52.237137,-2.13665,126.36,25.61,3,19.05,21 / 21,17505,2020-01-08 16:17:37:705,-0.1907,4.0622,11.6126,-0.0231,-0.0642,9.8064,-0.1036,0.5244,-0.0774,-8.94,-35.87,-11.5,256,-86.84,-135.52
52.237137,-2.13665,126.36,25.61,3,19.05,21 / 21,17605,2020-01-08 16:17:37:805,-4.1973,2.5476,10.9163,-0.0282,0.0146,9.8066,-0.2455,0.1849,-0.1255,-9.44,-35.69,-12.75,245.98,-86.74,-141.94
52.237137,-2.13665,126.36,25.61,3,19.05,21 / 21,17705,2020-01-08 16:17:37:905,-2.2101,2.1931,7.4802,0.0478,-0.0574,9.8063,-0.374,0.1579,0.0904,-8.87,-35.81,-11.81,254.5,-86.57,-134.43
52.237137,-2.13665,126.36,25.61,3,19.05,23 / 23,17805,2020-01-08 16:17:38:005,1.0927,0.2294,12.4081,-0.0023,-0.0404,9.8065,0.0564,-0.2979,0.0898,-8.81,-35.75,-12.25,252.04,-86.78,-137.48
52.237137,-2.13665,126.36,25.61,3,19.05,23 / 23,17904,2020-01-08 16:17:38:104,4.4244,-0.0407,11.7458,0.0824,0.0926,9.8058,0.2181,-0.3968,0.1309,-8.5,-35.81,-12.19,242.4,-86.4,-143.34
52.237137,-2.13665,126.36,25.61,3,19.05,23 / 23,18004,2020-01-08 16:17:38:204,-1.168,0.2584,8.4775,0.071,0.0206,9.8063,0.1582,-0.612,0.2583,-8.81,-36.56,-12.12,248.31,-86.59,-140.75
52.237137,-2.13665,126.36,25.61,3,19.05,23 / 23,18105,2020-01-08 16:17:38:305,2.979,-4.4873,10.131,0.0095,0.0228,9.8065,0.0682,-0.3086,0.3256,-8.12,-36.37,-12.31,248.69,-86.72,-137.39
52.237137,-2.13665,126.36,25.61,3,19.05,23 / 23,18205,2020-01-08 16:17:38:405,-1.5262,1.4674,10.777,0.0293,-0.0198,9.8065,-0.0591,-0.3681,-0.0322,-8.69,-36.19,-11.81,252.62,-86.62,-136.5
52.237137,-2.13665,126.36,25.61,3,19.05,23 / 23,18305,2020-01-08 16:17:38:505,-2.1605,0.3055,9.3395,-0.0433,0.0213,9.8064,-0.0682,-0.2634,0.1376,-9.69,-35.69,-12.12,257.85,-86.79,-134.72
52.237137,-2.13665,126.36,25.61,3,19.05,23 / 23,18405,2020-01-08 16:17:38:605,-3.1496,2.2796,9.0263,0.0699,-0.0233,9.8064,0.1843,0.3058,-0.0291,-9.06,-36.12,-12.44,255.84,-86.51,-132.91
52.237137,-2.13665,126.36,25.61,3,19.05,23 / 23,18505,2020-01-08 16:17:38:705,-0.978,-0.9567,9.3498,-0.0474,0.035,9.8064,0.1491,0.1786,-0.2484,-9,-36.12,-11.62,251.19,-86.9,-138.64
52.237137,-2.13665,126.36,25.61,3,19.05,23 / 23,18604,2020-01-08 16:17:38:804,4.5012,-1.7437,11.7195,-0.0134,-0.0373,9.8066,-0.262,0.4742,-0.2347,-8.5,-36.25,-12.31,251.48,-86.71,-134.42
52.237137,-2.13665,126.36,25.61,3,19.05,22 / 23,18704,2020-01-08 16:17:38:904,-0.3146,-0.579,11.0698,-0.0762,-0.08,9.8059,-0.2785,0.3843,-0.0327,-9.37,-35.87,-12.12,249.83,-86.58,-139.34
52.237137,-2.13665,126.36,25.61,3,19.05,22 / 23,18804,2020-01-08 16:17:39:004,1.7039,0.7283,12.4023,-0.0085,-0.0291,9.8065,-0.3982,0.108,0.2425,-8.56,-36.31,-12.44,252.23,-86.93,-137.63
52.237137,-2.13665,126.36,25.61,3,19.05,22 / 23,18904,2020-01-08 16:17:39:104,1.066,-0.6784,8.1591,0.0141,-0.062,9.8064,-0.2309,-0.0494,0.1479,-9,-36.06,-12.12,256.15,-87.01,-133.75
52.237137,-2.13665,126.36,25.61,3,19.05,22 / 23,19005,2020-01-08 16:17:39:205,2.4695,-1.8899,11.5159,-0.0631,-0.0638,9.8061,-0.1001,-0.5164,0.2503,-8.87,-35.87,-12,252.15,-87.02,-137.92
52.237137,-2.13665,126.36,25.61,3,19.05,22 / 23,19105,2020-01-08 16:17:39:305,1.4433,-2.2873,9.2699,0.0708,-0.0185,9.8063,-0.048,-0.5786,0.3331,-8.75,-36.5,-12.19,251.62,-86.66,-137.64
52.237137,-2.13665,126.36,25.61,3,19.05,22 / 23,19205,2020-01-08 16:17:39:405,-3.9856,1.3508,8.0022,0.0075,-0.0513,9.8064,0.1602,-0.3787,0.2996,-8.75,-36.06,-12.06,251.57,-87.02,-138.51
52.237137,-2.13665,126.36,25.61,3,19.05,22 / 23,19304,2020-01-08 16:17:39:504,-0.077,-0.7058,9.2421,0.0525,0.0145,9.8064,0.2151,-0.4022,0.1403,-8.81,-35.69,-12.25,251.9,-87.17,-138.52
52.237137,-2.13665,126.36,25.61,3,19.05,22 / 23,19405,2020-01-08 16:17:39:605,-4.5637,3.6423,9.5354,0.06,-0.0199,9.8064,0.0535,-0.3271,0.0665,-8.5,-36.12,-11.5,253.8,-86.93,-134.41
52.237137,-2.13665,126.36,25.61,3,19.05,22 / 23,19505,2020-01-08 16:17:39:705,2.972,-0.8352,11.9308,0.0707,0.0066,9.8064,0.0443,-0.1463,0.1007,-8.62,-35.94,-11.69,252.05,-86.75,-137.41
52.237137,-2.13665,126.36,25.61,3,19.05,22 / 23,19605,2020-01-08 16:17:39:805,-2.6241,2.6663,9.6173,0.0624,0.014,9.8063,0.0683,0.2694,-0.0872,-8.75,-36.25,-12.19,249.4,-86.8,-140.29
52.237137,-2.13665,126.36,25.61,3,19.05,21 / 23,19705,2020-01-08 16:17:39:905,1.6695,1.8019,11.5423,-0.0233,0.056,9.8064,0.1043,0.3111,-0.3057,-8.69,-36,-11.75,245.17,-86.89,-144.93
52.237137,-2.13665,126.36,25.61,3,19.05,21 / 23,19805,2020-01-08 16:17:40:005,3.188,-0.6586,8.4821,0.0338,0.0491,9.8064,-0.1115,0.4849,-0.2834,-8.44,-36.31,-11.56,244.92,-86.92,-141.81
52.237137,-2.13665,126.36,25.61,3,19.05,21 / 23,19905,2020-01-08 16:17:40:105,-3.8505,2.0708,10.3362,-0.0421,0.0393,9.8065,-0.0808,0.4006,-0.1967,-7.87,-36.06,-11.87,248.4,-87.04,-138.43
52.237137,-2.13665,126.36,25.61,3,19.05,21 / 23,20005,2020-01-08 16:17:40:205,-0.6719,1.9525,10.5953,-0.0107,0.0368,9.8065,0.0709,0.3786,-0.1721,-7.94,-36.25,-12.37,245.94,-87.05,-141.03
52.237137,-2.13665,126.36,25.61,3,19.05,21 / 23,20105,2020-01-08 16:17:40:305,-3.8238,2.0545,10.5874,-0.0591,0.0639,9.8062,0.0987,0.2314,-0.1145,-8,-36.56,-12.31,243.27,-87.01,-143.58
52.237137,-2.13665,126.36,25.61,3,19.05,21 / 23,20205,2020-01-08 16:17:40:405,4.2358,-2.5247,9.6451,-0.0423,0.0475,9.8064,-0.1086,-0.0662,0.0328,-8.06,-35.94,-12.44,244.86,-86.82,-141.66
52.237137,-2.13665,126.36,25.61,3,19.05,21 / 23,20304,2020-01-08 16:17:40:504,-2.4535,2.016,10.3346,-0.0512,0.0055,9.8065,-0.1446,-0.2548,0.195,-8.12,-36.44,-11.69,245.38,-86.67,-140.77
52.237137,-2.13665,126.36,25.61,3,19.05,21 / 23,20404,2020-01-08 16:17:40:604,2.6386,-1.1029,9.7092,-0.0326,-0.0012,9.8065,-0.0485,-0.3356,0.1314,-7.94,-35.37,-12.25,247.45,-86.88,-139.26
52.237137,-2.13665,126.36,25.61,3,19.05,21 / 23,20505,2020-01-08 16:17:40:705,-0.2339,1.3704,8.6874,0.0399,0.0071,9.8065,0.0296,-0.2968,0.0925,-8.25,-36.31,-12.31,246.7,-86.96,-140.04
52.237137,-2.13665,126.36,25.61,3,19.05,21 / 23,20605,2020-01-08 16:17:40:805,3.0838,0.2658,12.338,0.0117,-0.0144,9.8065,0.2336,-0.3155,0.2975,-8.19,-36.44,-12.06,247.02,-86.92,-139.6
52.237137,-2.13665,126.36,25.61,3,19.05,21 / 23,20705,2020-01-08 16:17:40:905,-0.964,3.0459,8.9018,0.095,0.0395,9.8061,0.218,-0.3648,0.2684,-8.31,-36.5,-11.81,245.13,-86.42,-140.47
52.237137,-2.13665,126.36,25.61,3,19.05,21 / 23,20805,2020-01-08 16:17:41:005,1.6269,-0.4359,9.5175,-0.0461,-0.0834,9.8061,0.1152,-0.2847,0.1856,-8.19,-36.44,-11.87,250.55,-86.88,-135.78
52.237137,-2.13665,126.36,25.61,3,19.05,21 / 23,20905,2020-01-08 16:17:41:105,2.4037,1.0231,10.4683,0.0001,-0.0059,9.8066,0.1085,0.2007,-0.0325,-8.44,-36.44,-11.31,248.16,-86.77,-139.92
52.237137,-2.13665,126.36,25.61,3,19.05,21 / 23,21004,2020-01-08 16:17:41:204,-2.6324,0.1163,8.495,-0.0314,-0.0419,9.8065,0.1092,0.199,-0.2076,-8.06,-35.87,-11.94,246.31,-86.83,-140.14
52.237137,-2.13665,126.36,25.61,3,19.05,21 / 23,21105,2020-01-08 16:17:41:305,1.8539,-1.1086,8.5565,-0.0485,0.0371,9.8064,0.1065,0.4751,-0.3394,-7.75,-36,-12.25,246.66,-87.02,-140.2
52.237137,-2.13665,126.36,25.61,3,19.05,21 / 23,21205,2020-01-08 16:17:41:405,-4.3749,2.1806,10.466,-0.0222,-0.0056,9.8066,0.1589,0.5628,-0.319,-7.69,-36,-12.69,247.9,-86.98,-137.12
52.237137,-2.13665,126.36,25.61,3,19.05,21 / 23,21305,2020-01-08 16:17:41:505,0.3823,-0.6446,9.7925,-0.0614,0.0574,9.8062,0.2901,0.6306,-0.3558,-8.19,-35.75,-11.94,245.79,-86.93,-140.92
52.237137,-2.13665,126.36,25.61,3,19.05,21 / 23,21404,2020-01-08 16:17:41:604,-4.3856,5.5947,11.384,0.0253,-0.0261,9.8066,0.1954,0.5139,-0.3013,-8.56,-36.06,-12.06,253.7,-86.83,-135.87
52.237137,-2.13665,126.36,25.61,3,19.05,21 / 23,21505,2020-01-08 16:17:41:705,2.569,-1.242,10.4908,-0.0712,0.0447,9.8062,-0.0633,0.1387,-0.0826,-8.81,-36.06,-11,249.87,-86.97,-142.21
52.237137,-2.13665,126.36,25.61,3,19.05,21 / 23,21605,2020-01-08 16:17:41:805,4.7322,-4.3479,8.66,0.0643,-0.0889,9.806,-0.185,-0.1545,0.1683,-8.56,-36.06,-12.06,257.39,-86.68,-131.69
52.237137,-2.13665,126.36,25.61,3,19.05,21 / 23,21705,2020-01-08 16:17:41:905,3.863,-0.9774,8.803,-0.003,-0.02,9.8066,-0.3388,-0.685,0.4459,-8.06,-35.94,-11.62,248.77,-86.91,-137.73
52.237137,-2.13665,126.36,25.61,3,19.05,22 / 23,21805,2020-01-08 16:17:42:005,4.1709,-3.4787,8.6608,0.09,-0.1137,9.8055,-0.258,-0.778,0.6032,-7.62,-36.25,-11.5,255.8,-86.79,-131.97
52.237137,-2.13665,126.36,25.61,3,19.05,22 / 23,21905,2020-01-08 16:17:42:105,-5.2036,5.3258,11.983,0.0415,-0.0933,9.8061,-0.3493,-1.0913,0.5049,-8.12,-36.44,-11.75,250.12,-87.07,-136.7
52.237137,-2.13665,126.36,25.61,3,19.05,22 / 23,22004,2020-01-08 16:17:42:204,3.1277,-3.9127,9.4797,0.0691,-0.0594,9.8062,-0.1533,-0.8854,0.6626,-8.56,-35.81,-12.31,245.82,-86.99,-144.48
52.237137,-2.13665,126.36,25.61,3,19.05,22 / 23,22104,2020-01-08 16:17:42:304,-7.0626,4.4747,11.5417,0.09,-0.1071,9.8056,-0.0862,-0.5259,0.3667,-7.81,-35.87,-11.44,251.02,-86.82,-137.05
52.237137,-2.13665,126.36,25.61,3,19.05,22 / 23,22205,2020-01-08 16:17:42:405,5.962,-4.9474,8.1315,0.0031,-0.0169,9.8065,-0.079,-0.4194,0.1302,-8.31,-36.56,-12.31,242.92,-86.83,-143.53
52.237137,-2.13665,126.36,25.61,3,19.05,22 / 23,22305,2020-01-08 16:17:42:505,0.5728,-0.132,9.3988,0.1092,-0.1158,9.8053,0.0167,0.1233,-0.0345,-7.56,-36.12,-12.06,250.2,-86.54,-135.36
52.237137,-2.13665,126.36,25.61,3,19.05,22 / 23,22405,2020-01-08 16:17:42:605,7.1224,-5.1349,6.7885,-0.0372,0.0735,9.8062,0.1507,0.7916,-0.2148,-8.62,-36.37,-11.69,254.24,-86.94,-135.57
52.237137,-2.13665,126.36,25.61,3,19.05,22 / 23,22505,2020-01-08 16:17:42:705,2.901,-1.8983,9.094,-0.0191,0.0036,9.8066,0.1322,0.9866,-0.7686,-8.62,-35.75,-12.19,249.82,-87,-140.3
52.237137,-2.13665,126.36,25.61,3,19.05,22 / 23,22605,2020-01-08 16:17:42:805,-7.8315,4.7291,10.4707,-0.1279,0.0908,9.8053,0.1942,1.0533,-0.6622,-8.56,-35.94,-12.81,238.17,-87.25,-151.24
52.237137,-2.13665,126.36,25.61,3,19.05,22 / 23,22705,2020-01-08 16:17:42:905,0.6417,-0.8701,10.5354,-0.0701,0.0553,9.8062,-0.019,0.5977,-0.4195,-7.94,-36.06,-12,239.69,-87.09,-147.75
52.239143,-2.1356,126.39,26.48,4,13.63,22 / 23,22805,2020-01-08 16:17:43:005,-2.6654,4.479,10.0751,-0.0614,0.0489,9.8063,0.0048,0.4201,-0.1956,-7.25,-36.5,-11.94,241.63,-86.86,-141.5
52.239143,-2.1356,126.39,26.48,4,13.63,22 / 23,22905,2020-01-08 16:17:43:105,7.1614,-2.3397,10.417,-0.113,0.047,9.8059,-0.1092,-0.2302,0.1237,-7.44,-36.56,-12.12,232.3,-86.91,-151.47
52.239143,-2.1356,126.39,26.48,4,13.63,22 / 23,23004,2020-01-08 16:17:43:204,0.1285,1.8305,8.901,-0.0066,-0.0168,9.8066,-0.1094,-0.3992,0.3026,-7.44,-36.37,-12,235.95,-86.85,-147.56
52.239143,-2.1356,126.39,26.48,4,13.63,22 / 23,23105,2020-01-08 16:17:43:305,8.4356,-2.2205,9.6465,-0.1116,0.0241,9.8059,-0.028,-1.0128,0.5202,-7.75,-35.87,-11.81,234.49,-87.13,-153.39
52.239143,-2.1356,126.39,26.48,4,13.63,22 / 23,23205,2020-01-08 16:17:43:405,0.3397,1.8905,8.7305,0.0918,-0.0718,9.8059,-0.0189,-1.0224,0.6046,-8,-35.87,-12.06,233.26,-87.04,-154.52
52.239143,-2.1356,126.39,26.48,4,13.63,22 / 23,23305,2020-01-08 16:17:43:505,-5.998,4.1444,9.1713,-0.0107,-0.0099,9.8066,0.1169,-0.7681,0.4904,-8.12,-36,-11.94,239.29,-86.96,-147.9
52.239143,-2.1356,126.39,26.48,4,13.63,22 / 23,23405,2020-01-08 16:17:43:605,3.7147,-3.1814,9.8779,0.1033,-0.0396,9.806,-0.0359,-0.5618,0.2625,-7.75,-36.19,-11.75,243.34,-86.51,-142.56
52.239143,-2.1356,126.39,26.48,4,13.63,22 / 23,23505,2020-01-08 16:17:43:705,-2.0015,0.9729,10.1083,0.096,-0.0149,9.8062,0.0437,0.1604,-0.0597,-7.81,-36.31,-12.44,239.96,-86.52,-146.24
52.239143,-2.1356,126.39,26.48,4,13.63,22 / 23,23605,2020-01-08 16:17:43:805,4.7577,-1.9767,10.3142,0.0533,-0.0135,9.8064,0.0215,0.3242,-0.1108,-7.44,-35.75,-11.87,234.97,-86.64,-148.17
52.239143,-2.1356,126.39,26.48,4,13.63,22 / 23,23705,2020-01-08 16:17:43:905,-1.8446,3.1901,10.7258,0.0698,-0.0434,9.8063,0.0344,0.5973,-0.4056,-7.69,-36.69,-12.12,240.33,-86.67,-145.96
52.239143,-2.1356,126.39,26.48,4,13.63,22 / 22,23805,2020-01-08 16:17:44:005,5.3075,-3.1482,10.4906,-0.0105,-0.05,9.8064,-0.0073,0.6347,-0.5801,-8.5,-36.25,-12.12,237.14,-86.58,-149.4
52.239143,-2.1356,126.39,26.48,4,13.63,22 / 22,23905,2020-01-08 16:17:44:105,-3.993,5.5296,11.4277,0.0991,-0.0855,9.8057,0.2172,0.8016,-0.524,-7.62,-36.56,-12.31,243.16,-86.63,-142.82
52.239143,-2.1356,126.39,26.48,4,13.63,22 / 22,24005,2020-01-08 16:17:44:205,-1.3532,1.1138,8.6797,-0.0424,-0.0123,9.8065,0.1775,0.778,-0.4677,-8.12,-36.31,-11.94,238.85,-86.54,-147.47
52.239143,-2.1356,126.39,26.48,4,13.63,22 / 22,24104,2020-01-08 16:17:44:304,-4.9982,3.3859,11.8593,0.0241,-0.0864,9.8062,0.344,0.5091,-0.3854,-7.81,-36.44,-12.25,241.09,-86.64,-145.28
52.239143,-2.1356,126.39,26.48,4,13.63,22 / 22,24205,2020-01-08 16:17:44:405,-0.6085,0.2317,10.249,-0.0491,0.0871,9.8061,-0.0158,0.148,-0.0627,-8.19,-35.62,-12.06,230.41,-86.52,-156.62
52.239143,-2.1356,126.39,26.48,4,13.63,22 / 22,24305,2020-01-08 16:17:44:505,4.1962,-2.9338,9.4216,-0.0053,0.017,9.8065,0.1406,0.1621,0.0727,-7.94,-36.19,-11.94,233.69,-86.47,-152.93
52.239143,-2.1356,126.39,26.48,4,13.63,22 / 22,24405,2020-01-08 16:17:44:605,5.048,-3.0717,8.7627,-0.1241,0.0599,9.8057,0.1403,-0.0353,-0.1008,-8,-36.37,-12,240,-86.38,-145.89
52.239143,-2.1356,126.39,26.48,4,13.63,22 / 22,24505,2020-01-08 16:17:44:705,2.634,0.1246,11.0406,-0.0212,-0.0506,9.8064,0.1494,-0.2135,-0.0139,-8.06,-36.37,-11.75,236.96,-86.76,-149.97
52.239143,-2.1356,126.39,26.48,4,13.63,22 / 22,24604,2020-01-08 16:17:44:804,-2.4917,2.1686,9.6437,-0.0371,0.069,9.8063,-0.1166,-0.4047,0.314,-7.5,-36.75,-12.06,232.22,-86.64,-150.99
52.239143,-2.1356,126.39,26.48,4,13.63,22 / 22,24705,2020-01-08 16:17:44:905,5.7395,-6.1339,8.0816,-0.0728,0.0095,9.8063,-0.1253,-0.5901,0.5778,-7.87,-36.87,-12.12,232.53,-86.88,-154.84
52.239143,-2.1356,126.39,26.48,4,13.63,21 / 23,24805,2020-01-08 16:17:45:005,0.1637,0.7034,9.6195,-0.096,0.1349,9.8052,-0.2255,-0.8229,0.678,-7.75,-35.87,-11.69,243.33,-86.73,-143.07
52.239143,-2.1356,126.39,26.48,4,13.63,21 / 23,24905,2020-01-08 16:17:45:105,1.9232,-1.2439,9.252,-0.0828,0.0893,9.8059,-0.3005,-0.7811,0.5309,-7.87,-36.5,-11.31,233.76,-86.7,-155.25
52.239143,-2.1356,126.39,26.48,4,13.63,21 / 23,25005,2020-01-08 16:17:45:205,-5.7099,6.5032,12.6112,-0.007,0.0581,9.8065,-0.3396,-0.8446,0.481,-7.44,-36.44,-11.31,227.26,-86.6,-158.35
52.239143,-2.1356,126.39,26.48,4,13.63,21 / 23,25105,2020-01-08 16:17:45:305,2.2115,-2.3513,9.3604,-0.1291,0.1427,9.8047,-0.2465,-0.682,0.6077,-8.06,-35.75,-12.5,222.65,-86.69,-165.48
52.239143,-2.1356,126.39,26.48,4,13.63,21 / 23,25205,2020-01-08 16:17:45:405,-4.8309,5.0024,9.8049,-0.0233,-0.0354,9.8066,0.1096,-0.3876,0.3249,-7.44,-36.69,-12.44,232.21,-87.04,-151.85
52.239143,-2.1356,126.39,26.48,4,13.63,21 / 23,25305,2020-01-08 16:17:45:505,4.1694,-0.847,10.6059,-0.0952,-0.0008,9.8061,0.1279,-0.1461,0.0736,-7.87,-36.37,-12.87,233.31,-87.02,-152.68
52.239143,-2.1356,126.39,26.48,4,13.63,21 / 23,25404,2020-01-08 16:17:45:604,2.0763,-3.3351,9.0154,0.0397,-0.064,9.8063,0.1629,0.2936,-0.1877,-7.81,-36.37,-12.69,231.31,-86.94,-154.68
52.239143,-2.1356,126.39,26.48,4,13.63,21 / 23,25505,2020-01-08 16:17:45:705,-1.9974,3.7941,10.8827,-0.0579,-0.0041,9.8064,0.1386,0.3656,-0.1986,-8.12,-35.81,-11.56,234.13,-87.09,-153.71
52.239143,-2.1356,126.39,26.48,4,13.63,21 / 23,25605,2020-01-08 16:17:45:805,-5.2451,3.1448,8.7913,0.0526,-0.0504,9.8063,0.0761,0.4795,-0.3484,-7.44,-36,-11.81,234,-86.96,-149.9
52.239143,-2.1356,126.39,26.48,4,13.63,22 / 22,25705,2020-01-08 16:17:45:905,-0.0584,2.4803,9.9878,-0.0175,-0.0164,9.8066,0.0952,0.7887,-0.434,-7.69,-35.94,-11.62,233.34,-87.08,-154.53
52.239143,-2.1356,126.39,26.48,4,13.63,22 / 22,25805,2020-01-08 16:17:46:005,5.9275,-5.2521,9.5412,0.1064,-0.0888,9.8056,0.2224,0.8999,-0.6748,-7.19,-35.94,-12.12,239.26,-86.97,-144.26
52.239143,-2.1356,126.39,26.48,4,13.63,22 / 22,25906,2020-01-08 16:17:46:106,2.738,-2.9765,8.9227,0.0494,0.0128,9.8065,0.1237,0.8776,-0.6644,-7.19,-36.12,-12.19,230.7,-86.96,-153.48
52.239143,-2.1356,126.39,26.48,4,13.63,22 / 22,26005,2020-01-08 16:17:46:205,2.8113,-0.4934,10.5273,0.0857,-0.0833,9.8059,0.225,0.8051,-0.4584,-7.62,-36.12,-12.25,230.19,-87.21,-158.19
52.239143,-2.1356,126.39,26.48,4,13.63,22 / 22,26105,2020-01-08 16:17:46:305,-5.2313,4.7525,10.0881,0.0539,0.0066,9.8065,0.1661,0.7284,-0.4545,-8.44,-35.75,-12,237.77,-87.01,-149.63
52.239143,-2.1356,126.39,26.48,4,13.63,22 / 22,26204,2020-01-08 16:17:46:404,0.4754,1.4978,11.1126,0.0668,-0.0718,9.8061,0.2129,0.3554,-0.3468,-7.5,-36.12,-11.94,238.46,-87.11,-145.41
52.239143,-2.1356,126.39,26.48,4,13.63,22 / 22,26304,2020-01-08 16:17:46:504,-5.4771,4.4398,10.7294,0.048,-0.0292,9.8065,0.2249,0.3903,-0.1387,-7.19,-35.94,-12.12,234.04,-87.14,-150.23
52.239143,-2.1356,126.39,26.48,4,13.63,22 / 22,26405,2020-01-08 16:17:46:605,4.1395,-3.7225,9.5242,0.0665,-0.0642,9.8062,0.0015,0.1516,-0.0173,-7.62,-36.56,-12.19,242.22,-87.21,-145.15
52.239143,-2.1356,126.39,26.48,4,13.63,22 / 22,26505,2020-01-08 16:17:46:705,-4.2638,3.6716,10.9277,-0.0547,0.0161,9.8065,-0.1394,-0.0914,0.1016,-7,-36.31,-12,230.11,-87.28,-154.77
52.239143,-2.1356,126.39,26.48,4,13.63,22 / 22,26605,2020-01-08 16:17:46:805,6.7547,-3.3867,10.2775,-0.093,0.0364,9.8061,0.003,-0.5462,0.426,-7.87,-36.44,-11.69,234.02,-87.24,-154.11
52.239143,-2.1356,126.39,26.48,4,13.63,21 / 21,26705,2020-01-08 16:17:46:905,0.9327,0.597,10.6641,0.015,0.0188,9.8066,-0.0431,-0.768,0.5787,-7.5,-36.31,-11.62,235.72,-87.11,-148.36
52.239143,-2.1356,126.39,26.48,4,13.63,21 / 21,26805,2020-01-08 16:17:47:005,6.0572,-3.4235,8.8545,-0.0883,0.0702,9.8059,-0.1725,-0.9236,0.4702,-7.5,-35.87,-11.81,230.69,-87.1,-153.78
52.239143,-2.1356,126.39,26.48,4,13.63,21 / 21,26905,2020-01-08 16:17:47:105,-0.6062,4.6333,11.3923,0.0676,-0.0309,9.8064,-0.2146,-0.8254,0.5439,-7.62,-36,-12.5,234.2,-87.25,-153.94
52.239143,-2.1356,126.39,26.48,4,13.63,21 / 21,27005,2020-01-08 16:17:47:205,-3.3397,3.7882,8.2701,-0.0256,0.0816,9.8062,-0.0097,-0.6382,0.5843,-7.56,-36.62,-11.37,233.75,-87.09,-155.91
52.239143,-2.1356,126.39,26.48,4,13.63,21 / 21,27105,2020-01-08 16:17:47:305,-2.2027,3.975,11.2594,0.0711,0.0336,9.8062,-0.2248,-0.4172,0.4564,-7.19,-35.87,-11.44,233.07,-86.61,-151.94
52.239143,-2.1356,126.39,26.48,4,13.63,21 / 21,27205,2020-01-08 16:17:47:405,-0.037,0.2904,8.104,-0.0115,0.0837,9.8063,-0.2621,-0.259,0.1902,-7.31,-35.87,-12.31,230.16,-86.86,-153.87
52.239143,-2.1356,126.39,26.48,4,13.63,21 / 21,27305,2020-01-08 16:17:47:505,3.4183,-1.8256,9.081,0.0464,-0.0506,9.8064,-0.2838,-0.199,0.0412,-6.87,-36.56,-12,236.27,-86.94,-147.22
52.239143,-2.1356,126.39,26.48,4,13.63,21 / 21,27405,2020-01-08 16:17:47:605,3.0721,-2.7676,8.5087,0.0229,0.0222,9.8065,-0.1818,-0.2104,0.1556,-7.37,-35.75,-12.31,230.75,-86.98,-153.46
52.239143,-2.1356,126.39,26.48,4,13.63,21 / 21,27504,2020-01-08 16:17:47:704,2.6523,-0.355,9.8066,0.0512,-0.0908,9.806,0.0327,0.2206,-0.0709,-7.87,-36.19,-12.37,231.79,-86.96,-155.97
52.239143,-2.1356,126.39,26.48,4,13.63,21 / 21,27605,2020-01-08 16:17:47:805,-2.6796,2.4001,10.0216,0.0331,-0.0255,9.8065,0.0549,0.1633,-0.228,-8.25,-36.31,-11.75,239.49,-86.88,-147.51
52.239143,-2.1356,126.39,26.48,4,13.63,21 / 21,27705,2020-01-08 16:17:47:905,3.5275,-1.5312,9.8469,0.059,-0.0506,9.8062,0.0556,0.3582,-0.1842,-7.87,-36.31,-11.94,242.21,-86.88,-144.6
52.239143,-2.1356,126.39,26.48,4,13.63,21 / 22,27805,2020-01-08 16:17:48:005,-3.7031,3.318,9.7292,0.03,-0.0295,9.8065,0.1471,0.4858,-0.2514,-7.25,-36.69,-11.25,238.12,-86.92,-146.94
52.239143,-2.1356,126.39,26.48,4,13.63,21 / 22,27905,2020-01-08 16:17:48:105,4.8156,-1.044,10.7911,0.058,-0.0217,9.8064,-0.0168,0.8575,-0.5505,-7.37,-36,-11.81,236.97,-86.74,-146.22
52.239143,-2.1356,126.39,26.48,4,13.63,21 / 22,28004,2020-01-08 16:17:48:204,-4.2451,2.9338,10.505,0.1005,-0.043,9.806,0.0615,0.5839,-0.49,-7.31,-37.06,-11.87,234.44,-86.51,-148.29
52.239143,-2.1356,126.39,26.48,4,13.63,21 / 22,28104,2020-01-08 16:17:48:304,0.4054,4.229,11.426,0.0106,0.0649,9.8063,-0.1293,0.2783,-0.0214,-7.37,-35.94,-11.69,230.81,-86.66,-152.77
52.239143,-2.1356,126.39,26.48,4,13.63,21 / 22,28205,2020-01-08 16:17:48:405,-4.8848,4.3285,10.5188,0.0301,-0.0265,9.8065,-0.2203,0.2551,0.0954,-6.81,-36.81,-12,232.18,-86.53,-150.81
52.239143,-2.1356,126.39,26.48,4,13.63,21 / 22,28305,2020-01-08 16:17:48:505,2.9165,0.2187,10.8558,-0.0357,0.101,9.806,-0.3205,-0.0806,0.1021,-7.87,-36.12,-11.75,229.58,-86.38,-157.27
52.239143,-2.1356,126.39,26.48,4,13.63,21 / 22,28405,2020-01-08 16:17:48:605,5.1399,-3.1716,8.6806,0.045,-0.0131,9.8065,-0.1695,-0.2281,0.2876,-7.25,-36.25,-11.62,234.81,-86.54,-148.14
52.239143,-2.1356,126.39,26.48,4,13.63,21 / 22,28504,2020-01-08 16:17:48:704,4.7524,-3.3788,9.2638,-0.0965,0.0808,9.8058,-0.283,-0.5586,0.4246,-7.12,-36.19,-11.81,237.93,-86.43,-144.51
52.239143,-2.1356,126.39,26.48,4,13.63,21 / 22,28605,2020-01-08 16:17:48:805,0.9744,-1.2276,9.5574,0.0059,0.0336,9.8065,-0.2255,-0.5204,0.4173,-7.56,-35.94,-12.19,235.01,-86.41,-151.37
52.239143,-2.1356,126.39,26.48,4,13.63,21 / 21,28705,2020-01-08 16:17:48:905,-2.3728,2.0783,10.3041,-0.0985,0.1003,9.8056,-0.252,-0.8286,0.6134,-7.12,-35.94,-12.25,222.05,-86.5,-162.17
52.239143,-2.1356,126.39,26.48,4,13.63,21 / 21,28804,2020-01-08 16:17:49:004,6.9897,-7.1248,7.2758,-0.0354,0.0454,9.8064,-0.3152,-0.9314,0.7094,-7.56,-36.25,-12.25,230.18,-86.46,-156.76
52.239143,-2.1356,126.39,26.48,4,13.63,21 / 21,28905,2020-01-08 16:17:49:105,-0.3139,2.0446,9.5634,-0.0848,0.1076,9.8056,-0.2459,-1.033,0.5968,-7,-36.62,-11.87,234.75,-86.64,-148.22
52.239143,-2.1356,126.39,26.48,4,13.63,21 / 21,29005,2020-01-08 16:17:49:205,7.8787,-4.5268,8.1179,-0.1065,0.0948,9.8055,-0.1181,-0.8528,0.6551,-7.37,-35.69,-12.37,225.74,-86.68,-158.39
52.239143,-2.1356,126.39,26.48,4,13.63,21 / 21,29104,2020-01-08 16:17:49:304,-6.3273,5.1523,13.0075,-0.058,0.0463,9.8063,0.0138,-0.2689,0.1681,-6.69,-36.06,-11.56,234.34,-86.46,-148.5
52.239143,-2.1356,126.39,26.48,4,13.63,21 / 21,29205,2020-01-08 16:17:49:405,1.7021,0.7756,9.9514,-0.0679,0.1421,9.8053,0.0811,0.0984,-0.2104,-7.87,-36.12,-11.87,228.26,-86.45,-158.86
52.239143,-2.1356,126.39,26.48,4,13.63,21 / 21,29305,2020-01-08 16:17:49:505,-4.7049,4.3274,11.1558,-0.0066,-0.035,9.8065,0.2479,0.3306,-0.1608,-7.25,-36.44,-11.87,230.5,-86.7,-153.19
52.239143,-2.1356,126.39,26.48,4,13.63,21 / 21,29405,2020-01-08 16:17:49:605,5.1884,-0.7029,10.1442,-0.0921,0.0119,9.8061,0.2005,0.3865,-0.1153,-7.44,-36.19,-11.81,228.96,-86.74,-154.96
52.239143,-2.1356,126.39,26.48,4,13.63,21 / 21,29505,2020-01-08 16:17:49:705,2.9261,-0.3707,10.6557,0.0484,-0.0227,9.8064,0.1253,0.6331,-0.5608,-7.12,-36.25,-11.81,231.55,-86.46,-151.56
52.239143,-2.1356,126.39,26.48,4,13.63,21 / 21,29605,2020-01-08 16:17:49:805,6.8686,-3.0716,9.6755,-0.0709,0.0743,9.8061,0.1533,0.7574,-0.603,-8.06,-36.87,-11.06,229.55,-86.55,-159.36
52.239143,-2.1356,126.39,26.48,4,13.63,23 / 23,29705,2020-01-08 16:17:49:905,-0.6946,1.693,9.6377,0.0343,-0.0497,9.8064,0.1127,0.8109,-0.4062,-6.94,-36.31,-11.37,226.61,-86.44,-158.75
52.239143,-2.1356,126.39,26.48,4,13.63,23 / 23,29804,2020-01-08 16:17:50:004,-5.9983,2.8579,9.9533,-0.0036,0.0185,9.8066,0.117,0.8755,-0.4085,-7.94,-35.81,-11.56,231.02,-86.5,-155.91
52.239143,-2.1356,126.39,26.48,4,13.63,23 / 23,29905,2020-01-08 16:17:50:105,-1.873,1.0087,10.3717,0.0954,-0.0805,9.8058,0.0934,0.4016,-0.4643,-7.19,-36.81,-11.62,232.73,-86.45,-150.04
52.239143,-2.1356,126.39,26.48,4,13.63,23 / 23,30005,2020-01-08 16:17:50:205,-3.3653,2.8199,11.7157,0.0077,-0.0367,9.8066,-0.0149,0.2999,-0.1818,-6.69,-35.87,-11.06,229.04,-86.54,-156.25
52.239143,-2.1356,126.39,26.48,4,13.63,23 / 23,30104,2020-01-08 16:17:50:304,6.0811,-4.4487,10.0832,0.0687,-0.0707,9.8061,0.0776,0.2183,0.2279,-6.56,-36.12,-11.5,230.72,-86.47,-154.25
52.239143,-2.1356,126.39,26.48,4,13.63,23 / 23,30204,2020-01-08 16:17:50:404,-1.1593,0.7862,9.2362,0.146,-0.0209,9.8055,0.005,-0.0732,0.1319,-7.87,-36.69,-11.94,230.81,-86.35,-155.66
52.239143,-2.1356,126.39,26.48,4,13.63,23 / 23,30305,2020-01-08 16:17:50:505,2.7766,-2.7942,9.7775,0.0436,-0.1013,9.806,0.0387,-0.5161,0.0961,-7.62,-36.25,-11.69,227.75,-86.65,-159.79
52.239143,-2.1356,126.39,26.48,4,13.63,23 / 23,30405,2020-01-08 16:17:50:605,-6.5518,5.4666,11.2207,0.0872,-0.1069,9.8057,-0.2039,-0.7749,0.5678,-6.69,-36.06,-11.25,240.28,-86.71,-144.32
52.239143,-2.1356,126.39,26.48,4,13.63,23 / 23,30505,2020-01-08 16:17:50:705,6.143,-3.0011,10.1618,0.0139,-0.0011,9.8066,-0.0711,-0.7911,0.6188,-7.37,-36.62,-11.19,233.93,-86.77,-151.14
52.239143,-2.1356,126.39,26.48,4,13.63,23 / 23,30605,2020-01-08 16:17:50:805,-6.3034,3.4622,10.2052,0.0838,-0.0343,9.8062,-0.0188,-0.8217,0.439,-6.37,-36.75,-11.75,226.18,-86.74,-153.92
52.239143,-2.1356,126.39,26.48,4,13.63,23 / 23,30705,2020-01-08 16:17:50:905,2.3698,-1.502,8.057,-0.0704,-0.0106,9.8064,-0.1747,-0.7418,0.3762,-6.94,-36.06,-11.69,224.45,-86.72,-159.88
52.239143,-2.1356,126.39,26.48,4,13.63,23 / 23,30804,2020-01-08 16:17:51:004,2.5971,-1.504,10.4715,0.0543,-0.0709,9.8062,-0.1191,-0.3434,0.466,-6.31,-36.31,-11.19,227.14,-86.92,-155.01
52.239143,-2.1356,126.39,26.48,4,13.63,23 / 23,30905,2020-01-08 16:17:51:105,4.2999,-3.8993,8.9651,-0.0362,0.0376,9.8065,-0.0868,-0.3697,0.192,-6.75,-35.94,-10.62,223.27,-86.84,-163.25
52.239143,-2.1356,126.39,26.48,4,13.63,23 / 23,31005,2020-01-08 16:17:51:205,0.4827,-1.0281,9.4921,0.0096,0.0076,9.8066,-0.0239,0.0519,-0.0341,-6.56,-36.31,-11.25,227.8,-86.82,-158.19
52.239143,-2.1356,126.39,26.48,4,13.63,23 / 23,31105,2020-01-08 16:17:51:305,-5.651,3.2747,9.5326,-0.0888,0.0253,9.8062,0.0519,0.2251,-0.0697,-6.87,-36.62,-11.81,230.13,-86.67,-153.35
52.239143,-2.1356,126.39,26.48,4,13.63,23 / 23,31204,2020-01-08 16:17:51:404,-0.3902,-0.3819,9.3358,-0.0069,0.0344,9.8065,0.0411,0.5731,-0.287,-6.37,-36,-11.25,226.29,-86.77,-155.64
52.239143,-2.1356,126.39,26.48,4,13.63,23 / 23,31305,2020-01-08 16:17:51:505,-4.2624,2.2868,8.7742,-0.0771,0.0125,9.8063,-0.054,0.5452,-0.4259,-6.81,-36.56,-11.75,225.44,-86.98,-159.12
52.239143,-2.1356,126.39,26.48,4,13.63,23 / 23,31404,2020-01-08 16:17:51:604,3.7507,-0.3364,11.4259,-0.0681,0.0038,9.8063,-0.1169,0.4189,-0.2988,-6.69,-36.31,-11.62,226.42,-86.78,-157.83
52.239143,-2.1356,126.39,26.48,4,13.63,23 / 23,31505,2020-01-08 16:17:51:705,-2.2495,2.0381,9.5613,-0.0304,0.0142,9.8066,-0.0807,0.5685,-0.1337,-6.69,-36.31,-11.56,228.28,-86.52,-155.28
52.239143,-2.1356,126.39,26.48,4,13.63,23 / 23,31605,2020-01-08 16:17:51:805,4.3076,-0.0142,11.0134,-0.0809,0.0043,9.8063,-0.0229,0.4023,-0.3594,-6.31,-36.19,-11.94,220.37,-86.86,-160.77
52.239143,-2.1356,126.39,26.48,4,13.63,22 / 22,31705,2020-01-08 16:17:51:905,-3.5924,2.6155,9.733,-0.0324,0.0225,9.8065,0.0389,0.4119,-0.3671,-6.19,-36.19,-12.25,218.93,-86.57,-161.89
52.239143,-2.1356,126.39,26.48,4,13.63,22 / 22,31805,2020-01-08 16:17:52:005,1.0418,-0.4223,9.8279,-0.0807,0.0219,9.8062,-0.0135,0.273,-0.1681,-6.19,-36.12,-11.75,216.4,-86.63,-164.83
52.241257,-2.134769,126.22,26.37,4,10.14,22 / 22,31905,2020-01-08 16:17:52:105,-4.7696,3.7037,8.3713,0.0322,0.0018,9.8065,-0.0231,0.1913,0.0688,-5.87,-36.31,-12,217.64,-86.52,-163.27
