GPS LATITUDE (degrees), GPS LONGITUDE (degrees), GPS ALTITUDE (m), GPS SPEED (Kmh), GPS ACCURACY (m), GPS ORIENTATION (Â°),GPS SATELLITES IN RANGE, TIME SINCE START (ms), DATE (YYYY-MO-DD HH-MI-SS_SSS), ACCELEROMETER X (m/s²) , ACCELEROMETER Y (m/s²), ACCELEROMETER Z (m/s²), GRAVITY X (m/s²), GRAVITY Y (m/s²), GRAVITY Z (m/s²), GYROSCOPE Yaw (rad/s), GYROSCOPE Pitch (rad/s), GYROSCOPE Roll (rad/s), MAGNETIC FIELD X (Î¼T), MAGNETIC FIELD Y (Î¼T), MAGNETIC FIELD Z (Î¼T), ORIENTATION (Yaw) (Â°), ORIENTATION (Pitch) (Â°), ORIENTATION (Roll ) (Â°)
52.524723,-1.728755,155.11,19.79,4,347.42,23 / 24,2274008,2020-01-08 16:59:08:984,0.3723,-0.2073,10.3889,-0.0242,-0.0199,9.8066,0.0359,0.098,0.0326,-1.94,-36.44,-13,211.63,-85.01,-150.03
52.524723,-1.728755,155.11,19.79,4,347.42,23 / 24,2274108,2020-01-08 16:59:09:084,-1.0677,0.4332,9.1813,0.0152,0.0014,9.8066,-0.04,0.0975,-0.1735,-1.19,-36.44,-13,207.16,-85.22,-151.3
52.524723,-1.728755,155.11,19.79,4,347.42,23 / 24,2274207,2020-01-08 16:59:09:183,-0.101,-0.5303,9.1095,0.0048,-0.0157,9.8066,0.1143,0.0272,-0.0395,-1.81,-36.69,-13.25,209.61,-85.41,-152.82
52.524723,-1.728755,155.11,19.79,4,347.42,23 / 24,2274307,2020-01-08 16:59:09:283,-0.4363,-0.8452,8.0445,-0.0146,0.0137,9.8066,-0.0214,-0.011,-0.0065,-1.37,-36,-12.87,204.64,-85.3,-154.41
52.524723,-1.728755,155.11,19.79,4,347.42,23 / 24,2274407,2020-01-08 16:59:09:383,0.1102,0.8242,10.207,0.0197,-0.0264,9.8065,0.1349,-0.0282,-0.0333,-1.19,-36.81,-13.12,204.29,-85.28,-154.67
52.524723,-1.728755,155.11,19.79,4,347.42,23 / 24,2274508,2020-01-08 16:59:09:484,0.4289,1.0414,10.9621,0.0057,0.0134,9.8066,-0.0068,-0.0285,0.0592,-2.37,-35.94,-13.19,209.49,-85.26,-152.93
52.524723,-1.728755,155.11,19.79,4,347.42,23 / 24,2274608,2020-01-08 16:59:09:584,2.5102,1.8292,10.8527,-0.0111,0.0164,9.8065,0.0577,-0.0451,0.1326,-2.06,-35.75,-13.31,210.65,-85.25,-151.54
52.524723,-1.728755,155.11,19.79,4,347.42,23 / 24,2274708,2020-01-08 16:59:09:684,-0.5535,0.5542,9.6135,0.0176,0.028,9.8066,0.0166,0.08,-0.1212,-1.25,-36.19,-12.44,205.33,-85,-153.11
52.524723,-1.728755,155.11,19.79,4,347.42,23 / 24,2274808,2020-01-08 16:59:09:784,0.718,0.6642,9.0688,0.0056,-0.0151,9.8066,0.0058,0.0407,-0.1139,-1.25,-36.19,-12.5,204.24,-85.17,-154.67
52.524723,-1.728755,155.11,19.79,4,347.42,23 / 24,2274908,2020-01-08 16:59:09:884,-2.2675,1.3173,9.3339,0,-0.0228,9.8066,-0.0032,0.1925,-0.0431,-0.75,-36.56,-12.44,203.31,-85.23,-155.72
52.524723,-1.728755,155.11,19.79,4,347.42,23 / 24,2275008,2020-01-08 16:59:09:984,-1.721,-0.3401,10.1893,-0.0344,-0.007,9.8066,0.0633,-0.2456,0.1147,-1.37,-37.56,-12.31,202.86,-85.12,-155.98
52.524723,-1.728755,155.11,19.79,4,347.42,23 / 24,2275107,2020-01-08 16:59:10:083,2.1919,1.3858,9.1172,-0.0323,0.0266,9.8065,-0.1362,0.0333,0.1916,-0.94,-35.37,-12.81,202.1,-85.23,-157.55
52.524723,-1.728755,155.11,19.79,4,347.42,23 / 24,2275207,2020-01-08 16:59:10:183,3.6894,-1.2347,11.1217,-0.0476,-0.0113,9.8064,-0.1791,-0.246,0.398,-1.31,-36.44,-12.62,204.41,-85.08,-154.45
52.524723,-1.728755,155.11,19.79,4,347.42,23 / 24,2275308,2020-01-08 16:59:10:284,-0.4284,2.069,10.5822,0.0363,0.022,9.8065,-0.0072,-0.0051,-0.0663,-1.37,-36.31,-12.81,206.89,-85.38,-151.81
52.524723,-1.728755,155.11,19.79,4,347.42,23 / 24,2275408,2020-01-08 16:59:10:384,-1.6135,1.1671,9.7144,-0.0396,0.0021,9.8066,0.1797,-0.168,0.1344,-0.94,-36.31,-12.87,205.78,-85.18,-152.89
52.524723,-1.728755,155.11,19.79,4,347.42,23 / 24,2275508,2020-01-08 16:59:10:484,-0.5853,0.8636,9.779,0.0072,0.0015,9.8066,0.1273,0.0819,-0.1724,-0.56,-37.12,-12.56,201.69,-84.97,-157.52
52.524723,-1.728755,155.11,19.79,4,347.42,23 / 24,2275607,2020-01-08 16:59:10:583,2.3901,0.926,9.862,0.0052,-0.0324,9.8065,0.099,-0.0219,-0.0347,-0.56,-37,-12.31,199.2,-85.08,-160.66
52.524723,-1.728755,155.11,19.79,4,347.42,23 / 24,2275707,2020-01-08 16:59:10:683,-0.58,0.7669,8.92,0.0154,0.0039,9.8066,-0.1021,0.1289,-0.0883,-0.31,-37,-13.44,195.38,-85.28,-161.11
52.524723,-1.728755,155.11,19.79,4,347.42,23 / 24,2275807,2020-01-08 16:59:10:783,-1.229,0.4902,8.1613,0.0257,0.0095,9.8066,-0.1216,0.1025,-0.0696,-0.62,-37.06,-13.06,200.67,-85.41,-159.19
52.524723,-1.728755,155.11,19.79,4,347.42,23 / 24,2275908,2020-01-08 16:59:10:884,-0.9806,0.824,9.568,0.0021,-0.0067,9.8066,-0.0169,0.1859,0.0758,-0.56,-36.69,-12.62,201.35,-85.47,-158.43
52.524723,-1.728755,155.11,19.79,4,347.42,23 / 24,2276008,2020-01-08 16:59:10:984,0.4033,1.0303,9.804,-0.0105,-0.0045,9.8066,0.012,-0.0119,0.0384,-0.87,-37.12,-12.44,203.71,-85.39,-155.43
52.524723,-1.728755,155.11,19.79,4,347.42,23 / 24,2276108,2020-01-08 16:59:11:084,-0.1357,1.353,11.1189,0.0169,0.0027,9.8066,0.0052,0.034,-0.0402,-0.5,-37,-13.06,198.46,-85.42,-157.47
52.524723,-1.728755,155.11,19.79,4,347.42,23 / 24,2276208,2020-01-08 16:59:11:184,0.513,0.7831,10.0107,-0.0132,0.0145,9.8065,-0.0993,-0.0108,0.1506,-0.75,-37.19,-12.56,202.3,-85.47,-157.27
52.524723,-1.728755,155.11,19.79,4,347.42,23 / 24,2276308,2020-01-08 16:59:11:284,0.4772,-0.0467,8.5046,0.0326,-0.0088,9.8065,-0.0532,0.0376,0.0095,-0.56,-36.5,-13,204.25,-85.42,-155.02
52.524723,-1.728755,155.11,19.79,4,347.42,23 / 24,2276408,2020-01-08 16:59:11:384,0.7862,-3.4458,9.824,0.003,0.0317,9.8065,-0.1652,-0.1699,0.1085,-1.19,-37.12,-13.56,206.28,-85.2,-152.28
52.524723,-1.728755,155.11,19.79,4,347.42,23 / 24,2276507,2020-01-08 16:59:11:483,0.6085,-1.7398,11.6295,0.0219,0.021,9.8065,0.1878,-0.0042,0.0709,-1.19,-37.5,-13.06,209.1,-85.18,-148.73
52.524723,-1.728755,155.11,19.79,4,347.42,23 / 24,2276607,2020-01-08 16:59:11:583,-2.9342,1.7715,10.2366,-0.0853,-0.0005,9.8062,-0.2819,-0.2306,0.4045,-0.75,-37.69,-12.94,209.07,-84.65,-147.84
52.524723,-1.728755,155.11,19.79,4,347.42,23 / 24,2276708,2020-01-08 16:59:11:684,-2.5698,1.529,11.3141,0.0343,-0.0267,9.8065,-0.0831,-0.0328,-0.2238,-0.69,-37.37,-12.81,209.38,-85.1,-148.27
52.524723,-1.728755,155.11,19.79,4,347.42,23 / 24,2276807,2020-01-08 16:59:11:783,-1.0507,-0.731,9.7865,-0.0621,0.0393,9.8063,-0.0662,-0.2954,0.3242,-1,-37.12,-13.06,207.44,-85.25,-150.82
52.524723,-1.728755,155.11,19.79,4,347.42,23 / 24,2276908,2020-01-08 16:59:11:884,2.2764,-0.1551,9.3628,0.0162,0.0036,9.8066,-0.1069,-0.1026,0.0173,-1.06,-37.19,-13.19,205.84,-85.05,-152.51
52.524723,-1.728755,155.11,19.79,4,347.42,23 / 24,2277008,2020-01-08 16:59:11:984,-0.3821,0.213,9.7813,-0.006,0.005,9.8066,0.0105,0.0683,0.015,-0.87,-36.69,-12.69,207.46,-85.23,-150.77
52.524723,-1.728755,155.11,19.79,4,347.42,23 / 24,2277107,2020-01-08 16:59:12:083,0.2092,0.557,9.6365,-0.0281,0.0213,9.8065,0.0039,0.0889,-0.0727,-0.56,-37.44,-12.94,205.37,-85.19,-153.25
52.524723,-1.728755,155.11,19.79,4,347.42,23 / 24,2277208,2020-01-08 16:59:12:184,-1.1574,2.6526,11.2701,-0.048,-0.0011,9.8065,0.1523,0.0874,-0.1254,-0.81,-37.31,-13,205.21,-85.19,-153.45
52.524723,-1.728755,155.11,19.79,4,347.42,23 / 24,2277308,2020-01-08 16:59:12:284,2.0702,0.5212,9.4905,-0.0368,0.0398,9.8064,0.0227,0.1227,-0.0758,-0.31,-36.94,-13,197.31,-85.13,-158.63
52.524723,-1.728755,155.11,19.79,4,347.42,23 / 24,2277408,2020-01-08 16:59:12:384,-0.5462,0.4407,10.4209,-0.029,0.0122,9.8066,0.0999,0.1877,-0.1951,-1.12,-37.44,-13.31,198.73,-85.14,-161.3
52.524723,-1.728755,155.11,19.79,4,347.42,23 / 24,2277507,2020-01-08 16:59:12:483,1.4209,0.0515,8.652,-0.0311,0.0299,9.8065,-0.0223,0.0146,-0.0445,-0.06,-37.19,-12.81,195.09,-85.16,-161.38
52.524723,-1.728755,155.11,19.79,4,347.42,23 / 24,2277608,2020-01-08 16:59:12:584,0.1771,0.1866,10.1142,-0.0051,0.0046,9.8066,0.1023,0.0377,-0.0414,-0.5,-38,-13,195.79,-85.23,-160.48
52.524723,-1.728755,155.11,19.79,4,347.42,23 / 24,2277707,2020-01-08 16:59:12:683,2.0751,-0.0728,9.1338,-0.0325,0.0199,9.8065,-0.0947,0.0139,-0.025,-0.69,-36.81,-13.56,197.45,-85.21,-162.9
52.524723,-1.728755,155.11,19.79,4,347.42,23 / 24,2277808,2020-01-08 16:59:12:784,-2.382,2.7137,10.282,-0.0008,0.007,9.8066,0.0826,0.3012,-0.0836,0.06,-37.44,-13,193.59,-85.13,-163.2
52.524723,-1.728755,155.11,19.79,4,347.42,23 / 24,2277908,2020-01-08 16:59:12:884,2.5723,-0.0179,8.8321,-0.0535,0.0297,9.8065,0.0365,-0.2099,0.0749,0.31,-37.56,-13.19,190.02,-85.04,-167.49
52.524723,-1.728755,155.11,19.79,4,347.42,23 / 24,2278008,2020-01-08 16:59:12:984,0.0634,0.2476,10.665,-0.0247,0.0102,9.8065,0.1964,0.0471,-0.2363,0.44,-37.87,-13.19,190.25,-85.22,-167.3
52.524723,-1.728755,155.11,19.79,4,347.42,23 / 24,2278108,2020-01-08 16:59:13:084,1.0577,0.3116,8.3062,-0.0449,0.043,9.8064,0.0072,0.1167,-0.0102,0.94,-37.31,-13.19,184.13,-85.3,-170.52
52.524723,-1.728755,155.11,19.79,4,347.42,23 / 24,2278208,2020-01-08 16:59:13:184,2.2449,0.0174,8.845,-0.0141,0.012,9.8066,0.0719,0.1621,-0.194,0.63,-38.06,-13.12,184.37,-85.43,-170.24
52.524723,-1.728755,155.11,19.79,4,347.42,23 / 24,2278308,2020-01-08 16:59:13:284,0.6964,-1.491,9.753,0.0024,-0.026,9.8066,0.1443,-0.1194,0.0009,0.88,-37.44,-13.5,183.91,-85.51,-170.83
52.524723,-1.728755,155.11,19.79,4,347.42,23 / 24,2278407,2020-01-08 16:59:13:383,0.8094,-0.2859,9.3192,0.0035,0.0207,9.8066,0.0639,-0.0481,-0.0394,1.19,-37.62,-13.25,183.04,-85.41,-171.86
52.524723,-1.728755,155.11,19.79,4,347.42,23 / 24,2278508,2020-01-08 16:59:13:484,-0.1855,0.9976,9.5537,0.0087,-0.0328,9.8065,-0.0195,0.0046,-0.1057,1.13,-36.87,-12.69,180.81,-85.2,-174.6
52.524723,-1.728755,155.11,19.79,4,347.42,23 / 24,2278608,2020-01-08 16:59:13:584,-0.2739,-0.2856,10.6387,-0.0181,-0.0323,9.8065,0.0577,0.0048,-0.0242,0.88,-36.19,-14.56,180.3,-85.64,-175.84
52.524723,-1.728755,155.11,19.79,4,347.42,23 / 24,2278707,2020-01-08 16:59:13:683,0.8941,-1.4842,8.9861,-0.0036,-0.0001,9.8066,0.0933,0.0568,-0.0342,1.13,-36.56,-15.12,180.06,-85.64,-176.11
52.524723,-1.728755,155.11,19.79,4,347.42,23 / 24,2278808,2020-01-08 16:59:13:784,0.9458,-1.6507,8.133,-0.018,0.0211,9.8066,-0.0911,-0.0644,0.0507,2.5,-37.62,-16.87,172.18,-85.63,-179.1
52.524723,-1.728755,155.11,19.79,4,347.42,23 / 24,2278908,2020-01-08 16:59:13:884,-0.414,-0.4003,9.5649,-0.0264,0.0052,9.8065,-0.1168,-0.0795,0.1312,5.88,-41,-18.56,165.72,-85.86,-178.82
52.524723,-1.728755,155.11,19.79,4,347.42,23 / 24,2279007,2020-01-08 16:59:13:983,0.2396,0.3664,10.376,0.0272,-0.048,9.8064,0.3679,-0.0641,-0.1079,7.5,-41,-8.81,146.42,-85.98,-179.48
52.524723,-1.728755,155.11,19.79,4,347.42,23 / 24,2279108,2020-01-08 16:59:14:084,3.1986,0.1696,8.0749,0.0338,0.0291,9.8065,0.0662,0.1174,-0.2883,7.63,-14.12,-2.81,116.48,-85.74,179.72
52.524723,-1.728755,155.11,19.79,4,347.42,23 / 24,2279208,2020-01-08 16:59:14:184,-0.6805,0.217,11.8433,0.0147,-0.0451,9.8064,0.2587,0.1064,-0.0052,4,-6.87,-8.87,152.8,-85.62,175.41
52.524723,-1.728755,155.11,19.79,4,347.42,23 / 24,2279308,2020-01-08 16:59:14:284,1.2798,-0.1995,9.1974,-0.0066,-0.0064,9.8066,0.0755,-0.0612,0.0375,0.75,-3,-6.31,166.67,-85.4,175.65
52.524723,-1.728755,155.11,19.79,4,347.42,23 / 24,2279408,2020-01-08 16:59:14:384,-0.7164,1.3556,12.0009,0.0194,-0.0577,9.8064,0.2806,0.0252,-0.124,-1.06,2.63,-12.44,180.27,-85.36,175.5
52.524723,-1.728755,155.11,19.79,4,347.42,23 / 24,2279508,2020-01-08 16:59:14:484,1.6308,-0.9365,8.5843,0.015,-0.0284,9.8065,-0.0332,0.1379,-0.0162,-2,-0.75,-14.81,182.65,-85.17,175.06
52.524723,-1.728755,155.11,19.79,4,347.42,23 / 24,2279608,2020-01-08 16:59:14:584,-2.4048,0.851,11.3331,0.0483,-0.0567,9.8063,0.1251,0.4264,-0.2568,0.06,-6.5,-19.87,177.21,-85.35,177.15
52.524723,-1.728755,155.11,19.79,4,347.42,23 / 24,2279708,2020-01-08 16:59:14:684,1.5957,1.7274,12.4872,-0.0139,0.1222,9.8058,-0.5643,-0.6023,0.1668,0.38,-24.19,-20.06,175.77,-84.62,175.31
52.524723,-1.728755,155.11,19.79,4,347.42,23 / 24,2279808,2020-01-08 16:59:14:784,6.9757,0.8986,7.7012,-0.0598,0.0989,9.8059,-0.3587,0.0644,0.5716,0.38,-33.62,-13.87,175.21,-84.81,174.18
52.524723,-1.728755,155.11,19.79,4,347.42,23 / 24,2279908,2020-01-08 16:59:14:884,3.8967,-0.3389,11.109,-0.0814,0.045,9.8061,-0.2217,-0.5297,0.3743,0.06,-36.06,-11.62,181,-85.08,-178.75
52.524723,-1.728755,155.11,19.79,4,347.42,22 / 23,2280008,2020-01-08 16:59:14:984,2.9004,-0.5638,9.5389,0.0087,0.0358,9.8066,-0.1412,-0.1767,0.1948,-0.12,-36.31,-11.75,178.84,-85.06,178.54
52.524723,-1.728755,155.11,19.79,4,347.42,22 / 23,2280108,2020-01-08 16:59:15:084,-3.8661,-0.0917,10.6064,-0.1112,0.037,9.8059,-0.1914,-0.3945,0.4738,0,-36.37,-13.12,175.1,-85.09,173.96
52.524723,-1.728755,155.11,19.79,4,347.42,22 / 23,2280208,2020-01-08 16:59:15:184,-1.995,-0.3688,9.956,-0.0037,0.0193,9.8066,-0.1599,-0.1835,-0.0592,0.31,-36.69,-13,176.55,-85.23,175.75
52.524723,-1.728755,155.11,19.79,4,347.42,22 / 23,2280308,2020-01-08 16:59:15:284,-3.916,1.2584,11.1417,-0.0618,0.027,9.8063,-0.0352,-0.4105,0.2053,0.31,-37,-12.56,174.21,-85.35,172.89
52.524723,-1.728755,155.11,19.79,4,347.42,22 / 23,2280408,2020-01-08 16:59:15:384,3.8072,-0.5692,9.3902,-0.0435,0.0336,9.8064,-0.1026,-0.3998,0.331,-0.19,-36.56,-12.75,172.8,-85.1,171.08
52.524723,-1.728755,155.11,19.79,4,347.42,22 / 23,2280507,2020-01-08 16:59:15:483,-0.6428,0.2783,9.4558,-0.0174,0.031,9.8065,-0.0892,-0.252,0.1144,-0.12,-36.69,-13.12,175.84,-85.17,174.86
52.524723,-1.728755,155.11,19.79,4,347.42,22 / 23,2280608,2020-01-08 16:59:15:584,3.8088,-0.3078,9.7175,-0.0349,-0.0005,9.8066,-0.0201,-0.3646,0.3512,-0.19,-37.19,-12.75,176.03,-85.13,175.08
52.524723,-1.728755,155.11,19.79,4,347.42,22 / 23,2280708,2020-01-08 16:59:15:684,-1.5844,-0.7942,9.4198,-0.0216,-0.0134,9.8066,0.0608,-0.1366,0.085,-0.69,-36.69,-13.06,182.59,-85.35,178.78
52.524723,-1.728755,155.11,19.79,4,347.42,22 / 23,2280807,2020-01-08 16:59:15:783,2.5287,-0.7491,9.6799,-0.0285,0.007,9.8066,0.0695,-0.3081,0.1612,-0.62,-36.75,-13.37,183.15,-85.25,179.49
52.524723,-1.728755,155.11,19.79,4,347.42,22 / 23,2280909,2020-01-08 16:59:15:885,-0.7088,0.0103,8.597,-0.0085,-0.0043,9.8066,-0.0435,0.1671,-0.1001,-0.81,-36.31,-13.69,183.76,-85.21,-179.53
52.526505,-1.72936,153.66,23.21,4,349.72,23 / 24,2281007,2020-01-08 16:59:15:983,0.4639,-0.4256,9.7199,-0.0317,-0.0173,9.8065,0.0622,-0.1991,0.0966,-0.06,-37.25,-12.69,177.6,-85.32,177.05
52.526505,-1.72936,153.66,23.21,4,349.72,23 / 24,2281107,2020-01-08 16:59:16:083,0.8791,0.113,11.344,0.0039,-0.0042,9.8066,0.11,0.0239,-0.0968,0.31,-36.87,-13.31,177.62,-85.37,177.08
52.526505,-1.72936,153.66,23.21,4,349.72,23 / 24,2281208,2020-01-08 16:59:16:184,1.1553,-0.6774,9.7976,0.0115,-0.0414,9.8065,0.136,-0.0036,-0.0517,-0.44,-36.94,-13.31,175.62,-85.35,174.62
52.526505,-1.72936,153.66,23.21,4,349.72,23 / 24,2281307,2020-01-08 16:59:16:283,1.0856,1.0368,13.1284,0.0139,-0.0271,9.8066,0.2654,-0.0801,-0.0046,-0.06,-37.06,-13.31,174.99,-85.57,173.91
52.526505,-1.72936,153.66,23.21,4,349.72,23 / 24,2281409,2020-01-08 16:59:16:385,0.1996,0.8501,10.051,-0.0249,0.0312,9.8065,-0.15,0.0985,0.282,0,-36.75,-12.69,175.61,-85.41,174.62
52.526505,-1.72936,153.66,23.21,4,349.72,23 / 24,2281509,2020-01-08 16:59:16:485,-2.8507,0.2934,11.6879,0.0876,-0.0703,9.8059,0.1243,0.2623,-0.3568,-0.06,-37.31,-13.56,178.65,-85.42,178.35
52.526505,-1.72936,153.66,23.21,4,349.72,23 / 24,2281608,2020-01-08 16:59:16:584,1.3745,-0.8539,9.2105,0.0025,0.018,9.8066,-0.107,-0.1217,0.0446,0,-36.69,-13.19,177.67,-85.4,177.15
52.526505,-1.72936,153.66,23.21,4,349.72,23 / 24,2281708,2020-01-08 16:59:16:684,1.9231,-0.5406,9.6593,0.0033,-0.0006,9.8066,-0.0109,0.0993,0.0013,0,-36.75,-12.87,177.79,-85.49,177.3
52.526505,-1.72936,153.66,23.21,4,349.72,23 / 24,2281807,2020-01-08 16:59:16:783,1.2328,-1.0309,11.6455,-0.0147,-0.0122,9.8066,0.1245,-0.1417,-0.0051,0.13,-36.75,-13.06,177.33,-85.32,176.72
52.526505,-1.72936,153.66,23.21,4,349.72,23 / 24,2281908,2020-01-08 16:59:16:884,1.7566,2.0133,10.7636,-0.0103,0.018,9.8066,0.0618,-0.1917,0.0631,-0.37,-37.19,-13.19,174.65,-85.23,173.4
52.526505,-1.72936,153.66,23.21,4,349.72,22 / 24,2282007,2020-01-08 16:59:16:983,0.0087,-1.0358,7.9638,0.0046,-0.0388,9.8065,0.3682,0.1186,0.0091,0,-37.19,-12.81,175.55,-84.96,174.45
52.526505,-1.72936,153.66,23.21,4,349.72,22 / 24,2282108,2020-01-08 16:59:17:084,3.4761,-2.9225,7.0853,0.0044,0.0312,9.8066,0.0079,-0.2224,0.0118,-0.31,-37.06,-13.19,176.65,-84.86,175.81
52.526505,-1.72936,153.66,23.21,4,349.72,22 / 24,2282207,2020-01-08 16:59:17:183,-2.0784,-0.6418,9.0859,0.0312,-0.0655,9.8063,0.246,0.26,-0.2838,-0.31,-37.06,-13.19,177.19,-85.15,176.52
52.526505,-1.72936,153.66,23.21,4,349.72,22 / 24,2282307,2020-01-08 16:59:17:283,-1.2597,1.2998,9.9564,-0.0513,-0.0098,9.8065,0.0047,-0.0802,0.1147,0.06,-37.37,-13.19,174.58,-84.96,173.25
52.526505,-1.72936,153.66,23.21,4,349.72,22 / 24,2282408,2020-01-08 16:59:17:384,-1.6165,-0.1021,9.6184,0.0227,-0.0018,9.8066,-0.0556,0.2921,-0.1961,0,-37.06,-12.87,174.38,-85.11,173.04
52.526505,-1.72936,153.66,23.21,4,349.72,22 / 24,2282508,2020-01-08 16:59:17:484,0.1024,-0.1756,9.8378,-0.0214,0.0032,9.8066,-0.038,0.044,0.0273,-0.31,-37.56,-12.75,172.85,-85.19,171.13
52.526505,-1.72936,153.66,23.21,4,349.72,22 / 24,2282608,2020-01-08 16:59:17:584,-0.5223,-0.3092,10.0099,-0.0219,-0.0024,9.8066,0.0028,0.2254,-0.0515,0,-36.75,-13.06,173.03,-85.22,171.41
52.526505,-1.72936,153.66,23.21,4,349.72,22 / 24,2282708,2020-01-08 16:59:17:684,-0.2567,-0.4331,9.8464,0.0065,0.01,9.8066,-0.0009,0.0237,-0.035,0.44,-36.87,-12.56,173.44,-85.05,171.86
52.526505,-1.72936,153.66,23.21,4,349.72,22 / 24,2282808,2020-01-08 16:59:17:784,2.0078,-0.6596,9.9129,0.0031,0.0072,9.8066,-0.0104,-0.2886,0.0115,0.25,-36.69,-12.12,172.48,-84.98,170.48
52.526505,-1.72936,153.66,23.21,4,349.72,23 / 24,2282908,2020-01-08 16:59:17:884,-2.1671,0.1041,9.9665,-0.0093,-0.0216,9.8066,0.1143,-0.0287,-0.0364,0.5,-37.5,-12.69,167.6,-84.83,168.9
52.526505,-1.72936,153.66,23.21,4,349.72,23 / 24,2283008,2020-01-08 16:59:17:984,2.0992,0.6274,9.6878,-0.0364,0.0081,9.8065,0.0033,-0.2544,0.138,0,-37,-12.87,169.85,-84.81,167.29
52.526505,-1.72936,153.66,23.21,4,349.72,23 / 24,2283108,2020-01-08 16:59:18:084,1.3159,-0.2415,10.2053,0.0153,0.0002,9.8066,0.0495,0.1144,-0.1782,0,-37.19,-12.69,170.97,-84.71,168.64
52.526505,-1.72936,153.66,23.21,4,349.72,23 / 24,2283208,2020-01-08 16:59:18:184,2.2322,0.0632,10.8009,-0.0326,0.0134,9.8065,-0.0462,-0.2121,0.2375,-0.19,-37.44,-13.19,169.41,-84.56,166.61
52.526505,-1.72936,153.66,23.21,4,349.72,23 / 24,2283308,2020-01-08 16:59:18:284,-0.2657,-0.3491,9.7594,-0.0036,0.0218,9.8066,-0.1544,0.0379,0.1666,0.19,-36.62,-12.87,171.75,-84.83,169.68
52.526505,-1.72936,153.66,23.21,4,349.72,23 / 24,2283408,2020-01-08 16:59:18:384,-0.1366,-1.6076,9.2201,0.0181,-0.0061,9.8066,-0.0028,-0.0903,0.0083,-0.56,-37.44,-12.31,177.88,-84.88,172.55
52.526505,-1.72936,153.66,23.21,4,349.72,23 / 24,2283507,2020-01-08 16:59:18:483,1.1144,-1.6982,8.5664,0.007,0.0078,9.8066,-0.1299,0.0465,0.1485,-0.5,-36.75,-12.12,175.8,-84.95,174.67
52.526505,-1.72936,153.66,23.21,4,349.72,23 / 24,2283608,2020-01-08 16:59:18:584,0.0494,0.4123,10.3263,0.0405,-0.0232,9.8065,0.0181,-0.0367,-0.133,-0.12,-36.5,-13.19,179,-85.05,178.77
52.526505,-1.72936,153.66,23.21,4,349.72,23 / 24,2283708,2020-01-08 16:59:18:684,-0.1499,-0.2019,10.0079,-0.005,0.0313,9.8065,-0.1213,-0.0339,0.098,-0.62,-37.56,-12.69,181.36,-84.9,177.31
52.526505,-1.72936,153.66,23.21,4,349.72,23 / 24,2283807,2020-01-08 16:59:18:783,-1.2723,0.3519,10.8707,0.001,-0.0369,9.8065,0.1565,-0.0214,-0.031,-0.12,-37.19,-12.69,178.9,-85.07,178.63
52.526505,-1.72936,153.66,23.21,4,349.72,23 / 24,2283908,2020-01-08 16:59:18:884,1.2032,-1.3708,8.3813,-0.0261,0.0048,9.8066,-0.1359,-0.1593,0.1995,-0.5,-36.69,-12.44,179.22,-85.02,179.02
52.526505,-1.72936,153.66,23.21,4,349.72,22 / 25,2284009,2020-01-08 16:59:18:985,0.4679,-1.5986,9.1875,0.0321,-0.0414,9.8065,0.0544,0.0282,-0.1537,-0.31,-36.75,-12.56,179.88,-85.15,179.85
52.526505,-1.72936,153.66,23.21,4,349.72,22 / 25,2284108,2020-01-08 16:59:19:084,0.2373,-0.6402,7.9359,0.0023,0.0586,9.8064,-0.2474,-0.007,-0.0204,-0.62,-37.25,-12.37,182.18,-84.81,178.02
52.526505,-1.72936,153.66,23.21,4,349.72,22 / 25,2284208,2020-01-08 16:59:19:184,0.3693,0.325,10.1826,-0.0058,-0.0182,9.8066,-0.0439,0.0199,0.08,-0.31,-37.12,-12.69,178.28,-85.02,177.87
52.526505,-1.72936,153.66,23.21,4,349.72,22 / 25,2284308,2020-01-08 16:59:19:284,-0.2688,0.6355,11.4822,-0.0238,0.0556,9.8064,-0.2139,-0.07,0.1233,-0.62,-37,-13,183.01,-85.17,179.32
52.526505,-1.72936,153.66,23.21,4,349.72,22 / 25,2284408,2020-01-08 16:59:19:384,-0.425,0.0547,10.8801,0.0101,-0.0065,9.8066,0.0063,0.0278,-0.0267,-0.37,-36.25,-12.06,178.53,-84.99,178.15
52.526505,-1.72936,153.66,23.21,4,349.72,22 / 25,2284508,2020-01-08 16:59:19:484,1.0968,-1.1033,9.0611,-0.024,0.0008,9.8065,0.0603,-0.0632,0.1605,-0.5,-37.06,-11.94,178.61,-85.01,178.24
52.526505,-1.72936,153.66,23.21,4,349.72,22 / 25,2284608,2020-01-08 16:59:19:584,0.3403,-0.214,9.9569,0.0281,-0.0118,9.8065,0.0658,-0.0544,-0.1451,-0.44,-37.19,-13.19,178.66,-84.93,178.33
52.526505,-1.72936,153.66,23.21,4,349.72,22 / 25,2284707,2020-01-08 16:59:19:683,1.2192,-0.6905,9.3664,-0.01,-0.0034,9.8065,-0.0032,-0.1228,0.0895,-0.87,-36.75,-12.37,181.02,-84.92,176.52
52.526505,-1.72936,153.66,23.21,4,349.72,22 / 25,2284807,2020-01-08 16:59:19:783,-0.3571,-0.8756,9.5586,0.0065,-0.0047,9.8066,-0.0113,-0.001,-0.0387,-0.5,-37.25,-11.94,178.3,-84.93,177.85
52.526505,-1.72936,153.66,23.21,4,349.72,23 / 24,2284908,2020-01-08 16:59:19:884,-0.1028,-1.3491,9.8282,0.002,-0.0044,9.8066,-0.012,-0.0704,0.0282,-1.19,-37.19,-12.5,182.18,-85,177.99
52.526505,-1.72936,153.66,23.21,4,349.72,23 / 24,2285008,2020-01-08 16:59:19:984,0.5683,-0.0992,9.8831,-0.0027,-0.0046,9.8065,-0.009,-0.151,0.1302,-0.12,-36.69,-12.25,178.9,-85.12,178.62
52.526505,-1.72936,153.66,23.21,4,349.72,23 / 24,2285108,2020-01-08 16:59:20:084,-0.5618,1.8861,10.8392,-0.0175,0.0074,9.8066,-0.0957,-0.1312,0.1798,-0.62,-37.06,-12.19,184.17,-85.13,-179.53
52.526505,-1.72936,153.66,23.21,4,349.72,23 / 24,2285207,2020-01-08 16:59:20:183,1.5222,-0.8556,8.0835,0.0013,0.0392,9.8065,-0.1548,-0.1829,0.0793,-0.69,-36.69,-12.5,185.23,-85.09,-178.18
52.526505,-1.72936,153.66,23.21,4,349.72,23 / 24,2285308,2020-01-08 16:59:20:284,-0.4305,0.0483,10.1374,-0.0338,0.0481,9.8065,-0.1545,-0.2933,0.1676,-0.81,-36.75,-12.5,184.4,-84.96,-179.19
52.526505,-1.72936,153.66,23.21,4,349.72,23 / 24,2285409,2020-01-08 16:59:20:385,1.6169,-1.0897,8.2553,-0.0636,0.0456,9.8063,-0.1922,-0.142,0.1801,-1.12,-37.12,-12.62,185.41,-85.18,-177.72
52.526505,-1.72936,153.66,23.21,4,349.72,23 / 24,2285508,2020-01-08 16:59:20:484,-0.0159,-0.8037,10.6181,-0.0118,0.0109,9.8066,0.0804,-0.0525,-0.1656,-1.31,-36.75,-12.12,185.33,-85.35,-178.12
52.526505,-1.72936,153.66,23.21,4,349.72,23 / 24,2285608,2020-01-08 16:59:20:584,2.0356,0.4217,9.5456,-0.0329,0.0557,9.8064,-0.1297,-0.2175,0.2418,-0.81,-37.19,-12.62,181.18,-85.1,177.06
52.526505,-1.72936,153.66,23.21,4,349.72,23 / 24,2285708,2020-01-08 16:59:20:684,-1.07,0.5584,10.405,-0.031,-0.021,9.8066,0.0816,0.0371,0.1764,-0.81,-37.31,-12.31,184.66,-85.17,-178.92
52.526505,-1.72936,153.66,23.21,4,349.72,23 / 24,2285809,2020-01-08 16:59:20:785,0.0122,-0.3242,10.2376,0.0104,0.0257,9.8066,-0.02,-0.2212,-0.1177,-0.81,-36.81,-12.31,184.71,-85.2,-178.86
52.526505,-1.72936,153.66,23.21,4,349.72,22 / 24,2285908,2020-01-08 16:59:20:884,3.1978,-2.1328,8.9305,0.0021,0.0343,9.8065,0.0008,0.3325,-0.2849,-0.62,-37.31,-12.12,185.51,-85.18,-177.86
52.526505,-1.72936,153.66,23.21,4,349.72,22 / 24,2286009,2020-01-08 16:59:20:985,2.7086,-2.3899,8.5239,0.0054,0.0234,9.8065,-0.1932,-0.2007,0.0392,-0.81,-36.56,-12.62,182.56,-85.17,178.76
52.526505,-1.72936,153.66,23.21,4,349.72,22 / 24,2286108,2020-01-08 16:59:21:084,-2.6456,0.2395,10.6169,0.0336,-0.0209,9.8065,0.0493,0.3457,-0.0502,-0.75,-36.56,-12.56,183.99,-85.37,-179.51
52.526505,-1.72936,153.66,23.21,4,349.72,22 / 24,2286208,2020-01-08 16:59:21:184,-4.5208,0.9441,11.1404,-0.0872,0.0375,9.8061,-0.0285,-0.3636,0.3969,-0.81,-36.87,-12.06,185.64,-85.37,-177.75
52.526505,-1.72936,153.66,23.21,4,349.72,22 / 24,2286308,2020-01-08 16:59:21:284,-3.3835,1.7839,11.0727,0.0563,-0.0166,9.8064,0.1874,0.3725,-0.1561,-0.69,-36.75,-11.06,185.48,-85.36,-178.25
52.526505,-1.72936,153.66,23.21,4,349.72,22 / 24,2286407,2020-01-08 16:59:21:383,0.8447,-0.4153,9.2575,-0.0724,0.0208,9.8063,-0.0808,-0.117,-0.0707,-1.19,-36.75,-11.75,185.39,-85.37,-178.06
52.526505,-1.72936,153.66,23.21,4,349.72,22 / 24,2286508,2020-01-08 16:59:21:484,2.2727,-0.0762,9.3986,0.0308,-0.0114,9.8065,0.0804,0.4332,-0.2435,-0.31,-36.12,-11.62,179.7,-85.34,179.63
52.526505,-1.72936,153.66,23.21,4,349.72,22 / 24,2286608,2020-01-08 16:59:21:584,1.3857,-0.2994,9.2286,-0.041,0.004,9.8065,-0.0837,0.1498,-0.1047,-0.56,-36.62,-11.56,179.33,-85.31,174.4
52.526505,-1.72936,153.66,23.21,4,349.72,22 / 24,2286708,2020-01-08 16:59:21:684,0.9151,0.3662,10.3009,-0.0161,-0.0161,9.8066,-0.0126,0.3129,-0.2428,0,-36.44,-11.25,176.45,-85.41,175.53
52.526505,-1.72936,153.66,23.21,4,349.72,22 / 24,2286808,2020-01-08 16:59:21:784,-2.4251,-0.0645,10.1775,-0.0322,0.0017,9.8065,0.0036,0.1623,-0.0718,0,-36.69,-11.69,176.77,-85.42,175.98
52.526505,-1.72936,153.66,23.21,4,349.72,22 / 24,2286908,2020-01-08 16:59:21:884,-0.5293,0.0318,9.9646,-0.0106,0.0081,9.8066,0.0337,0.2415,-0.1694,0.31,-37.37,-11.87,175.83,-85.33,174.8
52.526505,-1.72936,153.66,23.21,4,349.72,22 / 23,2287008,2020-01-08 16:59:21:984,-0.4409,-0.5577,9.3082,-0.0136,0.0056,9.8066,-0.0191,0.2497,-0.1042,0.81,-37.62,-12.56,173.01,-85.39,175.79
52.526505,-1.72936,153.66,23.21,4,349.72,22 / 23,2287108,2020-01-08 16:59:22:084,1.5718,0.4497,10.168,-0.001,-0.0149,9.8066,-0.0474,-0.0323,0.0299,0.44,-37.81,-13.12,178.8,-85.6,178.53
52.526505,-1.72936,153.66,23.21,4,349.72,22 / 23,2287208,2020-01-08 16:59:22:184,-0.1239,0.3744,9.2893,0.0064,-0.0203,9.8066,-0.0655,0.1817,-0.0803,0.38,-37.06,-13.94,179.82,-85.66,179.78
52.526505,-1.72936,153.66,23.21,4,349.72,22 / 23,2287308,2020-01-08 16:59:22:284,-0.1499,0.4148,11.4187,-0.0292,-0.0307,9.8065,0.1701,-0.1065,-0.232,-1.06,-36.81,-13.62,183.58,-85.83,-179.83
52.526505,-1.72936,153.66,23.21,4,349.72,22 / 23,2287408,2020-01-08 16:59:22:384,1.6699,0.3422,9.5998,-0.0035,0.0336,9.8065,-0.0846,-0.1036,0.1758,-1.62,-36.94,-12.81,188.02,-85.89,-179.14
52.526505,-1.72936,153.66,23.21,4,349.72,22 / 23,2287508,2020-01-08 16:59:22:484,-0.9518,1.4195,10.0476,0.0081,-0.0224,9.8065,0.1284,-0.0594,0.0446,-0.94,-36.69,-13.25,182,-85.8,178.01
52.526505,-1.72936,153.66,23.21,4,349.72,22 / 23,2287608,2020-01-08 16:59:22:584,0.2611,-0.5426,9.6106,0.0132,-0.0076,9.8066,-0.0836,-0.113,0.0879,-1.37,-36.56,-12.44,182.35,-85.53,178.15
52.526505,-1.72936,153.66,23.21,4,349.72,22 / 23,2287708,2020-01-08 16:59:22:684,-0.3945,1.0032,10.0799,0.0193,-0.014,9.8066,0.0177,-0.0476,-0.0062,-1.56,-36.06,-11.94,187.09,-85.57,179.22
52.526505,-1.72936,153.66,23.21,4,349.72,22 / 23,2287808,2020-01-08 16:59:22:784,1.1731,0.5567,9.0742,0.0124,-0.0152,9.8066,-0.0707,-0.1439,0.149,-1.44,-36.56,-12.44,184.16,-85.54,-179.62
52.526505,-1.72936,153.66,23.21,4,349.72,22 / 23,2287908,2020-01-08 16:59:22:884,0.0947,0.2319,9.6241,0.0184,-0.0239,9.8066,-0.0971,0.0477,0.085,-1.44,-36.44,-12.44,183.42,-85.58,179.44
52.526505,-1.72936,153.66,23.21,4,349.72,23 / 25,2288008,2020-01-08 16:59:22:984,1.9524,0.2203,10.8857,-0.0062,-0.0384,9.8066,-0.1336,-0.1863,0.0605,-1,-36.19,-11.69,184.68,-85.86,-179.08
52.526505,-1.72936,153.66,23.21,4,349.72,23 / 25,2288108,2020-01-08 16:59:23:084,-2.2635,0.5087,10.8688,0.0562,-0.01,9.8064,-0.1311,-0.0631,0.1969,-1.37,-36.25,-11.75,186.77,-85.6,-176.47
52.526505,-1.72936,153.66,23.21,4,349.72,23 / 25,2288208,2020-01-08 16:59:23:184,1.9058,-0.5653,9.5,0.0447,-0.0288,9.8064,-0.0914,-0.2032,0.0803,-1.62,-36.75,-12.25,187.84,-85.37,-179.72
52.526505,-1.72936,153.66,23.21,4,349.72,23 / 25,2288308,2020-01-08 16:59:23:284,-0.9802,1.7454,9.1922,0.01,0.0003,9.8066,-0.1311,0.038,-0.0496,-1.69,-36.75,-11.75,190.99,-85.33,-175.8
52.526505,-1.72936,153.66,23.21,4,349.72,23 / 25,2288408,2020-01-08 16:59:23:384,1.3748,0.6637,8.8708,0.0069,-0.0301,9.8066,-0.0926,-0.1379,0.0881,-1.75,-37.31,-11.81,191.04,-85.27,-175.71
52.526505,-1.72936,153.66,23.21,4,349.72,23 / 25,2288508,2020-01-08 16:59:23:484,0.1488,1.011,10.1393,0.0174,-0.0335,9.8065,0.0134,0.0245,-0.0166,-1.5,-36.75,-11.87,188.57,-85.53,-174.18
52.526505,-1.72936,153.66,23.21,4,349.72,23 / 25,2288608,2020-01-08 16:59:23:584,1.488,0.6462,9.1408,-0.0062,-0.0012,9.8066,-0.067,-0.0861,0.0231,-1.87,-37.12,-12.37,191.18,-85.47,-175.65
52.526505,-1.72936,153.66,23.21,4,349.72,23 / 25,2288708,2020-01-08 16:59:23:684,0.3982,0.5966,10.4563,0.0096,-0.0105,9.8066,0.0412,0.0539,-0.0297,-1.87,-36.62,-11.5,192.09,-85.45,-175.1
52.526505,-1.72936,153.66,23.21,4,349.72,23 / 25,2288808,2020-01-08 16:59:23:784,0.661,1.603,9.5754,-0.0082,0,9.8066,-0.0863,-0.0492,-0.0062,-1.62,-37.19,-11.87,190.25,-85.43,-176.78
52.526505,-1.72936,153.66,23.21,4,349.72,23 / 25,2288908,2020-01-08 16:59:23:884,0.8528,0.2238,9.7645,-0.0061,-0.0172,9.8066,0.0616,0.12,-0.0979,-1.19,-37.31,-12.06,185.5,-85.54,-177.97
52.526505,-1.72936,153.66,23.21,4,349.72,23 / 25,2289010,2020-01-08 16:59:23:986,-0.1638,0.8489,10.0075,-0.0144,0.0069,9.8066,-0.0153,-0.045,0.0382,-1.25,-36.75,-11.44,186.19,-85.54,-177.42
52.526505,-1.72936,153.66,23.21,4,349.72,23 / 25,2289107,2020-01-08 16:59:24:083,0.9491,1.5388,10.0949,0.0028,0.0098,9.8066,0.0412,0.0901,0.0485,-1.87,-37,-11.37,189.26,-85.48,-178.66
52.526505,-1.72936,153.66,23.21,4,349.72,23 / 25,2289207,2020-01-08 16:59:24:183,0.6545,1.7423,8.8937,-0.0222,-0.0242,9.8065,-0.117,-0.0442,-0.0494,-2.62,-37.06,-11.12,194.02,-85.57,-177.8
52.526505,-1.72936,153.66,23.21,4,349.72,23 / 25,2289308,2020-01-08 16:59:24:284,1.2846,2.7597,10.4015,0.0229,-0.0277,9.8065,-0.0253,0.0879,0.0502,-2.31,-36.94,-12.37,191.45,-85.64,-175.41
52.526505,-1.72936,153.66,23.21,4,349.72,23 / 25,2289407,2020-01-08 16:59:24:383,0.7554,-0.8219,9.792,-0.0149,-0.0297,9.8066,-0.2092,-0.0892,-0.0297,-1.56,-36.62,-12.12,190.45,-85.57,-176.61
52.526505,-1.72936,153.66,23.21,4,349.72,23 / 25,2289508,2020-01-08 16:59:24:484,-0.3847,0.9324,9.9282,0.0166,-0.0063,9.8066,-0.0256,-0.0397,0.1523,-2,-36.19,-11.81,190.34,-85.67,-176.85
52.526505,-1.72936,153.66,23.21,4,349.72,23 / 25,2289607,2020-01-08 16:59:24:583,0.7365,1.3328,9.8715,0.0115,0.0001,9.8066,0.0607,-0.0852,-0.1006,-1.44,-36.69,-12.12,184.71,-85.51,-178.94
52.526505,-1.72936,153.66,23.21,4,349.72,23 / 25,2289708,2020-01-08 16:59:24:684,0.0039,-0.3404,8.268,0.0011,0.0304,9.8065,-0.1751,-0.0107,-0.001,-2.06,-36.81,-11.31,190.31,-85.31,-177.25
52.526505,-1.72936,153.66,23.21,4,349.72,23 / 25,2289808,2020-01-08 16:59:24:784,0.5318,0.5281,10.3014,0.0111,-0.0344,9.8066,-0.0109,-0.0239,0.0018,-1.87,-36.25,-11.87,190.61,-85.67,-176.52
52.526505,-1.72936,153.66,23.21,4,349.72,23 / 25,2289908,2020-01-08 16:59:24:884,-0.3236,0.6493,11.0275,0.0029,0.0084,9.8066,-0.1104,-0.1241,-0.0124,-2.19,-36.37,-12.25,190.53,-85.6,-176.58
52.52828,-1.729725,152.58,22.23,4,355.35,23 / 26,2290008,2020-01-08 16:59:24:984,-1.5615,0.9554,10.6725,0.0281,0.0503,9.8064,-0.1476,-0.0977,0.1241,-1.12,-37.25,-11.81,186.7,-85.4,-176.44
52.52828,-1.729725,152.58,22.23,4,355.35,23 / 26,2290107,2020-01-08 16:59:25:083,1.8999,0.8959,10.2974,-0.0488,-0.0103,9.8065,-0.1854,-0.0717,-0.1437,-1.56,-36.56,-11.5,188.92,-85.45,-179.07
52.52828,-1.729725,152.58,22.23,4,355.35,23 / 26,2290208,2020-01-08 16:59:25:184,0.5018,-0.4569,8.4073,0.0048,-0.0381,9.8065,-0.0866,0.1311,0.1039,-2.44,-36.75,-11.62,190.36,-85.46,-176.65
52.52828,-1.729725,152.58,22.23,4,355.35,23 / 26,2290308,2020-01-08 16:59:25:284,1.3339,-0.366,10.0305,-0.0172,-0.0199,9.8066,-0.0696,-0.0443,0.0607,-1.75,-36.37,-11.31,189.89,-85.7,-178.07
52.52828,-1.729725,152.58,22.23,4,355.35,23 / 26,2290408,2020-01-08 16:59:25:384,-1.2436,0.7831,9.7221,-0.02,-0.0076,9.8065,0.0021,0.1071,-0.1501,-2.25,-36.25,-11.94,190.01,-85.71,-177.27
52.52828,-1.729725,152.58,22.23,4,355.35,23 / 26,2290508,2020-01-08 16:59:25:484,-0.2073,-0.5408,9.4195,-0.0063,0.0002,9.8066,0.0226,-0.0706,0.0965,-1.94,-36.37,-11.87,189.44,-85.78,-178
52.52828,-1.729725,152.58,22.23,4,355.35,23 / 26,2290608,2020-01-08 16:59:25:584,-1.3888,0.9436,9.4139,0.0099,0.0155,9.8066,0.1255,0.097,-0.1275,-2,-36.62,-12.25,189.67,-85.74,-177.64
52.52828,-1.729725,152.58,22.23,4,355.35,23 / 26,2290708,2020-01-08 16:59:25:684,1.184,-0.9473,8.3666,-0.0231,0.0352,9.8065,0.0958,-0.0569,-0.0647,-2.5,-36.06,-12.31,190.2,-85.8,-177.09
52.52828,-1.729725,152.58,22.23,4,355.35,23 / 26,2290808,2020-01-08 16:59:25:784,1.0995,0.1308,11.601,0.0069,0.0491,9.8065,0.1624,0.0774,0.0241,-2.56,-36.44,-12.56,196,-86.12,-174.15
52.52828,-1.729725,152.58,22.23,4,355.35,23 / 26,2290907,2020-01-08 16:59:25:883,1.2137,0.2868,10.3855,-0.0062,0.0222,9.8066,0.2142,-0.1427,0.0871,-2.37,-36.56,-12.87,190.7,-86.01,-175.99
52.52828,-1.729725,152.58,22.23,4,355.35,21 / 24,2291008,2020-01-08 16:59:25:984,-0.695,0.452,9.432,0.0067,0.0342,9.8066,0.019,-0.0045,0.0119,-2.94,-36.25,-11.87,196.13,-86.04,-174.74
52.52828,-1.729725,152.58,22.23,4,355.35,21 / 24,2291108,2020-01-08 16:59:26:084,0.1332,2.4717,10.3907,-0.0117,-0.0268,9.8065,0.1389,-0.1816,0.147,-2.81,-36,-11.75,194.63,-86.14,-176.61
52.52828,-1.729725,152.58,22.23,4,355.35,21 / 24,2291208,2020-01-08 16:59:26:184,0.4733,0.2977,10.3475,0.0064,0.0336,9.8065,0.0109,-0.0697,-0.0667,-3.56,-36.31,-11.87,196,-85.91,-179.27
52.52828,-1.729725,152.58,22.23,4,355.35,21 / 24,2291308,2020-01-08 16:59:26:284,-0.8639,-0.272,9.6602,0.0066,0.0053,9.8066,-0.0577,-0.0374,-0.0068,-3.56,-36.37,-11.31,197.02,-85.79,-179.22
52.52828,-1.729725,152.58,22.23,4,355.35,21 / 24,2291407,2020-01-08 16:59:26:383,-0.407,0.2633,10.7129,0.0166,-0.0041,9.8066,0.1232,-0.0363,0.0243,-4.5,-35.94,-11.31,195.44,-85.71,178.93
52.52828,-1.729725,152.58,22.23,4,355.35,21 / 24,2291508,2020-01-08 16:59:26:484,-0.7926,-0.2913,9.1476,-0.0016,0.0268,9.8066,0.0016,-0.0491,-0.0127,-4.31,-36.37,-10.56,196.19,-85.71,179.84
52.52828,-1.729725,152.58,22.23,4,355.35,21 / 24,2291608,2020-01-08 16:59:26:584,0.3542,-2.2217,9.2221,0.0083,-0.0041,9.8066,0.0395,-0.0558,0.0241,-4.25,-37.31,-10.5,197.5,-85.85,179.94
52.52828,-1.729725,152.58,22.23,4,355.35,21 / 24,2291707,2020-01-08 16:59:26:683,-0.5902,-0.4343,10.1067,-0.0056,-0.008,9.8066,0.0507,0.0587,-0.1475,-3.87,-38.44,-11.06,197.47,-85.99,-178.65
52.52828,-1.729725,152.58,22.23,4,355.35,21 / 24,2291808,2020-01-08 16:59:26:784,0.0922,0.8224,10.9676,0.0196,0.0264,9.8065,0.1574,0.0291,0.098,-4.19,-40.56,-10.25,198.81,-85.63,-177.67
52.52828,-1.729725,152.58,22.23,4,355.35,21 / 24,2291908,2020-01-08 16:59:26:884,-2.2606,-0.548,8.5642,0.0117,0.0336,9.8066,-0.095,0.1815,-0.1172,-3.94,-40.87,-11,197.87,-85.44,-177.26
52.52828,-1.729725,152.58,22.23,4,355.35,23 / 24,2292008,2020-01-08 16:59:26:984,-0.3419,-0.0532,10.5826,-0.038,-0.02,9.8065,0.0996,0.0828,-0.0288,-3.69,-40.87,-12.06,199.9,-85.56,-173.68
52.52828,-1.729725,152.58,22.23,4,355.35,23 / 24,2292108,2020-01-08 16:59:27:084,0.9668,0.1624,10.8137,0.0123,0.022,9.8065,-0.2144,0.1597,-0.0425,-3.81,-39.75,-12.69,198.21,-85.57,-174.88
52.52828,-1.729725,152.58,22.23,4,355.35,23 / 24,2292208,2020-01-08 16:59:27:184,1.5789,-1.0802,10.7025,-0.0175,-0.0318,9.8066,0.0165,-0.0428,-0.0078,-3.5,-38.69,-12.94,194.84,-85.78,-175.03
52.52828,-1.729725,152.58,22.23,4,355.35,23 / 24,2292308,2020-01-08 16:59:27:284,0.0447,-0.2323,10.1363,0.0195,0.0057,9.8066,-0.0475,0.1796,-0.058,-3.12,-37.94,-12.62,196.09,-85.56,-173.45
52.52828,-1.729725,152.58,22.23,4,355.35,23 / 24,2292408,2020-01-08 16:59:27:384,-1.0267,-0.2207,9.3523,-0.0084,-0.0137,9.8066,-0.0652,0.0999,-0.0336,-2.5,-37.69,-12.19,192.78,-85.49,-173.6
52.52828,-1.729725,152.58,22.23,4,355.35,23 / 24,2292508,2020-01-08 16:59:27:484,-0.853,0.7138,10.8387,-0.0055,-0.0248,9.8066,0.0554,0.1223,-0.1443,-1.75,-37.5,-11.87,193.89,-85.68,-172.46
52.52828,-1.729725,152.58,22.23,4,355.35,23 / 24,2292608,2020-01-08 16:59:27:584,-0.2895,0.601,10.6318,0.026,-0.03,9.8065,-0.0937,0.0382,0.0818,-2.12,-37.44,-11.69,194.38,-85.71,-171.88
52.52828,-1.729725,152.58,22.23,4,355.35,23 / 24,2292708,2020-01-08 16:59:27:684,-0.4771,-2.4511,9.6004,-0.0223,-0.0195,9.8065,0.1225,0.0562,0.1124,-2.06,-37.69,-11.44,193.74,-85.62,-173.06
52.52828,-1.729725,152.58,22.23,4,355.35,23 / 24,2292808,2020-01-08 16:59:27:784,-0.7564,1.155,10.0746,-0.0127,0.0306,9.8065,-0.1205,-0.0027,0.1948,-2.06,-37.5,-12,192.33,-85.44,-174.21
52.52828,-1.729725,152.58,22.23,4,355.35,23 / 24,2292910,2020-01-08 16:59:27:886,-0.487,0.8587,10.6532,0.004,-0.0129,9.8066,0.1011,0.0048,-0.2047,-2.12,-36.94,-12.06,190.85,-85.62,-176.14
52.52828,-1.729725,152.58,22.23,4,355.35,21 / 23,2293009,2020-01-08 16:59:27:985,1.4424,-1.177,8.7827,-0.021,0.0307,9.8065,-0.1484,0.0564,-0.0877,-2.5,-37.25,-11.87,191.04,-85.45,-175.81
52.52828,-1.729725,152.58,22.23,4,355.35,21 / 23,2293108,2020-01-08 16:59:28:084,0.1038,-0.7592,9.8779,0.0164,-0.0218,9.8065,0.1601,0.2321,-0.0479,-1.25,-37.06,-11.87,186.99,-85.48,-176.11
52.52828,-1.729725,152.58,22.23,4,355.35,21 / 23,2293208,2020-01-08 16:59:28:184,1.977,-0.2552,9.9287,-0.0477,0.0535,9.8064,0.0785,0.0166,0.0077,-1.94,-37.69,-11.44,189.31,-85.37,-178.47
52.52828,-1.729725,152.58,22.23,4,355.35,21 / 23,2293307,2020-01-08 16:59:28:283,-3,0.0477,9.4577,-0.0281,0.0147,9.8065,0.0076,0.2983,-0.22,-1.5,-37.44,-12.06,187.45,-85.43,-175.52
52.52828,-1.729725,152.58,22.23,4,355.35,21 / 23,2293408,2020-01-08 16:59:28:384,-0.9534,-0.0756,9.368,-0.031,0.0122,9.8066,0.086,-0.1421,0.1474,-1.44,-37.12,-12.06,185.71,-85.32,-177.65
52.52828,-1.729725,152.58,22.23,4,355.35,21 / 23,2293507,2020-01-08 16:59:28:483,-2.2649,0.1792,9.0198,0.006,0.0355,9.8066,0.0638,0.2274,-0.2035,-1.12,-37.62,-11.69,185.03,-85.13,-178.41
52.52828,-1.729725,152.58,22.23,4,355.35,21 / 23,2293608,2020-01-08 16:59:28:584,1.9089,-1.2338,8.8386,-0.0504,0.0209,9.8064,0.1812,-0.174,0.0183,-1.44,-37.31,-11.62,183.96,-85.18,-179.8
52.52828,-1.729725,152.58,22.23,4,355.35,21 / 23,2293708,2020-01-08 16:59:28:684,0.9013,0.0656,12.0531,0.0189,0.0488,9.8064,0.2056,0.1891,-0.1037,-1.12,-37.25,-11.87,183.96,-85.31,-179.83
52.52828,-1.729725,152.58,22.23,4,355.35,21 / 23,2293808,2020-01-08 16:59:28:784,3.794,-0.094,9.87,-0.0522,0.0529,9.8063,0.1756,-0.0721,0.1246,-1.25,-37.31,-11.81,181.92,-85.04,177.66
52.52828,-1.729725,152.58,22.23,4,355.35,21 / 23,2293908,2020-01-08 16:59:28:884,-3.1229,1.8753,11.5753,-0.0342,0.0586,9.8064,0.2764,0.2489,-0.375,-1.06,-37.37,-11.69,183.32,-85.19,179.4
52.52828,-1.729725,152.58,22.23,4,355.35,22 / 24,2294008,2020-01-08 16:59:28:984,-0.6335,-0.9855,7.3384,-0.0363,0.0797,9.8062,0.1101,-0.1312,0.0494,-0.69,-37.62,-12.25,182.02,-84.98,177.8
52.52828,-1.729725,152.58,22.23,4,355.35,22 / 24,2294108,2020-01-08 16:59:29:084,-3.2877,1.2974,12.1167,0.0178,-0.0446,9.8065,0.317,0.1378,-0.0894,-1.12,-37.5,-11.5,184.92,-85.6,-179.03
52.52828,-1.729725,152.58,22.23,4,355.35,22 / 24,2294208,2020-01-08 16:59:29:184,2.6262,-3.7597,7.6737,0.0014,-0.0013,9.8066,0.2987,0.3602,-0.293,-1.56,-37.44,-12.25,188.58,-85.61,-178.92
52.52828,-1.729725,152.58,22.23,4,355.35,22 / 24,2294308,2020-01-08 16:59:29:284,-0.3116,-0.0141,10.261,0.0308,-0.0459,9.8064,0.2911,0.2371,-0.1538,-0.87,-37.69,-11.81,183.33,-85.14,179.44
52.52828,-1.729725,152.58,22.23,4,355.35,22 / 24,2294407,2020-01-08 16:59:29:383,-3.1717,1.3152,11.4642,-0.0034,0.0102,9.8066,0.1487,0.097,-0.1171,-0.75,-37.31,-11.31,184.5,-85.03,-179.41
52.52828,-1.729725,152.58,22.23,4,355.35,22 / 24,2294508,2020-01-08 16:59:29:484,-0.7298,0.4719,9.7081,0.041,-0.0445,9.8064,0.1198,0.2471,-0.2074,-0.75,-37.19,-12.37,184.84,-85.05,-178.66
52.52828,-1.729725,152.58,22.23,4,355.35,22 / 24,2294607,2020-01-08 16:59:29:583,-1.1144,-0.1723,9.8797,0.0072,-0.0146,9.8065,0.0592,0.1268,-0.107,-1.06,-37.44,-12,183.13,-84.98,179.2
52.52828,-1.729725,152.58,22.23,4,355.35,22 / 24,2294708,2020-01-08 16:59:29:684,1.7123,-1.4871,9.0961,0.0232,-0.0278,9.8065,0.0662,0.157,-0.1664,-0.75,-36.69,-11.56,181.72,-84.96,177.41
52.52828,-1.729725,152.58,22.23,4,355.35,22 / 24,2294808,2020-01-08 16:59:29:784,0.1902,-0.3736,9.3003,0.0019,-0.0012,9.8066,0.0416,0.1336,-0.0618,-1.25,-37.62,-11.44,181.35,-85.14,176.55
52.52828,-1.729725,152.58,22.23,4,355.35,23 / 24,2294908,2020-01-08 16:59:29:884,0.2438,-1.8889,9.27,0.0288,-0.023,9.8065,0.0907,0.2718,-0.1758,-0.81,-37.62,-12.19,180.02,-85.09,175.26
52.52828,-1.729725,152.58,22.23,4,355.35,23 / 24,2295008,2020-01-08 16:59:29:984,-2.1751,1.4681,11.2003,0.0147,-0.0194,9.8066,0.1346,0.1521,-0.0695,-0.75,-37.94,-11.87,180.75,-85.14,176.19
52.52828,-1.729725,152.58,22.23,4,355.35,23 / 24,2295107,2020-01-08 16:59:30:083,-0.9383,0.7172,11.0001,0.0397,-0.0493,9.8064,0.2133,0.2602,-0.106,-1.06,-37.12,-11.56,183.23,-85.29,179.27
52.52828,-1.729725,152.58,22.23,4,355.35,23 / 24,2295207,2020-01-08 16:59:30:183,-2.2689,0.6074,10.6453,0.0361,-0.0232,9.8065,0.0887,0.1971,-0.1977,-1.25,-37.25,-11.81,183.96,-85.25,-179.81
52.52828,-1.729725,152.58,22.23,4,355.35,23 / 24,2295308,2020-01-08 16:59:30:284,2.2565,-1.7122,7.8242,0.039,-0.0511,9.8063,0.231,0.2701,-0.17,-1.56,-37.5,-12.25,186.36,-85.13,178.52
52.52828,-1.729725,152.58,22.23,4,355.35,23 / 24,2295408,2020-01-08 16:59:30:384,0.0809,-0.967,9.8765,0.0245,-0.0097,9.8066,0.1381,0.2508,-0.2381,-0.62,-37,-12.31,183.67,-85.13,179.86
52.52828,-1.729725,152.58,22.23,4,355.35,23 / 24,2295508,2020-01-08 16:59:30:484,1.6404,-1.3825,7.9604,0.0231,-0.0355,9.8065,0.091,0.0927,-0.1373,-1.19,-37.31,-12.19,181.65,-84.99,177.32
52.52828,-1.729725,152.58,22.23,4,355.35,23 / 24,2295608,2020-01-08 16:59:30:584,-2.3963,0.9148,10.9436,0.0245,-0.078,9.8062,0.2717,0.2495,-0.2334,-0.69,-37.31,-11.75,182.16,-85.3,177.93
52.52828,-1.729725,152.58,22.23,4,355.35,23 / 24,2295708,2020-01-08 16:59:30:684,0.7104,0.4269,9.2974,0.0363,-0.0494,9.8064,0.1292,0.1182,-0.1536,-0.56,-37.19,-11.37,182.84,-85.58,178.37
52.52828,-1.729725,152.58,22.23,4,355.35,23 / 24,2295807,2020-01-08 16:59:30:783,-2.0196,-0.5938,11.6469,0.0393,-0.0517,9.8064,0.2183,0.2026,-0.1158,-1.12,-37.25,-12.62,181.74,-85.57,177.72
52.52828,-1.729725,152.58,22.23,4,355.35,23 / 24,2295907,2020-01-08 16:59:30:883,0.555,-1.3929,8.9563,0.008,-0.0156,9.8066,0.0706,-0.0109,0.1476,-1.12,-37.12,-11.87,182.59,-85.27,178.47
52.52828,-1.729725,152.58,22.23,4,355.35,23 / 24,2296008,2020-01-08 16:59:30:984,-2.7687,0.8216,11.1408,0.0697,-0.0533,9.8062,0.1566,0.2553,-0.2957,-0.37,-37.69,-13,182.15,-85.33,-177.35
52.52828,-1.729725,152.58,22.23,4,355.35,23 / 24,2296108,2020-01-08 16:59:31:084,1.7252,-1.3474,8.5588,-0.0128,-0.0039,9.8066,-0.026,-0.2352,0.1111,-1.06,-37.69,-11.81,183.79,-85.3,179.99
52.52828,-1.729725,152.58,22.23,4,355.35,23 / 24,2296207,2020-01-08 16:59:31:183,2.7209,-1.0041,10.3058,0.0082,-0.0389,9.8065,0.1255,-0.1136,-0.0037,-0.62,-37.44,-12,183.16,-85.48,179.15
52.52828,-1.729725,152.58,22.23,4,355.35,23 / 24,2296307,2020-01-08 16:59:31:283,0.8125,-2.0328,9.5709,-0.0267,-0.009,9.8066,0.0254,-0.2512,0.1546,-1,-37.25,-11.94,180.84,-85.41,176.28
52.52828,-1.729725,152.58,22.23,4,355.35,23 / 24,2296407,2020-01-08 16:59:31:383,0.6203,0.95,11.4604,0.0003,-0.0297,9.8065,0.217,-0.1138,0.0699,-1.12,-37.56,-11.5,182.56,-85.43,178.06
52.52828,-1.729725,152.58,22.23,4,355.35,23 / 24,2296507,2020-01-08 16:59:31:483,-0.6953,1.739,9.8103,-0.0117,0.006,9.8066,-0.0551,-0.1263,0.0334,-1.19,-37.19,-11.94,183.28,-85.15,179.36
52.52828,-1.729725,152.58,22.23,4,355.35,23 / 24,2296608,2020-01-08 16:59:31:584,-1.7307,-0.4777,11.1532,-0.0027,-0.0451,9.8065,0.0476,0.0203,0.0626,-0.62,-37.69,-12,182.75,-85.31,178.69
52.52828,-1.729725,152.58,22.23,4,355.35,23 / 24,2296708,2020-01-08 16:59:31:684,-0.4054,-0.23,9.8664,-0.0295,0.0359,9.8065,-0.1369,-0.1801,0.1081,-0.56,-37.62,-12,181.66,-85.27,177.32
52.52828,-1.729725,152.58,22.23,4,355.35,23 / 24,2296807,2020-01-08 16:59:31:783,1.616,-0.9785,8.5578,-0.0029,0.0153,9.8066,-0.1168,-0.026,0.0395,-0.75,-37.31,-12.12,182.02,-85.26,177.77
52.52828,-1.729725,152.58,22.23,4,355.35,23 / 24,2296907,2020-01-08 16:59:31:883,-0.4463,0.2566,10.2361,-0.0308,0.0332,9.8065,-0.0597,-0.1562,0.0972,-0.06,-37.44,-11.81,178.22,-85.36,177.78
52.52828,-1.729725,152.58,22.23,4,355.35,23 / 24,2297008,2020-01-08 16:59:31:984,1.8007,-0.522,9.1302,-0.0247,0.0292,9.8065,-0.0895,-0.2604,0.1245,-0.31,-37,-12.06,176.97,-85.17,176.19
52.52828,-1.729725,152.58,22.23,4,355.35,23 / 24,2297108,2020-01-08 16:59:32:084,-2.1737,0.1429,9.784,-0.0274,0.0087,9.8066,-0.0272,-0.1337,0.1139,-0.31,-37.06,-11.62,177.3,-85.22,176.62
52.52828,-1.729725,152.58,22.23,4,355.35,23 / 24,2297207,2020-01-08 16:59:32:183,0.3708,1.6888,10.4763,-0.0346,-0.0069,9.8065,0.0829,-0.2984,0.2071,-0.69,-37.19,-11.81,179.97,-85.24,175.2
52.52828,-1.729725,152.58,22.23,4,355.35,23 / 24,2297308,2020-01-08 16:59:32:284,-3.6403,1.0549,8.0815,-0.0466,0.0015,9.8065,-0.2192,-0.1763,0.2222,-0.94,-37.25,-12.19,179.82,-85.27,175.01
52.52828,-1.729725,152.58,22.23,4,355.35,23 / 24,2297408,2020-01-08 16:59:32:384,1.9306,-0.6249,8.4523,-0.0163,-0.0616,9.8063,0.2091,-0.2341,0.1311,-0.75,-37.5,-11.56,182.36,-85.65,178.14
52.52828,-1.729725,152.58,22.23,4,355.35,23 / 24,2297508,2020-01-08 16:59:32:484,-0.4676,-0.3702,11.8635,-0.0275,0.0521,9.8065,-0.3198,0.0524,0.0318,-0.56,-37.56,-11.94,182.09,-85.23,177.87
52.52828,-1.729725,152.58,22.23,4,355.35,23 / 24,2297608,2020-01-08 16:59:32:584,0.5527,0.3217,11.1137,-0.0128,0.0085,9.8065,-0.0532,-0.0857,0.0469,-0.06,-37.56,-12.06,177.8,-85.39,177.25
52.52828,-1.729725,152.58,22.23,4,355.35,23 / 24,2297708,2020-01-08 16:59:32:684,-1.9953,0.6929,10.4708,-0.0353,0.0455,9.8064,-0.171,-0.0448,0.1568,-0.5,-37.69,-11.69,177.56,-85.35,176.95
52.52828,-1.729725,152.58,22.23,4,355.35,23 / 24,2297807,2020-01-08 16:59:32:783,0.6794,-1.1667,8.1961,-0.0066,0.0124,9.8066,-0.1651,-0.0458,0.0732,-0.81,-37.75,-11.75,181.13,-85.33,176.66
52.52828,-1.729725,152.58,22.23,4,355.35,23 / 24,2297908,2020-01-08 16:59:32:884,-0.2962,1.4834,9.974,-0.0051,-0.0052,9.8066,0.0371,-0.1374,0.0458,-0.12,-37.75,-11.94,178.34,-85.52,177.93
52.52828,-1.729725,152.58,22.23,4,355.35,23 / 24,2298007,2020-01-08 16:59:32:983,-1.031,0.5962,10.2805,-0.0171,0.0213,9.8065,-0.0062,-0.0076,0.1086,-0.62,-37.25,-11.94,182.75,-85.5,178.65
52.52828,-1.729725,152.58,22.23,4,355.35,23 / 24,2298108,2020-01-08 16:59:33:084,0.7989,0.0693,9.3365,-0.0325,0.0116,9.8066,-0.0945,-0.0091,0.2375,-0.62,-37.81,-11.56,184.95,-85.45,-178.59
52.52828,-1.729725,152.58,22.23,4,355.35,23 / 24,2298208,2020-01-08 16:59:33:184,-0.0733,-0.7326,10.5406,0.0471,-0.0222,9.8065,0.1683,0.1447,-0.2174,-1.31,-37.06,-11.62,185.86,-85.38,-177.48
52.52828,-1.729725,152.58,22.23,4,355.35,23 / 24,2298308,2020-01-08 16:59:33:284,-0.7072,-0.1284,7.7338,0.0072,-0.0188,9.8066,-0.0166,-0.0595,-0.0771,-0.75,-37.94,-12,184.23,-85.19,-179.44
52.52828,-1.729725,152.58,22.23,4,355.35,23 / 24,2298408,2020-01-08 16:59:33:384,2.32,2.6263,11.904,-0.033,-0.0771,9.8062,0.1832,-0.2679,0.1125,-0.5,-37.62,-11.94,178.39,-85.41,177.99
52.52828,-1.729725,152.58,22.23,4,355.35,23 / 24,2298508,2020-01-08 16:59:33:484,-1.2753,1.5408,11.0105,-0.0377,0.0524,9.8064,-0.2601,0.0273,0.0968,-0.5,-37.81,-12,176.2,-85.15,175.2
52.52828,-1.729725,152.58,22.23,4,355.35,23 / 24,2298608,2020-01-08 16:59:33:584,-0.2847,1.6514,12.05,-0.04,-0.0083,9.8065,-0.0438,0.0057,-0.0646,-0.5,-37.75,-11.75,174.98,-85.18,173.67
52.52828,-1.729725,152.58,22.23,4,355.35,23 / 24,2298709,2020-01-08 16:59:33:685,-0.4238,0.7638,10.2635,-0.0237,0.0776,9.8062,-0.3534,0.0885,-0.013,0.44,-37.06,-11.87,171.99,-84.7,169.75
52.52828,-1.729725,152.58,22.23,4,355.35,23 / 24,2298808,2020-01-08 16:59:33:784,-1.0522,0.6582,7.7306,-0.003,0.0101,9.8066,-0.1608,0.1759,-0.0224,-0.37,-36.87,-12.44,170.96,-85.04,168.59
52.52828,-1.729725,152.58,22.23,4,355.35,22 / 23,2298909,2020-01-08 16:59:33:885,0.8905,-0.6402,9.5633,0.0077,-0.005,9.8066,-0.0714,-0.0844,0.0837,-0.69,-37.62,-12.44,174.96,-85.41,168.94
52.52993,-1.729961,152.68,18.37,4,352.67,22 / 23,2299008,2020-01-08 16:59:33:984,-2.428,0.1169,9.7953,0.0317,-0.0123,9.8065,0.0355,0.2028,0.0077,-0.37,-37.12,-11.87,173.84,-85.69,172.43
52.52993,-1.729961,152.68,18.37,4,352.67,22 / 23,2299108,2020-01-08 16:59:34:084,2.1831,-0.1932,9.194,-0.0095,-0.0084,9.8066,0.0004,-0.1926,0.1562,-0.69,-37.75,-12.25,180.47,-85.74,175.81
52.52993,-1.729961,152.68,18.37,4,352.67,22 / 23,2299208,2020-01-08 16:59:34:184,0.2546,0.9441,10.8621,0.0382,-0.0243,9.8065,0.1237,0.204,-0.1689,-0.5,-37.19,-12,177.82,-85.8,177.33
52.52993,-1.729961,152.68,18.37,4,352.67,22 / 23,2299308,2020-01-08 16:59:34:284,-3.0053,0.0305,10.0231,-0.0283,-0.0228,9.8066,0.0602,-0.2236,0.1574,-0.69,-37.25,-11.69,178.75,-85.82,173.71
52.52993,-1.729961,152.68,18.37,4,352.67,22 / 23,2299408,2020-01-08 16:59:34:384,-2.1754,1.3302,11.1977,0.0211,-0.036,9.8065,0.1757,0.0892,-0.1009,-0.56,-37.44,-12.12,179.84,-85.79,175.05
52.52993,-1.729961,152.68,18.37,4,352.67,22 / 23,2299507,2020-01-08 16:59:34:483,-0.1617,0.3615,9.9892,-0.0095,0.0102,9.8066,-0.0687,-0.1116,0.0133,-0.37,-37.75,-12.12,175.54,-85.52,174.45
52.52993,-1.729961,152.68,18.37,4,352.67,22 / 23,2299608,2020-01-08 16:59:34:584,0.3075,0.0376,9.4165,-0.0122,-0.0083,9.8066,-0.0163,-0.0415,0.0242,0,-37.81,-12.31,174.18,-85.55,172.77
52.52993,-1.729961,152.68,18.37,4,352.67,22 / 23,2299707,2020-01-08 16:59:34:683,-0.851,-0.5094,10.0252,-0.034,0.0003,9.8065,-0.0439,-0.064,-0.0253,0,-37.56,-11.37,173.96,-85.59,172.37
52.52993,-1.729961,152.68,18.37,4,352.67,22 / 23,2299809,2020-01-08 16:59:34:785,0.8823,-0.5707,9.3782,-0.0331,-0.0064,9.8066,0.0057,-0.149,0.0111,0,-37.19,-12.25,169.56,-85.61,167.13
52.52993,-1.729961,152.68,18.37,4,352.67,22 / 23,2299908,2020-01-08 16:59:34:884,-0.8562,-0.4827,10.6898,-0.0188,0.0062,9.8066,-0.0926,-0.034,0.0021,0.5,-37.37,-11.75,162.91,-85.55,163.71
52.52993,-1.729961,152.68,18.37,4,352.67,22 / 23,2300008,2020-01-08 16:59:34:984,-0.2314,0.1934,9.534,-0.0362,0.0323,9.8064,-0.057,-0.1055,0.163,0,-37.31,-11.81,166.26,-85.51,163.01
52.52993,-1.729961,152.68,18.37,4,352.67,22 / 23,2300108,2020-01-08 16:59:35:084,-0.6427,-0.3864,10.8796,0.0066,0.0079,9.8066,0.0491,-0.0984,0.0191,-0.06,-37.62,-12.06,169.01,-85.53,166.34
52.52993,-1.729961,152.68,18.37,4,352.67,22 / 23,2300208,2020-01-08 16:59:35:184,1.2114,-0.7789,9.4649,-0.0203,0.0247,9.8065,-0.1119,-0.1099,0.1285,-0.5,-37.5,-12.25,169.64,-85.39,167.12
52.52993,-1.729961,152.68,18.37,4,352.67,22 / 23,2300308,2020-01-08 16:59:35:284,-0.6574,0.579,10.3758,-0.0161,0.0082,9.8066,-0.0001,-0.038,0.0581,0.13,-37.5,-11.37,170.35,-85.35,167.76
52.52993,-1.729961,152.68,18.37,4,352.67,22 / 23,2300407,2020-01-08 16:59:35:383,0.8778,-1.3284,9.0798,-0.0139,0.0234,9.8065,-0.0936,-0.0732,0.0604,-0.62,-37.44,-11.81,174.6,-85.41,168.53
52.52993,-1.729961,152.68,18.37,4,352.67,22 / 23,2300508,2020-01-08 16:59:35:484,0.3889,-0.2806,10.1642,0.0115,-0.0104,9.8065,0.0094,0.1036,-0.0858,-0.25,-37.94,-11.37,170.4,-85.41,167.79
52.52993,-1.729961,152.68,18.37,4,352.67,22 / 23,2300608,2020-01-08 16:59:35:584,0.745,-0.5102,10.0022,-0.0036,0.0006,9.8066,-0.0197,0.0164,-0.0005,-0.25,-37.06,-11.75,170.53,-85.59,168.32
52.52993,-1.729961,152.68,18.37,4,352.67,22 / 23,2300707,2020-01-08 16:59:35:683,-0.5528,-1.3004,8.7226,0.0175,-0.0079,9.8066,-0.0605,0.3455,-0.0434,0.31,-37.12,-12.44,170.33,-85.71,168.14
52.52993,-1.729961,152.68,18.37,4,352.67,22 / 23,2300808,2020-01-08 16:59:35:784,-3.3488,-0.5776,10.8719,0.0186,-0.0343,9.8065,0.1044,-0.0306,-0.1664,-0.37,-37,-11.94,172.06,-85.93,170.35
52.52993,-1.729961,152.68,18.37,4,352.67,22 / 23,2300908,2020-01-08 16:59:35:884,8.2865,-1.1342,12.8073,0.1439,0.0736,9.8053,-0.3403,1.0848,-0.7013,-0.75,-36.87,-11.94,171.16,-86.1,164.57
52.52993,-1.729961,152.68,18.37,4,352.67,23 / 24,2301008,2020-01-08 16:59:35:984,-4.303,-2.1952,7.0742,0.0168,0.0185,9.8066,-0.3686,0.6154,-0.2656,-0.31,-37.75,-12.44,170.59,-85.71,168.4
52.52993,-1.729961,152.68,18.37,4,352.67,23 / 24,2301108,2020-01-08 16:59:36:084,8.2095,0.4262,11.1696,0.105,0.0189,9.8061,0.0387,0.7624,-0.4233,-0.56,-37.69,-11.75,172.68,-85.57,166.15
52.52993,-1.729961,152.68,18.37,4,352.67,23 / 24,2301207,2020-01-08 16:59:36:183,-2.2783,-1.3241,6.6124,0.0869,0.0654,9.806,-0.181,0.8135,-0.4706,-0.69,-37.62,-11.62,177.67,-85.39,172.32
52.52993,-1.729961,152.68,18.37,4,352.67,23 / 24,2301308,2020-01-08 16:59:36:284,4.5993,-1.6818,9.5688,0.0498,-0.0539,9.8064,0.0639,0.0607,0.0273,-1.19,-36.94,-12.25,178.35,-85.82,173.23
52.52993,-1.729961,152.68,18.37,4,352.67,23 / 24,2301408,2020-01-08 16:59:36:384,0.6399,0.2254,9.6719,0.0599,-0.0141,9.8065,-0.048,0.2747,-0.1036,-0.37,-37.19,-12.06,176.21,-86,175.41
52.52993,-1.729961,152.68,18.37,4,352.67,23 / 24,2301508,2020-01-08 16:59:36:484,-1.2267,-0.8373,9.7741,-0.0178,-0.0008,9.8066,0.0432,-0.167,0.0907,-0.81,-37.31,-12.25,180.69,-86.09,176.07
52.52993,-1.729961,152.68,18.37,4,352.67,23 / 24,2301608,2020-01-08 16:59:36:584,-0.7166,-0.5132,10.6375,-0.0173,0.0352,9.8065,0.0971,0.01,-0.1359,-0.56,-37,-12,179.91,-85.91,175.12
52.52993,-1.729961,152.68,18.37,4,352.67,23 / 24,2301708,2020-01-08 16:59:36:684,0.3715,-0.0886,10.6065,-0.0168,0.0434,9.8065,0.1038,0.0058,0.0076,-0.5,-36.81,-11.94,173.15,-85.35,171.46
52.52993,-1.729961,152.68,18.37,4,352.67,23 / 24,2301808,2020-01-08 16:59:36:784,0.0256,0.2778,10.2703,-0.0012,0.0317,9.8065,0.0644,-0.0692,0.0395,-0.44,-37.31,-11.37,172.64,-84.94,170.49
52.52993,-1.729961,152.68,18.37,4,352.67,23 / 25,2301910,2020-01-08 16:59:36:886,-0.1818,0.1887,9.8055,0.001,-0.0232,9.8065,-0.0515,0.0716,0.0173,-0.44,-37.31,-11.12,172.55,-84.89,170.36
52.52993,-1.729961,152.68,18.37,4,352.67,23 / 25,2302008,2020-01-08 16:59:36:984,-0.9383,-0.2288,8.8514,0.0038,-0.0196,9.8066,-0.1019,0.0785,-0.0475,-0.5,-37.12,-11.37,172.71,-85.36,170.75
52.52993,-1.729961,152.68,18.37,4,352.67,23 / 25,2302108,2020-01-08 16:59:37:084,-0.7211,-0.3786,9.4284,-0.0044,-0.032,9.8065,-0.0841,0.0803,0.0179,-1.06,-36.94,-11.56,178.1,-85.82,172.92
52.52993,-1.729961,152.68,18.37,4,352.67,23 / 25,2302208,2020-01-08 16:59:37:184,0.2594,0.0925,10.126,-0.0232,0.0186,9.8065,0.0358,0.0373,-0.1046,-0.44,-37.37,-11.94,172.57,-85.93,170.96
52.52993,-1.729961,152.68,18.37,4,352.67,23 / 25,2302308,2020-01-08 16:59:37:284,1.7641,0.1395,9.5525,0.0259,0.0015,9.8066,-0.02,0.1663,-0.0705,-0.5,-36.44,-12.19,171.8,-85.99,170.1
52.52993,-1.729961,152.68,18.37,4,352.67,23 / 25,2302408,2020-01-08 16:59:37:384,-1.338,-0.8531,10.0444,0.0267,0.0108,9.8066,-0.0678,0.2247,-0.1753,-0.25,-37.31,-12,173.73,-85.97,172.38
52.52993,-1.729961,152.68,18.37,4,352.67,23 / 25,2302508,2020-01-08 16:59:37:484,0.5585,0.2629,10.7267,0.0204,-0.0036,9.8066,0.1028,0.0539,-0.1109,-0.81,-37.25,-11.56,175.16,-85.88,169.34
52.52993,-1.729961,152.68,18.37,4,352.67,23 / 25,2302608,2020-01-08 16:59:37:584,-1.1647,1.0819,9.7249,0.0233,0.017,9.8066,-0.0245,0.2248,-0.0465,-0.31,-37,-11.69,172.52,-85.74,170.83
52.52993,-1.729961,152.68,18.37,4,352.67,23 / 25,2302708,2020-01-08 16:59:37:684,-0.4881,-0.4379,9.2312,0.0039,-0.0171,9.8066,0.072,-0.0339,0.0532,-0.37,-37,-11.81,172.8,-85.92,171.24
52.52993,-1.729961,152.68,18.37,4,352.67,23 / 25,2302808,2020-01-08 16:59:37:784,0.8234,-1.1756,9.6435,0.0079,-0.0177,9.8066,-0.0307,-0.0544,-0.0409,-1.19,-36.87,-11.75,177.04,-86.05,171.66
52.52993,-1.729961,152.68,18.37,4,352.67,22 / 24,2302910,2020-01-08 16:59:37:886,-0.525,-1.5056,10.0153,0.0118,-0.0372,9.8066,0.0742,0.1163,-0.011,-0.94,-36.94,-11.81,177.37,-86.38,172.11
52.52993,-1.729961,152.68,18.37,4,352.67,22 / 24,2303008,2020-01-08 16:59:37:984,-0.7032,1.4055,9.5975,-0.0319,0.0214,9.8065,-0.0178,0.0144,-0.1305,-0.56,-36.31,-11.81,174.98,-86.29,169.26
52.52993,-1.729961,152.68,18.37,4,352.67,22 / 24,2303108,2020-01-08 16:59:38:084,2.8816,-1.5613,8.7392,-0.0192,0.0362,9.8065,0.0995,0.4122,-0.2598,-0.56,-37.06,-11.5,175.8,-86.2,169.69
52.52993,-1.729961,152.68,18.37,4,352.67,22 / 24,2303208,2020-01-08 16:59:38:184,-0.8639,0.6129,10.8631,-0.0681,0.0238,9.8064,0.2194,0.4975,-0.1984,-0.94,-36.69,-11.69,178.69,-86.38,173.68
52.52993,-1.729961,152.68,18.37,4,352.67,22 / 24,2303307,2020-01-08 16:59:38:283,3.162,0.0444,8.3028,-0.0654,0.013,9.8063,-0.1576,0.2599,-0.0869,-0.62,-36.5,-11.69,171.61,-86.35,165.27
52.52993,-1.729961,152.68,18.37,4,352.67,22 / 24,2303408,2020-01-08 16:59:38:384,-4.6534,-0.8538,9.7069,-0.0388,-0.0389,9.8064,0.0012,0.6279,-0.2598,0.06,-36.81,-11.37,173.72,-86.19,172.34
52.52993,-1.729961,152.68,18.37,4,352.67,22 / 24,2303509,2020-01-08 16:59:38:485,-0.8222,-0.5989,9.9295,-0.045,-0.0279,9.8065,-0.0588,-0.236,0.2339,-0.37,-37,-12.12,169.53,-86.5,167.58
52.52993,-1.729961,152.68,18.37,4,352.67,22 / 24,2303608,2020-01-08 16:59:38:584,-3.0247,0.86,9.9928,0.0202,-0.0008,9.8065,0.0278,0.1456,-0.179,-0.5,-37.06,-11.62,171.59,-86.73,170.13
52.52993,-1.729961,152.68,18.37,4,352.67,22 / 24,2303708,2020-01-08 16:59:38:684,1.4407,-0.1345,9.4044,-0.0306,0.0299,9.8065,0.0279,-0.2576,0.1793,-1.19,-37.25,-11.75,173.85,-86.57,167.96
52.52993,-1.729961,152.68,18.37,4,352.67,22 / 24,2303808,2020-01-08 16:59:38:784,1.0865,0.4152,10.1092,0.0137,0.0038,9.8066,0.0058,0.0657,-0.0966,-1.06,-36.87,-11.75,173.06,-86.61,167.05
52.52993,-1.729961,152.68,18.37,4,352.67,22 / 24,2303908,2020-01-08 16:59:38:884,2.0761,0.2104,10.9056,-0.0254,-0.0024,9.8066,0.1108,-0.2481,0.0923,-1.12,-37.12,-11.87,172.11,-86.64,165.94
52.52993,-1.729961,152.68,18.37,4,352.67,23 / 24,2304009,2020-01-08 16:59:38:985,-0.2036,0.5657,10.3943,0.0331,0.0279,9.8065,0.0708,0.0411,0.0046,-0.31,-36.44,-11.62,166.7,-86.53,164.33
52.52993,-1.729961,152.68,18.37,4,352.67,23 / 24,2304107,2020-01-08 16:59:39:083,-2.4048,1.0323,9.5855,-0.0236,0.0137,9.8065,-0.0434,-0.3365,0.1647,-0.69,-37.25,-11.56,171.68,-86.31,165.29
52.52993,-1.729961,152.68,18.37,4,352.67,23 / 24,2304208,2020-01-08 16:59:39:184,-1.3553,-0.3012,9.7279,0.0339,-0.01,9.8065,0.0076,-0.1199,0.0646,-1.25,-36.56,-12.06,173.17,-86.51,167.15
52.52993,-1.729961,152.68,18.37,4,352.67,23 / 24,2304308,2020-01-08 16:59:39:284,-1.7192,1.3544,10.3107,0.0038,-0.0189,9.8066,0.0107,-0.1389,0.025,-0.87,-37.62,-11.69,171.41,-86.69,165.1
52.52993,-1.729961,152.68,18.37,4,352.67,23 / 24,2304408,2020-01-08 16:59:39:384,1.5146,-1.1325,9.5472,0.0205,-0.0055,9.8066,-0.0506,-0.1767,0.1654,-0.19,-37.31,-11.62,166.65,-86.71,164.33
52.52993,-1.729961,152.68,18.37,4,352.67,23 / 24,2304507,2020-01-08 16:59:39:483,0.2017,0.6095,9.6581,0.0343,0.0079,9.8065,-0.0189,-0.1719,0.1282,-1.06,-36.94,-12,172.78,-86.57,166.7
52.52993,-1.729961,152.68,18.37,4,352.67,23 / 24,2304608,2020-01-08 16:59:39:584,2.6978,0.3464,9.7221,0.0302,-0.0098,9.8065,-0.0194,-0.3072,0.1883,-0.5,-37.19,-11.37,167.46,-86.53,164.95
52.52993,-1.729961,152.68,18.37,4,352.67,23 / 24,2304708,2020-01-08 16:59:39:684,-1.0596,0.1916,9.6418,0.03,-0.0056,9.8065,0.0127,-0.0073,0.0695,-0.37,-37.5,-11.44,168.43,-86.63,166.17
52.52993,-1.729961,152.68,18.37,4,352.67,23 / 24,2304808,2020-01-08 16:59:39:784,1.217,0.73,10.6166,-0.0021,0.0056,9.8066,0.0142,-0.1843,0.0637,-0.44,-37.19,-11.56,167.33,-86.45,164.95
52.52993,-1.729961,152.68,18.37,4,352.67,23 / 24,2304907,2020-01-08 16:59:39:883,-1.4758,0.5905,9.8564,0.0297,0.0094,9.8066,-0.0069,-0.0165,0.0695,-0.87,-37.12,-11.44,172.67,-86.33,165.92
52.52993,-1.729961,152.68,18.37,4,352.67,23 / 25,2305008,2020-01-08 16:59:39:984,0.5342,0.3841,9.3343,0.0097,-0.0049,9.8066,-0.032,-0.2456,0.1189,-0.31,-36.94,-11.94,168.61,-86.25,166.35
52.52993,-1.729961,152.68,18.37,4,352.67,23 / 25,2305108,2020-01-08 16:59:40:084,0.1564,-0.0425,9.5154,0.0363,-0.0278,9.8064,0.0103,0.1055,0.0012,-1.19,-37.19,-12.37,174.85,-86.34,169.08
52.52993,-1.729961,152.68,18.37,4,352.67,23 / 25,2305207,2020-01-08 16:59:40:183,1.3902,0.6585,9.0205,-0.0179,-0.0024,9.8066,-0.0377,-0.0631,-0.0636,-0.56,-37.5,-12.19,172.5,-86.43,166.33
52.52993,-1.729961,152.68,18.37,4,352.67,23 / 25,2305309,2020-01-08 16:59:40:285,0.2172,0.7638,9.7834,0.0041,0.0037,9.8066,0.1658,0.147,-0.175,-0.12,-36.69,-12,169.2,-86.49,167.19
52.52993,-1.729961,152.68,18.37,4,352.67,23 / 25,2305407,2020-01-08 16:59:40:383,0.157,0.3547,10.7948,-0.0224,0.002,9.8066,-0.0135,-0.0673,0.0582,-0.5,-37.19,-11.75,170.08,-86.53,168.26
52.52993,-1.729961,152.68,18.37,4,352.67,23 / 25,2305508,2020-01-08 16:59:40:484,-0.7011,-1.9187,8.9229,0.0162,-0.0032,9.8066,-0.0351,0.0196,0.0501,-0.81,-37.5,-11.44,171.25,-86.68,164.38
