GPS LATITUDE (degrees), GPS LONGITUDE (degrees), GPS ALTITUDE (m), GPS SPEED (Kmh), GPS ACCURACY (m), GPS ORIENTATION (Â°),GPS SATELLITES IN RANGE, TIME SINCE START (ms), DATE (YYYY-MO-DD HH-MI-SS_SSS), ACCELEROMETER X (m/s²) , ACCELEROMETER Y (m/s²), ACCELEROMETER Z (m/s²), GRAVITY X (m/s²), GRAVITY Y (m/s²), GRAVITY Z (m/s²), GYROSCOPE Yaw (rad/s), GYROSCOPE Pitch (rad/s), GYROSCOPE Roll (rad/s), MAGNETIC FIELD X (Î¼T), MAGNETIC FIELD Y (Î¼T), MAGNETIC FIELD Z (Î¼T), ORIENTATION (Yaw) (Â°), ORIENTATION (Pitch) (Â°), ORIENTATION (Roll ) (Â°)
52.285957,-2.119614,114.06,29.67,4,347.58,25 / 25,8,2020-01-08 16:21:14:984,1.4743,-0.1709,9.5411,-0.03,0.0107,9.8066,-0.0823,-0.1866,-0.1324,-3.81,-39.31,-18.12,179.47,-84.37,166.83
52.285957,-2.119614,114.06,29.67,4,347.58,25 / 25,107,2020-01-08 16:21:15:083,2.5388,-1.5634,11.4989,-0.0354,-0.0283,9.8065,-0.1245,-0.004,-0.1973,-7,-40,-18.62,183.9,-84.64,164.38
52.285957,-2.119614,114.06,29.67,4,347.58,25 / 25,208,2020-01-08 16:21:15:184,1.7604,1.6518,10.7303,-0.0356,0.0448,9.8064,0.0654,-0.0487,-0.1605,-9.56,-32.19,-16.75,188.72,-84.21,159.63
52.285957,-2.119614,114.06,29.67,4,347.58,25 / 25,308,2020-01-08 16:21:15:284,0.1014,2.9193,10.8506,0.0949,-0.1724,9.8046,-0.6901,-0.2967,0.0535,-9.81,-39.56,-17.31,196.55,-85.22,168.79
52.285957,-2.119614,114.06,29.67,4,347.58,25 / 25,408,2020-01-08 16:21:15:384,2.9098,-1.753,11.2957,0.1975,0.0366,9.8045,0.5124,0.1294,0.3121,-12.19,-32.37,-6.12,228.32,-86.72,170.7
52.285957,-2.119614,114.06,29.67,4,347.58,25 / 25,508,2020-01-08 16:21:15:484,-1.4516,-3.7638,8.968,0.0884,0.0771,9.8058,0.1643,-0.2721,0.1199,-14.25,-19.87,-5.44,239.42,-85.42,174.32
52.285957,-2.119614,114.06,29.67,4,347.58,25 / 25,608,2020-01-08 16:21:15:584,1.7752,-3.3148,12.5775,-0.0136,0.0048,9.8066,-0.0464,-0.2222,-0.0048,-14.62,-20,-9.31,223.47,-85.25,168.08
52.285957,-2.119614,114.06,29.67,4,347.58,25 / 25,708,2020-01-08 16:21:15:684,0.5562,-0.8373,10.0632,0.0649,-0.0108,9.8063,0.0568,-0.0594,0.1857,-11.75,-21,-7.25,222.49,-84.68,168.07
52.285957,-2.119614,114.06,29.67,4,347.58,25 / 25,807,2020-01-08 16:21:15:783,0.8366,0.6261,9.4319,0.0178,-0.0374,9.8065,-0.0065,0.0932,0.1766,-9.5,-14.87,-4.37,226.3,-84.66,166.03
52.285957,-2.119614,114.06,29.67,4,347.58,25 / 25,908,2020-01-08 16:21:15:884,-0.8542,-1.8813,7.056,0.0079,-0.0029,9.8066,-0.037,-0.1378,0.3333,-7.5,-8.81,-5.37,219.15,-85.25,167.73
52.285957,-2.119614,114.06,29.67,4,347.58,24 / 24,1007,2020-01-08 16:21:15:983,-0.4784,-1.2384,9.0158,-0.0108,-0.0076,9.8066,-0.0284,0.0985,0.0778,-7.87,-3.06,-4.12,234.16,-85.6,171.84
52.285957,-2.119614,114.06,29.67,4,347.58,24 / 24,1108,2020-01-08 16:21:16:084,0.1661,-2.5294,10.1526,0.0032,0.0322,9.8066,0.0767,0.0431,-0.0754,-9.87,1.38,-6.44,228.46,-85.4,169.04
52.285957,-2.119614,114.06,29.67,4,347.58,24 / 24,1207,2020-01-08 16:21:16:183,0.1849,0.3357,9.3222,-0.0151,-0.0344,9.8065,-0.1048,0.0419,0.1341,-15.87,2.81,-10.81,222.63,-85.56,166.58
52.285957,-2.119614,114.06,29.67,4,347.58,24 / 24,1308,2020-01-08 16:21:16:284,0.3332,-2.729,10.4026,-0.0403,0.0019,9.8065,0.0139,-0.0613,-0.0637,-17.94,-1.94,-12.31,221.71,-85.65,165.59
52.285957,-2.119614,114.06,29.67,4,347.58,24 / 24,1407,2020-01-08 16:21:16:383,-1.475,0.755,10.2567,-0.042,-0.016,9.8065,-0.0832,-0.0001,-0.0447,-16.12,-7.87,-10.62,221.42,-85.45,167.08
52.285957,-2.119614,114.06,29.67,4,347.58,24 / 24,1508,2020-01-08 16:21:16:484,1.5206,-1.0797,12.1055,-0.0446,-0.0001,9.8065,-0.0311,-0.5647,0.2948,-10.81,-6.75,-4.12,232.07,-85.53,164.08
52.285957,-2.119614,114.06,29.67,4,347.58,24 / 24,1608,2020-01-08 16:21:16:584,0.8485,-4.8907,8.8604,-0.0158,-0.0778,9.8063,0.0653,-0.5673,0.3628,-8.75,-1.75,-1.5,243.18,-85.37,160.36
52.285957,-2.119614,114.06,29.67,4,347.58,24 / 24,1708,2020-01-08 16:21:16:684,-1.4081,-2.4591,9.7755,-0.0495,-0.0068,9.8065,0.0057,-0.5198,0.1922,-9.5,3.56,1.13,259.65,-85.68,161.4
52.285957,-2.119614,114.06,29.67,4,347.58,24 / 24,1808,2020-01-08 16:21:16:784,-2.5211,-3.7139,10.4298,-0.0217,-0.1003,9.8061,0.0354,-0.38,0.1732,-14.69,16.94,6.5,285.36,-85.65,166.07
52.285957,-2.119614,114.06,29.67,4,347.58,24 / 24,1908,2020-01-08 16:21:16:884,2.6145,8.3773,12.8044,-0.0354,-0.0242,9.8065,0.238,-0.3718,0.1017,-18.19,34.69,4.25,271.94,-85.72,161.26
52.285957,-2.119614,114.06,29.67,4,347.58,24 / 24,2008,2020-01-08 16:21:16:984,1.1515,-1.9229,9.906,0.1252,-0.0378,9.8058,0.3535,-0.0142,-0.2109,-23.37,43.88,-22.44,203.17,-85.49,154.38
52.285957,-2.119614,114.06,29.67,4,347.58,24 / 24,2108,2020-01-08 16:21:17:084,-15.217,9.8398,8.5941,0.2609,0.0147,9.8031,-0.4692,1.2786,-0.7103,-16.37,-12.19,-37.87,189.34,-85.12,166.7
52.285957,-2.119614,114.06,29.67,4,347.58,24 / 24,2208,2020-01-08 16:21:17:184,1.2872,-4.5048,4.7639,0.0343,-0.1762,9.8049,-0.0937,1.6611,-1.0617,-9.12,-26.5,-26.94,181.13,-85.04,162.78
52.285957,-2.119614,114.06,29.67,4,347.58,24 / 24,2307,2020-01-08 16:21:17:283,-8.7602,2.6407,11.9105,0.1928,-0.1558,9.8035,0.3854,1.1012,-0.8509,-3.62,-30.5,-22.25,181.38,-85.91,171.2
52.285957,-2.119614,114.06,29.67,4,347.58,24 / 24,2408,2020-01-08 16:21:17:384,2.3592,-0.0864,9.8739,-0.0259,0.0166,9.8065,0.2425,0.8456,-0.5328,-1.81,-33.44,-19,173.57,-85.53,166.72
52.285957,-2.119614,114.06,29.67,4,347.58,24 / 24,2508,2020-01-08 16:21:17:484,4.7763,-0.6867,11.9479,0.0513,-0.0214,9.8064,0.2438,0.1022,-0.1785,-0.31,-33.81,-16.69,173.27,-85.53,172.24
52.285957,-2.119614,114.06,29.67,4,347.58,24 / 24,2607,2020-01-08 16:21:17:583,1.6753,-1.2532,6.464,-0.0739,0.0154,9.8063,0.3707,-0.3783,0.1374,-0.56,-34.37,-15.94,177.78,-85.41,173.84
52.285957,-2.119614,114.06,29.67,4,347.58,24 / 24,2708,2020-01-08 16:21:17:684,6.6115,-0.7277,8.5963,-0.0417,-0.0691,9.8063,0.056,-0.7686,0.2768,-0.31,-35.06,-14.75,172.38,-85.44,171
52.285957,-2.119614,114.06,29.67,4,347.58,24 / 24,2808,2020-01-08 16:21:17:784,1.9735,0.5142,10.5236,0.0188,0.0541,9.8064,-0.073,-0.3505,0.2634,-0.19,-35.25,-13.62,174.67,-85.42,173.62
52.285957,-2.119614,114.06,29.67,4,347.58,24 / 24,2908,2020-01-08 16:21:17:884,0.5579,-0.8374,7.7785,-0.0642,0.0116,9.8064,-0.1299,-0.2459,0.2737,-0.56,-35.37,-13.94,175.98,-85.56,171.13
52.285957,-2.119614,114.06,29.67,4,347.58,23 / 24,3008,2020-01-08 16:21:17:984,-0.9702,-0.1679,10.2821,0.0152,0.0242,9.8065,-0.0147,-0.2473,0.097,0.31,-35.5,-14.12,174.59,-85.83,173.62
52.285957,-2.119614,114.06,29.67,4,347.58,23 / 24,3107,2020-01-08 16:21:18:083,1.0862,-1.9408,9.663,-0.0159,-0.0002,9.8066,0.036,-0.334,0.1777,-0.69,-35.87,-13.81,179.41,-85.67,175.21
52.285957,-2.119614,114.06,29.67,4,347.58,23 / 24,3208,2020-01-08 16:21:18:184,3.8191,0.3415,12.499,0.0245,0.0706,9.8063,-0.1518,0.1085,-0.0261,-0.25,-35.81,-13.5,176.83,-85.72,176.19
52.285957,-2.119614,114.06,29.67,4,347.58,23 / 24,3308,2020-01-08 16:21:18:284,2.9314,-0.104,10.526,-0.0222,0.0013,9.8066,-0.0313,0.1695,-0.1131,0.13,-36.19,-12.81,176.24,-85.62,175.46
52.285957,-2.119614,114.06,29.67,4,347.58,23 / 24,3408,2020-01-08 16:21:18:384,2.3721,-0.2858,9.5165,0.0265,0.0309,9.8066,-0.057,0.4354,-0.2587,0.13,-35.69,-12.62,174.63,-85.65,173.52
52.285957,-2.119614,114.06,29.67,4,347.58,23 / 24,3508,2020-01-08 16:21:18:484,-3.9021,-0.415,9.8065,-0.0546,0.0324,9.8064,0.1067,0.5296,-0.317,0.88,-35.75,-13.25,168.31,-85.8,170.39
52.285957,-2.119614,114.06,29.67,4,347.58,23 / 24,3608,2020-01-08 16:21:18:584,2.6909,-1.4162,9.0878,-0.0652,0.0261,9.8064,0.0849,0.3648,-0.196,1.06,-35.75,-13.12,165.61,-85.36,166.87
52.285957,-2.119614,114.06,29.67,4,347.58,23 / 24,3707,2020-01-08 16:21:18:683,-1.954,1.0072,11.3602,-0.0064,-0.0116,9.8066,0.0611,0.3247,-0.1756,1,-35.56,-13.62,166.54,-85.55,168.01
52.285957,-2.119614,114.06,29.67,4,347.58,23 / 24,3807,2020-01-08 16:21:18:783,5.6055,-0.8053,9.9885,-0.0796,0.0153,9.8062,-0.015,0.1951,-0.1177,1,-36.19,-13.12,165.5,-85.48,166.82
52.285957,-2.119614,114.06,29.67,4,347.58,23 / 24,3908,2020-01-08 16:21:18:884,-2.4949,0.5499,10.1894,-0.0083,0.015,9.8066,0.0729,-0.0719,-0.0487,1.38,-35.12,-12.75,166.21,-85.56,167.81
52.288258,-2.120626,115.92,27.68,4,346.19,23 / 23,4008,2020-01-08 16:21:18:984,-0.8387,-2.9107,7.9245,-0.0431,0.0179,9.8065,0.2418,-0.0846,0.0461,0.94,-35.44,-12.94,163.87,-85.41,164.9
52.288258,-2.120626,115.92,27.68,4,346.19,23 / 23,4108,2020-01-08 16:21:19:084,-2.9883,0.7424,9.5639,0.0096,0.0557,9.8065,0.2332,-0.2018,-0.0091,1.06,-35.81,-12.75,164.57,-85.72,165.87
52.288258,-2.120626,115.92,27.68,4,346.19,23 / 23,4208,2020-01-08 16:21:19:184,0.611,-3.6055,7.674,-0.0122,0.0819,9.8063,0.2016,-0.1827,0.1026,1.44,-35.62,-13,167.44,-85.45,169.15
52.288258,-2.120626,115.92,27.68,4,346.19,23 / 23,4307,2020-01-08 16:21:19:283,1.6657,0.8087,12.0848,0.0189,0.0474,9.8065,0.2219,-0.2003,0.1161,1.94,-35.69,-13.12,165.5,-85.46,171.17
52.288258,-2.120626,115.92,27.68,4,346.19,23 / 23,4408,2020-01-08 16:21:19:384,-0.9573,-0.2885,9.2156,-0.0302,0.0573,9.8064,0.215,-0.0193,-0.073,1.69,-36.06,-13.25,163.79,-85.63,169.24
52.288258,-2.120626,115.92,27.68,4,346.19,23 / 23,4508,2020-01-08 16:21:19:484,1.7672,2.2296,11.3869,-0.0264,0.0619,9.8063,0.2413,0.1325,-0.1262,2.19,-35.31,-13.19,166.3,-85.95,172.52
52.288258,-2.120626,115.92,27.68,4,346.19,23 / 23,4608,2020-01-08 16:21:19:584,0.7571,-2.9794,8.6097,0.0128,0.0835,9.8062,0.0537,0.1933,-0.2501,1.75,-35.25,-12.87,168.06,-85.55,174.4
52.288258,-2.120626,115.92,27.68,4,346.19,23 / 23,4707,2020-01-08 16:21:19:683,6.8824,0.1859,12.2981,-0.0034,-0.0218,9.8066,-0.255,0.2453,-0.2678,2.06,-35.5,-12.62,166.33,-85.63,172.37
52.288258,-2.120626,115.92,27.68,4,346.19,23 / 23,4808,2020-01-08 16:21:19:784,-1.5733,0.7099,9.9782,0.1346,-0.0021,9.8057,-0.1331,0.3354,-0.2068,2.31,-35.62,-12.56,168.84,-85.8,175.4
52.288258,-2.120626,115.92,27.68,4,346.19,23 / 23,4908,2020-01-08 16:21:19:884,1.4235,0.8375,9.9707,-0.0244,-0.0147,9.8065,-0.1726,0.2694,-0.2144,1.75,-35.5,-12.75,167.56,-85.92,174
52.288258,-2.120626,115.92,27.68,4,346.19,23 / 23,5008,2020-01-08 16:21:19:984,2.0776,-0.7382,8.7714,0.0202,-0.0102,9.8066,-0.0035,0.2583,0.0261,2,-35.75,-12.37,166.88,-86.19,173.81
52.288258,-2.120626,115.92,27.68,4,346.19,23 / 23,5108,2020-01-08 16:21:20:084,0.8017,-0.0708,9.3075,-0.0209,0.0123,9.8065,0.0643,0.0516,0.0775,1.31,-35.5,-12.62,172.11,-86.21,175.12
52.288258,-2.120626,115.92,27.68,4,346.19,23 / 23,5208,2020-01-08 16:21:20:184,2.4386,0.2213,10.7313,-0.0553,-0.0066,9.8064,0.1078,-0.2739,-0.0136,1.31,-35.37,-13,167.5,-85.96,169.58
52.288258,-2.120626,115.92,27.68,4,346.19,23 / 23,5307,2020-01-08 16:21:20:283,1.4037,0.2113,10.4749,0.011,0.0184,9.8066,0.0156,0.0515,0.1559,2.38,-35.5,-12.56,163.64,-85.91,169.36
52.288258,-2.120626,115.92,27.68,4,346.19,23 / 23,5408,2020-01-08 16:21:20:384,2.9475,-0.2695,10.3531,-0.0061,-0.0098,9.8066,-0.0625,-0.2363,0.1699,1.38,-35.75,-13.37,167.29,-85.84,169.2
52.288258,-2.120626,115.92,27.68,4,346.19,23 / 23,5507,2020-01-08 16:21:20:483,1.0428,0.5872,10.2292,0.022,0.0196,9.8066,-0.0614,-0.0228,0.0804,1.69,-36,-12.75,166.17,-85.92,172.28
52.288258,-2.120626,115.92,27.68,4,346.19,23 / 23,5608,2020-01-08 16:21:20:584,2.0359,-0.2301,9.2535,0.0023,-0.0188,9.8066,-0.1,-0.3138,0.1977,0.69,-35.56,-12.56,168.82,-85.91,171.07
52.288258,-2.120626,115.92,27.68,4,346.19,23 / 23,5708,2020-01-08 16:21:20:684,1.7812,0.2418,10.4987,0.0245,-0.007,9.8065,-0.0312,-0.0746,-0.0016,0.5,-36.12,-12.25,170.01,-86.05,172.75
52.288258,-2.120626,115.92,27.68,4,346.19,23 / 23,5808,2020-01-08 16:21:20:784,0.604,0.9665,9.9408,-0.0212,0.0017,9.8066,-0.0663,0.0629,0.1333,0.94,-35.81,-12.62,171.19,-86.22,174.01
52.288258,-2.120626,115.92,27.68,4,346.19,24 / 24,5908,2020-01-08 16:21:20:884,2.2702,-1.8922,8.7782,0.0124,-0.0537,9.8064,-0.106,-0.0493,-0.3027,0.31,-35.5,-12.44,175.93,-86.4,175.19
52.288258,-2.120626,115.92,27.68,4,346.19,24 / 24,6008,2020-01-08 16:21:20:984,0.7425,-0.4598,7.6678,-0.0629,0.0331,9.8063,-0.1523,0.1334,-0.3309,0.94,-35.69,-12.5,169.5,-86.44,172.35
52.288258,-2.120626,115.92,27.68,4,346.19,24 / 24,6107,2020-01-08 16:21:21:083,1.6603,1.4313,10.9226,-0.0468,-0.046,9.8064,-0.1522,0.1385,0.0338,1.31,-36.31,-12.69,167.57,-86.46,169.88
52.288258,-2.120626,115.92,27.68,4,346.19,24 / 24,6208,2020-01-08 16:21:21:184,1.3017,1.0015,9.4734,0.0186,-0.0081,9.8065,-0.1168,0.0646,0.0481,0.5,-36.31,-12.5,170.45,-86.49,173.49
52.288258,-2.120626,115.92,27.68,4,346.19,24 / 24,6307,2020-01-08 16:21:21:283,1.1216,1.7212,10.6177,-0.0324,-0.0058,9.8065,-0.1157,-0.1198,-0.1398,0.44,-36.06,-12.94,172.44,-86.6,171.22
52.288258,-2.120626,115.92,27.68,4,346.19,24 / 24,6407,2020-01-08 16:21:21:383,0.3331,-1.6964,8.2979,-0.0401,-0.0089,9.8065,-0.1404,0.0031,-0.068,1.19,-36.56,-12.56,166.88,-86.33,168.95
52.288258,-2.120626,115.92,27.68,4,346.19,24 / 24,6508,2020-01-08 16:21:21:484,1.1023,0.339,9.8583,0.0034,-0.0528,9.8065,-0.0246,0.1515,-0.1392,0.69,-36.31,-12.44,163.07,-86.32,164.66
52.288258,-2.120626,115.92,27.68,4,346.19,24 / 24,6608,2020-01-08 16:21:21:584,0.1686,-1.7506,8.2985,-0.0157,-0.0475,9.8064,-0.2448,0.0226,-0.0869,1.19,-36.56,-12.37,165.77,-86.56,167.96
52.288258,-2.120626,115.92,27.68,4,346.19,24 / 24,6707,2020-01-08 16:21:21:683,3.5438,-3.5935,8.6391,0.0319,-0.1153,9.8059,0.0184,0.2387,-0.2014,0.94,-35.87,-12.44,164.61,-87.15,167.13
52.288258,-2.120626,115.92,27.68,4,346.19,24 / 24,6808,2020-01-08 16:21:21:784,-2.5911,1.1038,13.3201,-0.024,0.0763,9.8063,0.4816,0.3702,-0.3454,1.06,-36.62,-12.75,163.29,-86.78,165.08
52.288258,-2.120626,115.92,27.68,4,346.19,24 / 24,6910,2020-01-08 16:21:21:886,2.4525,-0.8155,9.2753,-0.0863,0.0819,9.8059,0.111,0.0658,-0.2941,1.25,-36.12,-12.87,161.47,-86.6,162.91
52.288258,-2.120626,115.92,27.68,4,346.19,23 / 23,7009,2020-01-08 16:21:21:985,-0.9874,-1.1459,9.7634,-0.0096,0.0062,9.8066,0.1067,-0.1005,-0.0261,1.88,-36.12,-13,157.78,-86.64,163.08
52.288258,-2.120626,115.92,27.68,4,346.19,23 / 23,7108,2020-01-08 16:21:22:084,-0.0466,-0.6019,10.3075,0.0082,0.0355,9.8065,0.1947,0.1155,-0.0437,1.5,-36.37,-12.75,157.03,-86.66,162.24
52.288258,-2.120626,115.92,27.68,4,346.19,23 / 23,7208,2020-01-08 16:21:22:184,-0.1332,-1.5256,9.8416,-0.008,0.034,9.8065,0.1086,0.08,-0.0579,1.38,-36.25,-13,160.16,-86.96,161.73
52.288258,-2.120626,115.92,27.68,4,346.19,23 / 23,7307,2020-01-08 16:21:22:283,1.7611,-1.6614,9.1867,-0.0099,-0.0159,9.8066,0.058,0.0215,-0.2036,1.5,-36.5,-13.06,157.46,-86.88,162.96
52.288258,-2.120626,115.92,27.68,4,346.19,23 / 23,7407,2020-01-08 16:21:22:383,1.6723,-1.4829,9.5253,0.0104,-0.0252,9.8065,0.052,0.071,-0.0971,0.75,-36.69,-13.06,158.75,-86.9,159.99
52.288258,-2.120626,115.92,27.68,4,346.19,23 / 23,7507,2020-01-08 16:21:22:483,-0.4747,-1.9862,10.4187,0.0044,0.0092,9.8066,0.0832,0.0583,-0.0236,1,-36,-12.56,156.82,-86.9,157.88
52.288258,-2.120626,115.92,27.68,4,346.19,23 / 23,7609,2020-01-08 16:21:22:585,0.0811,-0.5143,10.135,-0.0027,0.0149,9.8066,-0.0283,0.1022,-0.0106,0.88,-36.5,-12.69,155.65,-87.07,156.74
52.288258,-2.120626,115.92,27.68,4,346.19,23 / 23,7708,2020-01-08 16:21:22:684,1.9821,-0.0422,10.2278,-0.0101,0.0236,9.8066,-0.2036,0.0604,-0.0686,1.06,-35.87,-12.94,158.31,-86.99,159.66
52.288258,-2.120626,115.92,27.68,4,346.19,23 / 23,7808,2020-01-08 16:21:22:784,0.618,-3.2112,9.1268,0.0082,-0.0274,9.8065,-0.1176,0.0243,0.0079,1,-36.62,-12.94,160.3,-87.06,161.91
52.288258,-2.120626,115.92,27.68,4,346.19,23 / 23,7908,2020-01-08 16:21:22:884,3.2569,-0.6511,9.0642,-0.0156,0.0159,9.8065,-0.1552,-0.0316,0.1968,0.81,-36.12,-12.87,159.77,-87.06,161.4
52.288258,-2.120626,115.92,27.68,4,346.19,23 / 23,8007,2020-01-08 16:21:22:983,-0.7644,-1.858,9.3656,0.0085,-0.0202,9.8066,-0.0443,-0.1088,0.1708,0.94,-36.56,-13.25,160.67,-87.04,162.32
52.288258,-2.120626,115.92,27.68,4,346.19,23 / 23,8108,2020-01-08 16:21:23:084,-0.3853,1.3806,10.7229,-0.035,-0.0173,9.8065,-0.0877,-0.3781,0.0567,0.88,-36.5,-12.69,159.45,-87.17,161.14
52.288258,-2.120626,115.92,27.68,4,346.19,23 / 23,8208,2020-01-08 16:21:23:184,-1.1812,-0.5741,10.9545,0.0423,-0.0464,9.8064,-0.2232,-0.2492,0.1405,1.25,-36.56,-13,161.12,-87.34,163.1
52.288258,-2.120626,115.92,27.68,4,346.19,23 / 23,8307,2020-01-08 16:21:23:283,-0.4554,-3.3798,9.8384,0.0049,-0.021,9.8065,-0.0894,-0.3185,0.229,0.69,-36.62,-13.31,158.38,-87.24,159.91
52.288258,-2.120626,115.92,27.68,4,346.19,23 / 23,8407,2020-01-08 16:21:23:383,3.5684,-3.4577,8.8178,0.0563,-0.0525,9.8063,-0.0341,-0.2349,0.1427,0.56,-36.75,-12.94,158.7,-87.12,160.15
52.288258,-2.120626,115.92,27.68,4,346.19,23 / 23,8508,2020-01-08 16:21:23:484,1.8379,-3.1558,9.6058,0.013,-0.0212,9.8065,-0.0346,-0.1589,0.0912,0.69,-37.06,-12.94,160.76,-87.38,162.73
52.288258,-2.120626,115.92,27.68,4,346.19,23 / 23,8608,2020-01-08 16:21:23:584,2.6489,-1.178,10.1568,0.0355,-0.019,9.8065,-0.0881,-0.0186,0.0458,0.44,-36.56,-12.87,163,-87.3,160.77
52.288258,-2.120626,115.92,27.68,4,346.19,23 / 23,8708,2020-01-08 16:21:23:684,-0.2752,-0.7041,9.9491,0.0313,-0.0024,9.8066,-0.0325,0.0026,-0.0622,0.88,-36.5,-12.56,162.5,-87.4,164.75
52.288258,-2.120626,115.92,27.68,4,346.19,23 / 23,8808,2020-01-08 16:21:23:784,2.4684,-2.0858,8.8629,0.0364,-0.0479,9.8064,-0.0459,-0.0805,-0.0611,0.88,-36.06,-13.5,159.88,-87.36,161.8
52.288258,-2.120626,115.92,27.68,4,346.19,23 / 23,8908,2020-01-08 16:21:23:884,1.8783,0.2622,11.4081,0.0007,-0.0462,9.8065,0.2303,-0.0364,0.0272,0.75,-36.75,-12.94,157.98,-87.64,159.89
52.288258,-2.120626,115.92,27.68,4,346.19,23 / 23,9007,2020-01-08 16:21:23:983,3.9114,-2.9529,8.1427,0.0207,-0.0088,9.8066,0.2092,0.0186,-0.103,-0.06,-36.87,-12.81,162.78,-87.39,160.59
52.288258,-2.120626,115.92,27.68,4,346.19,23 / 23,9108,2020-01-08 16:21:24:084,-1.2091,-0.1476,10.2273,0.063,-0.0652,9.8062,0.1624,0.3419,-0.3326,0.75,-36.25,-13.25,161.45,-87.72,163.85
52.288258,-2.120626,115.92,27.68,4,346.19,23 / 23,9208,2020-01-08 16:21:24:184,-1.6439,0.0248,10.9959,0.0302,-0.0402,9.8065,0.0989,0.4519,-0.2916,0.31,-36.37,-12.81,161.89,-87.75,159.97
52.288258,-2.120626,115.92,27.68,4,346.19,23 / 23,9308,2020-01-08 16:21:24:284,-2.5453,0.1985,10.728,0.0152,-0.0298,9.8065,0.0435,0.3294,-0.2746,0.75,-36.44,-12.69,160.21,-87.8,162.56
52.288258,-2.120626,115.92,27.68,4,346.19,23 / 23,9408,2020-01-08 16:21:24:384,2.7546,0.2202,11.2853,-0.0124,0.0382,9.8065,-0.1089,0.1357,-0.1978,0.69,-36.31,-13.37,158.28,-87.72,160.36
52.288258,-2.120626,115.92,27.68,4,346.19,23 / 23,9508,2020-01-08 16:21:24:484,1.9312,-1.979,7.9659,0.0379,0.0437,9.8064,-0.2122,0.1933,-0.0749,0.44,-36.31,-13.12,164.72,-87.45,162.87
52.288258,-2.120626,115.92,27.68,4,346.19,23 / 23,9608,2020-01-08 16:21:24:584,3.7245,-2.223,10.2995,-0.0647,-0.0315,9.8063,0.0589,0.1012,0.0148,1.06,-36.75,-12.56,152.94,-87.6,154.27
52.288258,-2.120626,115.92,27.68,4,346.19,23 / 23,9708,2020-01-08 16:21:24:684,-0.4389,0.347,11.2943,0.0325,-0.0163,9.8065,0.1719,0.1101,-0.1592,1.38,-36.12,-12.81,158.53,-87.81,160.73
52.288258,-2.120626,115.92,27.68,4,346.19,23 / 23,9808,2020-01-08 16:21:24:784,1.0621,-0.4215,9.2476,-0.0033,-0.0233,9.8065,0.1437,0.0227,-0.2443,0.25,-35.81,-13.44,158.52,-87.64,156.15
52.288258,-2.120626,115.92,27.68,4,346.19,23 / 23,9908,2020-01-08 16:21:24:884,1.0847,1.5451,11.7622,0.0211,-0.0579,9.8064,0.163,0.0041,-0.104,0.56,-36.25,-12.19,148.03,-87.77,149.29
52.288258,-2.120626,115.92,27.68,4,346.19,23 / 23,10008,2020-01-08 16:21:24:984,0.8212,-0.6204,8.2648,-0.018,0.0153,9.8065,0.0313,-0.0418,0.1146,0.31,-36.25,-13,152.6,-87.64,149.61
52.288258,-2.120626,115.92,27.68,4,346.19,23 / 23,10108,2020-01-08 16:21:25:084,2.8031,-2.5139,8.6399,0.0244,-0.0392,9.8065,-0.0979,-0.0217,0.0961,0.44,-36.25,-12.81,153.88,-87.88,151.31
52.288258,-2.120626,115.92,27.68,4,346.19,23 / 23,10208,2020-01-08 16:21:25:184,2.4438,-2.4335,7.2885,-0.0493,0.0513,9.8064,-0.2346,-0.2785,0.2181,0.25,-36.44,-13.06,151.02,-87.67,147.91
52.288258,-2.120626,115.92,27.68,4,346.19,23 / 23,10309,2020-01-08 16:21:25:285,2.2708,-0.623,9.8707,-0.0209,-0.0161,9.8066,-0.2133,-0.2688,0.3294,0.75,-36.19,-12.75,143.81,-88.04,145.02
52.288258,-2.120626,115.92,27.68,4,346.19,23 / 23,10408,2020-01-08 16:21:25:384,-0.3446,0.8348,11.1704,-0.0409,0.0602,9.8063,-0.1621,-0.0868,0.1056,0.94,-36.25,-12.44,146.29,-88.23,148.12
52.288258,-2.120626,115.92,27.68,4,346.19,23 / 23,10509,2020-01-08 16:21:25:485,-1.0887,-0.845,9.9207,0.035,0.0341,9.8065,-0.1883,-0.0784,0.025,0.69,-36.81,-12.94,152.2,-88.03,154
52.288258,-2.120626,115.92,27.68,4,346.19,23 / 23,10608,2020-01-08 16:21:25:584,-0.5285,-0.2494,10.8871,-0.0266,0.0086,9.8066,-0.0184,-0.3146,0.1932,0.63,-36.56,-13.25,150.99,-88.18,152.9
52.288258,-2.120626,115.92,27.68,4,346.19,23 / 23,10708,2020-01-08 16:21:25:684,2.5906,-1.3735,10.5428,-0.0293,0.0114,9.8066,0.0657,-0.1945,0.1362,0.44,-36.31,-12.94,154.14,-88.15,151.91
52.288258,-2.120626,115.92,27.68,4,346.19,23 / 23,10808,2020-01-08 16:21:25:784,0.6796,-0.7413,10.0688,-0.023,-0.0156,9.8065,0.0563,-0.028,-0.005,-0.19,-36.56,-12.94,152.1,-88.1,149.59
52.288258,-2.120626,115.92,27.68,4,346.19,23 / 23,10908,2020-01-08 16:21:25:884,1.4678,-1.1623,9.8881,-0.0171,-0.0158,9.8066,0.068,-0.0238,-0.056,-0.69,-36.25,-12.94,152.92,-88.04,146.08
52.288258,-2.120626,115.92,27.68,4,346.19,23 / 23,11008,2020-01-08 16:21:25:984,0.8799,-0.9254,9.659,0.0166,-0.0069,9.8066,-0.0397,0.0328,-0.1466,0.25,-36.5,-13.19,145.33,-88.01,142.21
52.288258,-2.120626,115.92,27.68,4,346.19,23 / 23,11108,2020-01-08 16:21:26:084,2.2306,-0.6576,10.2217,-0.043,-0.0363,9.8064,-0.0778,0.2218,-0.1357,-0.56,-36.19,-13.44,143.24,-88.03,135.6
52.288258,-2.120626,115.92,27.68,4,346.19,23 / 23,11208,2020-01-08 16:21:26:184,1.7898,-2.68,8.4453,0.0118,-0.0184,9.8066,-0.0639,-0.0288,0.038,-0.44,-35.94,-13.5,141.42,-88.13,138.21
52.288258,-2.120626,115.92,27.68,4,346.19,23 / 23,11308,2020-01-08 16:21:26:284,-0.0003,-2.4388,9.5802,0.0359,-0.0248,9.8065,-0.1016,-0.007,0.0771,-0.37,-36.69,-14,143.05,-88.42,140.55
52.288258,-2.120626,115.92,27.68,4,346.19,23 / 23,11408,2020-01-08 16:21:26:384,1.7641,-0.3232,10.4082,0.0216,0.0035,9.8066,0.0863,-0.1361,-0.0137,-0.5,-36.69,-13.37,150.25,-88.37,147.95
52.288258,-2.120626,115.92,27.68,4,346.19,23 / 23,11508,2020-01-08 16:21:26:484,1.0645,-2.3141,10.6823,-0.0086,0.0022,9.8066,0.1332,-0.177,-0.0084,-0.75,-36.62,-13.62,156.33,-88.18,150.33
52.288258,-2.120626,115.92,27.68,4,346.19,23 / 23,11607,2020-01-08 16:21:26:583,-2.0547,-1.6832,8.7345,-0.0475,-0.0394,9.8064,-0.1039,-0.2002,0.0852,-0.5,-36.69,-13.69,151.94,-88.21,149.72
52.288258,-2.120626,115.92,27.68,4,346.19,23 / 23,11708,2020-01-08 16:21:26:684,-2.795,-3.2592,11.2763,-0.0207,-0.0467,9.8065,-0.221,-0.1414,0.1514,-0.56,-36.25,-13.44,148.06,-88.31,141.21
52.288258,-2.120626,115.92,27.68,4,346.19,23 / 23,11808,2020-01-08 16:21:26:784,0.4083,-2.1647,12.4594,-0.0384,0.092,9.8061,-0.0494,-0.0079,0.0952,-0.56,-36.25,-13.31,144.43,-88.41,137.49
52.288258,-2.120626,115.92,27.68,4,346.19,23 / 23,11908,2020-01-08 16:21:26:884,0.4065,-3.2065,7.8978,-0.0224,0.0676,9.8064,0.1071,0.02,-0.2308,-0.31,-35.94,-13.19,135.93,-87.71,131.54
52.288258,-2.120626,115.92,27.68,4,346.19,23 / 24,12007,2020-01-08 16:21:26:983,-0.0521,-1.5623,9.6855,0.0433,-0.0798,9.8062,0.1507,-0.0386,-0.0854,0.13,-36.12,-12.94,127.8,-88.19,123.84
52.288258,-2.120626,115.92,27.68,4,346.19,23 / 24,12107,2020-01-08 16:21:27:083,0.8564,-1.7982,11.2874,0.0312,0.038,9.8065,0.0056,-0.0412,0.1728,0,-35.87,-12.75,122.28,-88.08,117.79
52.288258,-2.120626,115.92,27.68,4,346.19,23 / 24,12207,2020-01-08 16:21:27:183,1.95,-3.1592,8.2063,-0.039,0.0581,9.8064,-0.2725,-0.2327,0.1003,-0.19,-36.12,-14.06,127.96,-88.05,124.01
52.288258,-2.120626,115.92,27.68,4,346.19,23 / 24,12308,2020-01-08 16:21:27:284,2.0066,-2.7634,11.6965,0.025,-0.0186,9.8065,-0.2257,0.0482,-0.0028,-1.06,-36.81,-13.44,130.67,-88.21,122.43
52.288258,-2.120626,115.92,27.68,4,346.19,23 / 24,12407,2020-01-08 16:21:27:383,-1.91,-1.451,10.605,0.0403,0.0337,9.8065,-0.2652,0.1021,-0.122,-0.31,-36,-13.87,129.63,-88.32,126.31
52.288258,-2.120626,115.92,27.68,4,346.19,23 / 24,12508,2020-01-08 16:21:27:484,0.9431,-2.8045,10.7501,0.0105,-0.0416,9.8065,-0.0278,0.1253,-0.0785,-0.44,-36.37,-13.94,122.28,-88.18,118.32
52.288258,-2.120626,115.92,27.68,4,346.19,23 / 24,12607,2020-01-08 16:21:27:583,-0.8699,-2.942,10.0423,0.0126,0.0079,9.8066,-0.0294,0.0803,-0.1248,-0.19,-37.06,-13.62,124.91,-88.06,120.72
52.288258,-2.120626,115.92,27.68,4,346.19,23 / 24,12708,2020-01-08 16:21:27:684,1.4287,-1.8338,10.9064,-0.0009,0.002,9.8066,-0.1697,0.4984,-0.1603,0.06,-36.44,-13.56,119.82,-88.03,115.43
52.288258,-2.120626,115.92,27.68,4,346.19,23 / 24,12807,2020-01-08 16:21:27:783,-3.8991,0.0666,8.6786,0.0627,0.0558,9.8062,-0.2417,0.4571,-0.2556,0.19,-36.06,-13.44,126.08,-88.15,121.96
52.288258,-2.120626,115.92,27.68,4,346.19,23 / 23,12908,2020-01-08 16:21:27:884,5.2884,0.0944,11.9349,0.0023,-0.0029,9.8066,-0.1208,0.3342,-0.1797,-0.62,-36.31,-13.25,130.27,-88.07,121.83
52.290215,-2.121283,116.74,17.62,4,354.06,23 / 23,13007,2020-01-08 16:21:27:983,3.0868,1.5252,12.0263,0.0385,0.0375,9.8064,0.1247,0.1503,-0.071,-0.75,-36,-13.75,126.03,-88.01,117.82
52.290215,-2.121283,116.74,17.62,4,354.06,23 / 23,13108,2020-01-08 16:21:28:084,2.8981,-0.8592,10.3344,-0.03,0.0435,9.8064,0.2704,0.0218,-0.1078,-1,-36.81,-13.06,134.67,-87.86,125.96
52.290215,-2.121283,116.74,17.62,4,354.06,23 / 23,13208,2020-01-08 16:21:28:184,-0.8523,1.9307,11.8727,0.0069,0.0196,9.8065,0.2619,0.0599,-0.121,-0.44,-36.25,-13.06,129.76,-88.1,125.72
52.290215,-2.121283,116.74,17.62,4,354.06,23 / 23,13307,2020-01-08 16:21:28:283,0.0096,0.5591,10.4412,-0.0357,0.0526,9.8064,0.0012,0.1296,-0.0128,-0.19,-36.37,-13.31,134.44,-87.9,130.31
52.290215,-2.121283,116.74,17.62,4,354.06,23 / 23,13408,2020-01-08 16:21:28:384,-2.2753,1.4744,10.6271,0.0126,-0.0093,9.8066,-0.0178,0.1317,-0.0754,-0.19,-36.12,-13.62,129.18,-88.15,125.51
52.290215,-2.121283,116.74,17.62,4,354.06,23 / 23,13507,2020-01-08 16:21:28:483,2.9021,-0.734,9.1629,-0.0518,0.0289,9.8064,0.0935,0.1188,-0.1259,-0.31,-36.56,-13.12,130.72,-87.95,126.31
52.290215,-2.121283,116.74,17.62,4,354.06,23 / 23,13608,2020-01-08 16:21:28:584,0.1241,0.9133,9.9489,-0.008,0.0048,9.8066,0.0712,0.1426,-0.1058,-0.62,-36,-13.62,134.12,-88.13,126.6
52.290215,-2.121283,116.74,17.62,4,354.06,23 / 23,13708,2020-01-08 16:21:28:684,2.9568,-0.8812,8.6762,-0.0467,0.0068,9.8065,-0.1244,-0.1243,0.0361,-0.56,-36.44,-12.5,134.12,-87.99,125.05
52.290215,-2.121283,116.74,17.62,4,354.06,23 / 23,13808,2020-01-08 16:21:28:784,1.2928,0.3711,9.3773,0.0247,-0.0334,9.8065,-0.088,-0.2476,0.1042,-1.12,-36.25,-13.25,135.05,-87.97,126.71
52.290215,-2.121283,116.74,17.62,4,354.06,23 / 23,13907,2020-01-08 16:21:28:883,-1.4919,0.4338,9.4245,0.0176,-0.0279,9.8065,-0.0019,-0.1796,0.138,-0.25,-36.31,-13,126.96,-88.2,122.98
52.290215,-2.121283,116.74,17.62,4,354.06,23 / 23,14008,2020-01-08 16:21:28:984,1.6152,0.0417,10.4566,0.0082,-0.0183,9.8066,-0.0304,-0.1705,0.0282,-0.5,-36.87,-13.37,124.45,-88.23,120.29
52.290215,-2.121283,116.74,17.62,4,354.06,23 / 23,14108,2020-01-08 16:21:29:084,0.3624,0.4921,9.5956,0.0213,0.0066,9.8066,-0.1409,-0.009,0.0231,-0.37,-36.44,-13.62,125.8,-88.17,121.99
52.290215,-2.121283,116.74,17.62,4,354.06,23 / 23,14208,2020-01-08 16:21:29:184,0.433,0.5543,9.0455,0.0191,-0.0268,9.8065,-0.216,-0.0015,0.1362,-0.75,-36.37,-13.56,130.31,-87.99,122.3
52.290215,-2.121283,116.74,17.62,4,354.06,23 / 23,14308,2020-01-08 16:21:29:284,3.0505,-1.5503,7.8667,-0.0245,0.0117,9.8066,-0.1981,0.0258,0.1664,-1.25,-36.06,-13.87,127.58,-88.08,119.6
52.290215,-2.121283,116.74,17.62,4,354.06,23 / 23,14407,2020-01-08 16:21:29:383,-2.4153,0.4521,10.069,0.0105,-0.045,9.8065,-0.2119,-0.1813,0.1482,-0.69,-36.81,-14.12,128.84,-88.32,121.31
52.290215,-2.121283,116.74,17.62,4,354.06,23 / 23,14508,2020-01-08 16:21:29:484,-0.5718,1.6326,11.3773,-0.0293,-0.0073,9.8065,-0.1419,-0.4414,0.2154,-1.25,-36.12,-13.37,125.39,-88.57,117.77
52.290215,-2.121283,116.74,17.62,4,354.06,23 / 23,14608,2020-01-08 16:21:29:584,-2.1351,-0.1185,9.1601,0.0607,-0.0548,9.8062,-0.0533,-0.537,0.276,-0.5,-36.5,-13.69,118.62,-88.98,116.32
52.290215,-2.121283,116.74,17.62,4,354.06,23 / 23,14708,2020-01-08 16:21:29:684,-1.0927,2.3681,11.547,-0.0158,-0.0577,9.8065,0.1914,-0.3478,0.1894,-1.31,-35.37,-13.37,115.7,-88.64,108.02
52.290215,-2.121283,116.74,17.62,4,354.06,23 / 23,14807,2020-01-08 16:21:29:783,2.5215,2.1101,11.3351,0.029,0.0672,9.8063,0.2314,-0.2149,0.0407,-0.19,-36.06,-13.31,114.18,-88.48,110.33
52.290215,-2.121283,116.74,17.62,4,354.06,23 / 24,14908,2020-01-08 16:21:29:884,0.4837,1.2635,8.9111,0.0323,-0.0029,9.8065,0.0677,-0.0051,-0.0423,-0.56,-35.94,-13.19,128.29,-88.5,120.65
52.290215,-2.121283,116.74,17.62,4,354.06,23 / 24,15008,2020-01-08 16:21:29:984,1.7427,-0.4859,9.5931,0.0215,0.0085,9.8066,0.0304,0.0848,-0.0523,-0.69,-36.44,-13.25,120.46,-88.49,112.48
52.290215,-2.121283,116.74,17.62,4,354.06,23 / 24,15107,2020-01-08 16:21:30:083,-2.9667,0.4569,9.511,0.0417,0.0015,9.8065,0.033,0.2708,-0.2082,-0.19,-36.44,-13.44,118.81,-88.6,115.43
52.290215,-2.121283,116.74,17.62,4,354.06,23 / 24,15208,2020-01-08 16:21:30:184,-0.0255,0.8223,10.362,-0.0108,0.0115,9.8066,-0.0647,0.3658,-0.3004,-0.44,-36,-13.5,115.83,-88.45,111.97
52.290215,-2.121283,116.74,17.62,4,354.06,23 / 24,15307,2020-01-08 16:21:30:283,-2.9683,0.8653,9.2431,0.0396,0.0004,9.8065,-0.027,0.3992,-0.2033,-0.62,-36.19,-13.25,118.56,-88.52,110.57
52.290215,-2.121283,116.74,17.62,4,354.06,23 / 24,15409,2020-01-08 16:21:30:385,0.782,0.9411,9.8649,-0.0327,-0.0034,9.8065,-0.0679,0.3129,-0.2161,-0.56,-36.56,-13.5,115.09,-88.6,107.1
52.290215,-2.121283,116.74,17.62,4,354.06,23 / 24,15508,2020-01-08 16:21:30:484,2.9233,0.7507,9.6899,0.0163,-0.0108,9.8065,-0.0022,0.1443,-0.0768,-0.44,-36.75,-13.44,103.77,-88.69,100.16
52.290215,-2.121283,116.74,17.62,4,354.06,23 / 24,15608,2020-01-08 16:21:30:584,1.1146,-1.0822,9.4155,-0.0291,-0.0081,9.8066,0.0308,0.0154,-0.0481,-0.75,-37.12,-13.62,110.28,-88.82,103.29
52.290215,-2.121283,116.74,17.62,4,354.06,23 / 24,15711,2020-01-08 16:21:30:687,1.4579,1.7996,10.9162,0.0047,-0.0366,9.8066,0.1697,-0.0399,-0.0397,-1.06,-36.37,-13.37,101.59,-88.89,94.19
52.290215,-2.121283,116.74,17.62,4,354.06,23 / 24,15808,2020-01-08 16:21:30:784,1.6229,0.491,9.3076,0.0126,-0.0216,9.8065,0.1438,-0.162,-0.0487,-1.44,-36.37,-13.19,112.78,-88.86,105.49
52.290215,-2.121283,116.74,17.62,4,354.06,23 / 24,15908,2020-01-08 16:21:30:884,1.8187,1.4315,10.767,0.0068,-0.0334,9.8065,0.1385,-0.0636,-0.0591,-0.87,-35.87,-13.44,109.38,-88.88,102.07
52.290215,-2.121283,116.74,17.62,4,354.06,24 / 24,16007,2020-01-08 16:21:30:983,1.7571,1.3727,10.6638,0.0344,0.0332,9.8065,-0.1265,0.0915,-0.05,-0.69,-36.12,-13.12,112.1,-88.7,104.38
52.290215,-2.121283,116.74,17.62,4,354.06,24 / 24,16108,2020-01-08 16:21:31:084,-0.9847,0.7198,8.7772,0.0128,0.038,9.8066,-0.1684,0.0896,-0.0326,-1,-36.19,-13.31,122.38,-88.72,115
52.290215,-2.121283,116.74,17.62,4,354.06,24 / 24,16208,2020-01-08 16:21:31:184,1.0868,1.7103,9.8501,0.025,0.0083,9.8066,-0.1238,0.1858,-0.0997,-0.81,-36.81,-13.31,121.03,-88.86,113.86
52.290215,-2.121283,116.74,17.62,4,354.06,24 / 24,16308,2020-01-08 16:21:31:284,-0.79,1.8854,8.5834,0.0257,0.0032,9.8065,-0.0733,0.169,-0.0756,-0.81,-36.12,-13.12,115.4,-88.91,108.29
52.290215,-2.121283,116.74,17.62,4,354.06,24 / 24,16408,2020-01-08 16:21:31:384,0.9765,1.6301,9.4128,-0.0005,-0.0023,9.8066,-0.0718,0.1053,-0.132,-0.75,-36.44,-13.5,114.52,-88.88,107.32
52.290215,-2.121283,116.74,17.62,4,354.06,24 / 24,16508,2020-01-08 16:21:31:484,-1.1209,0.1109,8.5255,0.0198,0.0224,9.8065,0.0378,0.0312,-0.0917,-0.87,-36.81,-13.12,120.06,-88.77,112.63
52.290215,-2.121283,116.74,17.62,4,354.06,24 / 24,16608,2020-01-08 16:21:31:584,0.9966,0.3236,8.0544,-0.0022,-0.0684,9.8064,0.2643,0.0138,-0.1195,-1.5,-36.31,-13.69,121.96,-88.57,114.77
52.290215,-2.121283,116.74,17.62,4,354.06,24 / 24,16708,2020-01-08 16:21:31:684,-0.9338,2.5793,11.4061,0.0151,-0.0701,9.8063,0.2924,0.1086,-0.1557,-0.75,-36.12,-13.62,108.15,-88.69,100.86
52.290215,-2.121283,116.74,17.62,4,354.06,24 / 24,16808,2020-01-08 16:21:31:784,0.7516,1.0694,8.7443,0.0411,0.0044,9.8066,-0.0694,0.1748,-0.185,-1,-35.81,-13.37,112.16,-88.75,104.55
52.290215,-2.121283,116.74,17.62,4,354.06,24 / 24,16908,2020-01-08 16:21:31:884,-1.2395,1.4653,9.7806,0.0145,-0.0069,9.8066,-0.1001,0.1372,-0.0806,-0.87,-36.06,-13.12,110.34,-88.63,102.41
52.290215,-2.121283,116.74,17.62,4,354.06,23 / 23,17008,2020-01-08 16:21:31:984,0.0618,2.8146,10.7793,-0.0223,0.0424,9.8065,-0.1149,0.0087,0.0694,-1.25,-36.25,-13.37,109.8,-88.67,101.96
52.290215,-2.121283,116.74,17.62,4,354.06,23 / 23,17108,2020-01-08 16:21:32:084,0.1101,1.6692,9.4842,0.0374,-0.0191,9.8065,-0.0476,0.069,-0.0154,-0.69,-36.06,-13,111.34,-88.68,103.56
52.290215,-2.121283,116.74,17.62,4,354.06,23 / 23,17209,2020-01-08 16:21:32:185,-0.1337,1.0478,10.1355,0.0242,-0.0158,9.8066,0.0737,0.1159,-0.1464,-0.87,-36.69,-12.94,109.5,-88.67,101.55
52.290215,-2.121283,116.74,17.62,4,354.06,23 / 23,17307,2020-01-08 16:21:32:283,-0.2338,0.5749,10.0576,0.0139,-0.0044,9.8066,0.0188,0.1919,-0.2367,-1.37,-35.75,-13.19,112.07,-88.58,104.05
52.290215,-2.121283,116.74,17.62,4,354.06,23 / 23,17407,2020-01-08 16:21:32:383,2.8685,1.1461,10.623,0.0411,0.0081,9.8065,-0.0728,0.244,-0.1995,-1.06,-36,-13.12,112.64,-88.47,104.34
52.290215,-2.121283,116.74,17.62,4,354.06,23 / 23,17508,2020-01-08 16:21:32:484,2.4583,1.3285,9.3671,-0.0174,0.0131,9.8065,-0.1623,0.1799,-0.1402,-0.56,-36.19,-13.75,111.2,-88.54,103.63
52.290215,-2.121283,116.74,17.62,4,354.06,23 / 23,17608,2020-01-08 16:21:32:584,1.8604,1.3454,10.7679,0.0337,0.0286,9.8065,-0.1816,0.0383,-0.1049,-0.81,-35.44,-13.25,107.86,-88.58,99.84
52.290215,-2.121283,116.74,17.62,4,354.06,23 / 23,17708,2020-01-08 16:21:32:684,0.9982,-0.6952,8.8175,0.0039,0.0085,9.8065,-0.1426,-0.0938,0.1034,-0.94,-36.12,-13,107.64,-88.72,99.87
52.290215,-2.121283,116.74,17.62,4,354.06,23 / 23,17808,2020-01-08 16:21:32:784,3.264,1.6026,10.3029,-0.0226,0.0579,9.8064,-0.0781,-0.2879,0.1988,-0.94,-36.44,-13.19,115.35,-88.73,107.78
52.290215,-2.121283,116.74,17.62,4,354.06,23 / 23,17907,2020-01-08 16:21:32:883,0.9598,-0.4053,8.2484,0.0114,0.045,9.8065,0.0118,-0.374,0.0861,-0.81,-36.12,-13.25,114.46,-88.82,107.11
52.290215,-2.121283,116.74,17.62,4,354.06,23 / 23,18007,2020-01-08 16:21:32:983,-1.3594,2.0259,10.907,-0.0402,0.0393,9.8065,0.0056,-0.2125,0.1529,-1.19,-35.87,-13.12,105.58,-88.97,98.44
52.290215,-2.121283,116.74,17.62,4,354.06,23 / 23,18108,2020-01-08 16:21:33:084,-0.281,1.6361,9.275,-0.0034,0.0318,9.8066,-0.0248,-0.1986,0.133,-1.25,-35.87,-12.06,113.74,-88.8,105.7
52.290215,-2.121283,116.74,17.62,4,354.06,23 / 23,18207,2020-01-08 16:21:33:183,0.4951,0.7704,10.0552,-0.0151,0.0204,9.8066,-0.0659,-0.0748,0.0708,-0.44,-36.12,-13.12,104.72,-88.9,101.78
52.290215,-2.121283,116.74,17.62,4,354.06,23 / 23,18307,2020-01-08 16:21:33:283,0.9265,2.9125,11.1107,-0.014,-0.0154,9.8066,-0.0546,-0.0258,-0.0378,-1.12,-35.81,-12.94,109.07,-88.72,101.34
52.290215,-2.121283,116.74,17.62,4,354.06,23 / 23,18408,2020-01-08 16:21:33:384,-0.9372,2.7189,8.6211,-0.0031,-0.0454,9.8065,-0.0881,0.0533,-0.1183,-1.37,-36,-13.19,106.09,-88.71,98.25
52.290215,-2.121283,116.74,17.62,4,354.06,23 / 23,18508,2020-01-08 16:21:33:484,2.5081,2.3723,10.6422,-0.0379,-0.0374,9.8065,-0.0687,0.0983,-0.133,-0.94,-35.56,-12.62,105.11,-88.6,96.99
52.290215,-2.121283,116.74,17.62,4,354.06,23 / 23,18608,2020-01-08 16:21:33:584,-0.7003,2.7031,10.0285,-0.0276,0.0072,9.8066,-0.1221,-0.0427,0.0158,-1.44,-34.87,-12.62,105.7,-88.8,98.2
52.290215,-2.121283,116.74,17.62,4,354.06,23 / 23,18708,2020-01-08 16:21:33:684,0.5062,2.0637,9.8888,0.004,-0.0033,9.8066,-0.0526,0.0727,0.0919,-1.25,-35.37,-12.75,109.6,-88.81,102.2
52.290215,-2.121283,116.74,17.62,4,354.06,23 / 23,18808,2020-01-08 16:21:33:784,-1.4648,1.8173,10.2405,0.0136,0.0209,9.8066,0.0154,0.2657,-0.1185,-1.19,-35.5,-12.44,117.19,-88.77,109.24
52.290215,-2.121283,116.74,17.62,4,354.06,23 / 23,18908,2020-01-08 16:21:33:884,2.9972,-0.3685,9.6436,-0.0483,0.0096,9.8065,-0.0063,0.1392,-0.2611,-1.19,-34.94,-12.44,113.1,-88.74,104.96
52.290215,-2.121283,116.74,17.62,4,354.06,23 / 23,19007,2020-01-08 16:21:33:983,-0.6068,2.5013,11.5158,0.0512,-0.0433,9.8064,0.0029,0.1528,-0.1338,-0.87,-34.69,-11.87,110.01,-89.1,102.79
52.290215,-2.121283,116.74,17.62,4,354.06,23 / 23,19108,2020-01-08 16:21:34:084,1.7062,2.4269,10.736,-0.0012,-0.0403,9.8065,-0.0517,0.1242,0.0725,-0.69,-34.5,-12.69,104.44,-88.99,97.49
52.290215,-2.121283,116.74,17.62,4,354.06,23 / 23,19208,2020-01-08 16:21:34:184,1.1508,2.3744,10.672,-0.0145,0.0197,9.8065,0.0716,-0.0454,0.0003,-0.75,-34.06,-12.12,119.44,-88.92,112.01
52.290215,-2.121283,116.74,17.62,4,354.06,23 / 23,19308,2020-01-08 16:21:34:284,-0.2626,1.6191,8.4812,-0.0054,-0.0777,9.8063,0.1693,-0.282,-0.0255,-0.56,-33.5,-12.19,131.15,-88.81,123.95
52.290215,-2.121283,116.74,17.62,4,354.06,23 / 23,19408,2020-01-08 16:21:34:384,2.5441,2.9027,11.3538,-0.0222,-0.0489,9.8065,0.1951,-0.2423,0.1917,-0.62,-33.44,-12.5,113.3,-88.87,105.7
52.290215,-2.121283,116.74,17.62,4,354.06,23 / 23,19508,2020-01-08 16:21:34:484,-0.2793,1.3059,9.3078,-0.0361,-0.0095,9.8065,0.1069,-0.3336,0.2042,-1.44,-32.62,-11.81,124.3,-89.03,117.34
52.290215,-2.121283,116.74,17.62,4,354.06,23 / 23,19608,2020-01-08 16:21:34:584,3.9817,1.5918,9.6688,-0.0343,0.0055,9.8066,0.0381,-0.4176,0.1574,-0.81,-32.31,-12.56,119.52,-88.96,112.9
52.290215,-2.121283,116.74,17.62,4,354.06,23 / 23,19708,2020-01-08 16:21:34:684,-0.5917,0.6257,8.8002,-0.0051,-0.0211,9.8066,0.1272,-0.3337,0.2057,-1,-31.81,-12.19,115.67,-89.07,108.67
52.290215,-2.121283,116.74,17.62,4,354.06,23 / 23,19808,2020-01-08 16:21:34:784,2.6633,1.5417,10.2783,-0.0485,-0.0179,9.8065,0.1196,-0.1356,0.1381,-0.62,-31.5,-11.94,116.43,-89.03,109.43
52.290215,-2.121283,116.74,17.62,4,354.06,23 / 23,19907,2020-01-08 16:21:34:883,0.252,1.8065,9.4898,0.035,-0.0155,9.8065,0.114,-0.018,-0.1319,-0.31,-31.31,-11.69,120.94,-89.06,118.86
52.290215,-2.121283,116.74,17.62,4,354.06,23 / 23,20008,2020-01-08 16:21:34:984,-1.6245,3.2716,11.1497,-0.0121,-0.0097,9.8065,0.2006,-0.009,-0.1693,-0.56,-30.5,-11.87,122.61,-89.08,115.93
52.290215,-2.121283,116.74,17.62,4,354.06,23 / 23,20107,2020-01-08 16:21:35:083,-2.1691,2.2041,10.0424,0.0605,-0.0405,9.8063,0.1666,0.2304,-0.1692,0.44,-30.62,-11.37,124.75,-88.84,122.07
52.290215,-2.121283,116.74,17.62,4,354.06,23 / 23,20208,2020-01-08 16:21:35:184,-0.3824,0.9853,9.3236,-0.019,-0.005,9.8066,-0.0225,0.2005,-0.2123,0.19,-31.19,-12.37,121.51,-88.94,119.18
52.290215,-2.121283,116.74,17.62,4,354.06,23 / 23,20308,2020-01-08 16:21:35:284,1.616,1.256,9.9606,0.0236,0.0077,9.8066,0.0001,0.1864,-0.0323,1.13,-31.06,-12.94,118.32,-88.96,120.55
52.290215,-2.121283,116.74,17.62,4,354.06,23 / 23,20407,2020-01-08 16:21:35:383,-0.2854,-0.3748,8.2821,0.0055,0.0262,9.8066,0.0085,0.1844,-0.0358,1.06,-30.75,-12.94,120.48,-88.95,122.73
52.290215,-2.121283,116.74,17.62,4,354.06,23 / 23,20508,2020-01-08 16:21:35:484,2.5639,0.8115,11.2418,0.0265,0.0007,9.8066,0.058,0.1869,-0.1466,0.75,-30.81,-13.06,112.5,-89.03,114.76
52.290215,-2.121283,116.74,17.62,4,354.06,23 / 23,20608,2020-01-08 16:21:35:584,-0.9217,0.3485,10.9044,0.0436,0.0183,9.8065,0.1414,0.1797,-0.1247,1.56,-31.06,-13.06,114.11,-89.19,121.12
52.290215,-2.121283,116.74,17.62,4,354.06,23 / 23,20708,2020-01-08 16:21:35:684,0.2274,1.8437,11.3078,0.0368,-0.0346,9.8065,0.2144,0.0819,-0.1554,1.31,-31.37,-13.69,114.93,-89.04,117.09
52.290215,-2.121283,116.74,17.62,4,354.06,23 / 23,20808,2020-01-08 16:21:35:784,-0.8816,0.5116,9.7541,0.0161,-0.002,9.8066,0.1152,0.0549,-0.1986,1.38,-31.06,-13.69,114.49,-89.13,116.82
52.290215,-2.121283,116.74,17.62,4,354.06,23 / 23,20907,2020-01-08 16:21:35:883,1.3067,0.5375,10.6084,0.0249,-0.0002,9.8066,-0.1209,0.097,0.0101,1.13,-32,-14.12,118.49,-89.23,121.03
52.290215,-2.121283,116.74,17.62,4,354.06,23 / 23,21008,2020-01-08 16:21:35:984,-1.8225,2.3221,10.7408,0.0348,0.0001,9.8065,-0.1962,-0.0995,0.1604,1,-31.87,-14.19,124.91,-89.39,127.86
52.290215,-2.121283,116.74,17.62,4,354.06,23 / 23,21108,2020-01-08 16:21:36:084,1.9922,3.1397,10.6708,0.0052,0.039,9.8065,-0.2217,-0.013,0.0097,0.94,-32.25,-14.44,128.98,-89.47,132.13
52.290215,-2.121283,116.74,17.62,4,354.06,23 / 23,21208,2020-01-08 16:21:36:184,-0.2551,-0.3314,8.1305,0.036,0.0254,9.8065,-0.238,-0.023,-0.0364,1.25,-32.56,-14.56,135.55,-89.48,138.57
52.290215,-2.121283,116.74,17.62,4,354.06,23 / 23,21308,2020-01-08 16:21:36:284,2.3148,-0.5386,8.4847,0.0096,0.0492,9.8065,-0.2276,0.036,0.0551,0.63,-32.25,-15.06,113.12,-89.57,116.08
52.290215,-2.121283,116.74,17.62,4,354.06,23 / 23,21408,2020-01-08 16:21:36:384,0.4435,0.9108,10.6626,0.0188,-0.0039,9.8066,-0.205,-0.2177,0.0553,0.75,-33.06,-14.19,126.92,-89.46,129.99
52.290215,-2.121283,116.74,17.62,4,354.06,23 / 23,21507,2020-01-08 16:21:36:483,-0.4052,0.1698,11.0428,-0.0341,0.0234,9.8065,-0.0656,-0.0337,0.151,0.63,-33.37,-15.25,129.37,-89.15,131.74
52.290215,-2.121283,116.74,17.62,4,354.06,23 / 23,21608,2020-01-08 16:21:36:584,-0.5719,1.6286,9.8321,0.0096,0.034,9.8066,-0.0065,-0.1925,0.0857,1.13,-33.31,-14.69,142.95,-89.17,145.67
52.290215,-2.121283,116.74,17.62,4,354.06,23 / 23,21708,2020-01-08 16:21:36:684,-0.7619,1.6069,10.7632,-0.0583,0.024,9.8064,0.0175,-0.2321,0.1207,0.63,-33.31,-15.12,150.32,-89.32,153.39
52.290215,-2.121283,116.74,17.62,4,354.06,23 / 23,21808,2020-01-08 16:21:36:784,4.0824,-0.1087,8.4041,-0.0315,0.0421,9.8065,0.1274,-0.0731,0.0972,0.69,-33.44,-15.12,147.06,-89.13,149.84
52.290215,-2.121283,116.74,17.62,4,354.06,24 / 24,21908,2020-01-08 16:21:36:884,-0.3833,1.6758,10.544,-0.0408,0.0437,9.8064,0.1767,0.0403,-0.2179,0.38,-33.62,-15.31,144.55,-89.32,143.66
52.291763,-2.121308,116.34,22.38,4,5.51,24 / 24,22008,2020-01-08 16:21:36:984,4.9263,-1.907,7.8457,0.0097,0.0074,9.8066,0.2152,-0.0628,-0.3147,0.44,-33.75,-16.44,146.81,-89.55,146.29
52.291763,-2.121308,116.34,22.38,4,5.51,24 / 24,22108,2020-01-08 16:21:37:084,-4.294,0.9654,10.4746,0.0719,-0.0632,9.8062,0.167,0.2119,-0.0901,1.25,-33.56,-16.19,130.58,-89.34,133.09
52.291763,-2.121308,116.34,22.38,4,5.51,24 / 24,22207,2020-01-08 16:21:37:183,3.1082,0.0867,9.8594,0.0484,-0.0312,9.8064,0.1514,0.3255,-0.1548,0.56,-33.62,-17.5,141.71,-89.39,144.32
52.291763,-2.121308,116.34,22.38,4,5.51,24 / 24,22308,2020-01-08 16:21:37:284,-1.9651,0.8056,10.4189,0.0716,-0.0459,9.8062,0.1287,0.2873,-0.3295,0.31,-33.75,-16.81,161.19,-89.48,160.85
52.291763,-2.121308,116.34,22.38,4,5.51,24 / 24,22408,2020-01-08 16:21:37:384,3.7145,0.0155,8.4964,0.0483,0.0022,9.8065,0.2334,0.4186,-0.1708,0.13,-34,-17.31,146.62,-89.42,145.98
52.291763,-2.121308,116.34,22.38,4,5.51,24 / 24,22508,2020-01-08 16:21:37:484,0.2818,0.2885,9.9843,0.0506,-0.0383,9.8064,0.2204,0.4668,-0.2673,-0.31,-34.19,-17.75,177.42,-89.62,177.39
52.291763,-2.121308,116.34,22.38,4,5.51,24 / 24,22608,2020-01-08 16:21:37:584,4.4954,-1.373,9.0794,-0.0189,0.0192,9.8066,0.2013,0.428,-0.3771,-0.75,-34,-17.87,173.06,-89.42,169.75
52.291763,-2.121308,116.34,22.38,4,5.51,24 / 24,22708,2020-01-08 16:21:37:684,-1.876,2.5237,11.3925,0.0765,-0.0428,9.8062,0.2368,0.228,-0.3642,-0.87,-34.56,-18,175.26,-89.36,171.97
52.291763,-2.121308,116.34,22.38,4,5.51,24 / 24,22808,2020-01-08 16:21:37:784,2.2974,-0.3957,8.0864,0.0285,-0.0333,9.8065,0.2314,0.1877,-0.2932,-1.81,-33.87,-18.44,162.56,-89.31,155.83
52.291763,-2.121308,116.34,22.38,4,5.51,24 / 24,22908,2020-01-08 16:21:37:884,-2.5275,0.4759,10.3294,0.0397,-0.0515,9.8064,0.1769,0.3176,-0.23,-2.12,-34.69,-18.5,160.26,-89.04,153.29
52.291763,-2.121308,116.34,22.38,4,5.51,24 / 24,23009,2020-01-08 16:21:37:985,0.4844,-1.2421,7.6638,-0.0172,-0.0119,9.8066,0.1411,0.0338,0.0659,-2.94,-34.75,-18.94,150.51,-89.06,140.7
52.291763,-2.121308,116.34,22.38,4,5.51,24 / 24,23108,2020-01-08 16:21:38:084,0.7955,0.4899,8.8079,0.0189,-0.0644,9.8064,0.0277,0.2096,0.0706,-3.31,-34.69,-19.87,159.59,-89.37,150.68
52.291763,-2.121308,116.34,22.38,4,5.51,24 / 24,23208,2020-01-08 16:21:38:184,4.1244,-2.1409,9.2013,-0.0129,0.0508,9.8065,-0.1087,0.1013,-0.2066,-4.37,-34.12,-19.62,177.48,-89.4,166.13
52.291763,-2.121308,116.34,22.38,4,5.51,24 / 24,23308,2020-01-08 16:21:38:284,-0.9847,0.3561,9.1714,0.0596,0.0191,9.8064,-0.1487,-0.0658,-0.0758,-4.5,-34.56,-19.62,180.34,-89.05,169.04
52.291763,-2.121308,116.34,22.38,4,5.51,24 / 24,23407,2020-01-08 16:21:38:383,-2.0961,1.3038,10.2866,-0.0467,0.0409,9.8064,-0.0422,-0.0177,0.2007,-5.25,-34.44,-19.06,168.62,-88.76,153.46
52.291763,-2.121308,116.34,22.38,4,5.51,24 / 24,23508,2020-01-08 16:21:38:484,-3.3889,0.4401,9.1101,0.0444,0.0099,9.8065,-0.0192,0.0667,0.0718,-5.19,-34.31,-19.75,185.44,-88.79,171.6
52.291763,-2.121308,116.34,22.38,4,5.51,24 / 24,23607,2020-01-08 16:21:38:583,2.0617,0.04,8.8893,0.0077,0.0125,9.8066,-0.1363,-0.1834,-0.0301,-6.12,-34.5,-19.62,178.99,-88.76,162.26
52.291763,-2.121308,116.34,22.38,4,5.51,24 / 24,23708,2020-01-08 16:21:38:684,3.7343,0.0663,8.611,0.0033,0.0019,9.8066,-0.1293,-0.3374,0.2009,-6.25,-34.19,-19.19,180.08,-88.68,162.56
52.291763,-2.121308,116.34,22.38,4,5.51,24 / 24,23808,2020-01-08 16:21:38:784,1.001,-2.9249,8.4354,-0.0529,0.0809,9.8061,-0.2969,-0.3939,0.4016,-7.5,-34.44,-19.31,188.38,-88.87,168.43
52.291763,-2.121308,116.34,22.38,4,5.51,24 / 24,23908,2020-01-08 16:21:38:884,0.6028,0.3135,9.0901,0.001,0.0211,9.8065,-0.177,-0.1602,0.3573,-8.62,-34.75,-18.94,191.64,-88.72,166.72
52.291763,-2.121308,116.34,22.38,4,5.51,23 / 23,24008,2020-01-08 16:21:38:984,-1.7449,0.4668,10.1828,-0.0173,0.0245,9.8065,0.0841,-0.3975,0.0312,-9.37,-35.06,-18.25,188.8,-88.59,162.61
52.291763,-2.121308,116.34,22.38,4,5.51,23 / 23,24108,2020-01-08 16:21:39:084,1.7398,0.6453,8.992,-0.0211,0.0278,9.8065,0.1444,-0.4326,0.0303,-10.19,-34.44,-18.37,188.41,-88.45,159.73
52.291763,-2.121308,116.34,22.38,4,5.51,23 / 23,24208,2020-01-08 16:21:39:184,0.2998,0.7106,10.4314,-0.0388,-0.0141,9.8065,0.1482,0.1364,0.0863,-10.12,-34.5,-17.19,197.59,-88.28,168.02
52.291763,-2.121308,116.34,22.38,4,5.51,23 / 23,24308,2020-01-08 16:21:39:284,0.8217,3.0364,11.0846,0.0315,0.0243,9.8065,0.3131,0.0867,-0.0706,-10.5,-34.56,-17.31,196.06,-88.09,166.53
52.291763,-2.121308,116.34,22.38,4,5.51,23 / 23,24408,2020-01-08 16:21:39:384,-2.0551,3.5115,11.7144,0.0285,-0.0875,9.8062,0.2709,0.2028,-0.4481,-11.62,-34.69,-16.56,194.52,-87.94,160.16
52.291763,-2.121308,116.34,22.38,4,5.51,23 / 23,24508,2020-01-08 16:21:39:484,2.0135,-1.8782,8.8452,-0.0223,0.0821,9.8063,0.2577,0.403,-0.5574,-12,-34.31,-16.62,190.86,-88.08,156.23
52.291763,-2.121308,116.34,22.38,4,5.51,23 / 23,24608,2020-01-08 16:21:39:584,1.3899,-2.716,8.8035,0.0119,-0.0535,9.8064,0.27,0.4842,-0.2764,-12.5,-33.94,-15.31,194.85,-88.13,157.03
52.291763,-2.121308,116.34,22.38,4,5.51,23 / 23,24709,2020-01-08 16:21:39:685,2.1658,-2.524,8.201,0.0023,0.0223,9.8066,0.3543,0.4107,-0.2025,-12.69,-34.19,-15.06,203.74,-88.03,164.17
52.291763,-2.121308,116.34,22.38,4,5.51,23 / 23,24807,2020-01-08 16:21:39:783,0.2743,-0.1527,8.8037,0.0061,-0.1268,9.8058,0.2193,0.3958,-0.2797,-12.81,-33.37,-14.62,204.32,-87.92,164.82
52.291763,-2.121308,116.34,22.38,4,5.51,23 / 23,24908,2020-01-08 16:21:39:884,2.8199,-1.9384,9.8744,0.0107,0.0565,9.8064,0.1249,0.476,-0.3503,-12.87,-33.87,-14.19,219.38,-88.54,178.15
52.291763,-2.121308,116.34,22.38,4,5.51,23 / 23,25008,2020-01-08 16:21:39:984,1.5229,-0.8646,10.7405,0.002,0.0044,9.8066,0.1095,0.1616,-0.1996,-13.62,-33.56,-12.94,224.13,-88.32,179.08
52.291763,-2.121308,116.34,22.38,4,5.51,23 / 23,25108,2020-01-08 16:21:40:084,0.0774,2.6917,10.6004,-0.0028,0.0517,9.8065,0.1654,0.0984,-0.1308,-13.5,-32.87,-11.87,220.41,-88.07,175.44
52.291763,-2.121308,116.34,22.38,4,5.51,23 / 23,25208,2020-01-08 16:21:40:184,3.5934,-3.2265,8.8085,-0.032,0.002,9.8066,0.1981,0.2752,-0.0889,-13.19,-33,-11.37,224.34,-88.15,177.07
52.291763,-2.121308,116.34,22.38,4,5.51,23 / 23,25308,2020-01-08 16:21:40:284,2.0891,-0.3164,10.1609,-0.0581,0.0651,9.8062,0.0272,0.0757,-0.1546,-12.75,-33.19,-11.06,234.5,-88.17,-172.38
52.291763,-2.121308,116.34,22.38,4,5.51,23 / 23,25407,2020-01-08 16:21:40:383,0.4403,-1.2228,8.0104,0.021,0.0048,9.8066,-0.16,-0.1847,-0.0836,-12.81,-33.06,-10.12,229.63,-88.11,-179.91
52.291763,-2.121308,116.34,22.38,4,5.51,23 / 23,25508,2020-01-08 16:21:40:484,0.5516,1.2523,11.1428,0.0232,0.0142,9.8065,-0.1771,-0.11,0.1685,-12.19,-33.25,-10.12,222.77,-88.24,175.09
52.291763,-2.121308,116.34,22.38,4,5.51,23 / 23,25607,2020-01-08 16:21:40:583,1.2453,-1.1408,9.4672,-0.0188,0.0566,9.8064,-0.0835,-0.2282,0.1923,-12,-33,-8.81,224.93,-88.17,174.63
52.291763,-2.121308,116.34,22.38,4,5.51,23 / 23,25708,2020-01-08 16:21:40:684,0.3576,2.2166,10.0294,-0.011,0.0189,9.8066,0.0445,-0.31,0.0883,-10.62,-33.5,-8.94,225.6,-88.08,178.07
52.291763,-2.121308,116.34,22.38,4,5.51,23 / 23,25807,2020-01-08 16:21:40:783,0.9158,-0.1494,9.6038,-0.0209,0.0221,9.8065,0.0525,-0.1526,0.1281,-10.69,-33.75,-8.81,222.8,-88.07,175.21
52.291763,-2.121308,116.34,22.38,4,5.51,23 / 23,25908,2020-01-08 16:21:40:884,1.0464,-0.0998,9.7219,-0.014,0.0138,9.8066,-0.0411,-0.0556,0.0165,-9.12,-33.87,-8.75,218.88,-88.01,177.2
52.291763,-2.121308,116.34,22.38,4,5.51,24 / 24,26008,2020-01-08 16:21:40:984,0.3583,0.4044,9.7502,0.0089,0.0131,9.8065,0.0195,-0.0023,-0.0338,-9.25,-33.94,-9,217.66,-87.97,175.95
52.291763,-2.121308,116.34,22.38,4,5.51,24 / 24,26108,2020-01-08 16:21:41:084,1.473,-3.2069,9.5927,0.0001,-0.0073,9.8066,0.0539,0.1841,-0.1957,-8.62,-34.37,-9.06,217.21,-87.95,175.49
52.291763,-2.121308,116.34,22.38,4,5.51,24 / 24,26207,2020-01-08 16:21:41:183,1.1885,-0.533,8.0307,0.0163,0.1148,9.806,0.0696,0.0471,-0.1518,-8,-34.31,-9.56,220.98,-88.25,-174.64
52.291763,-2.121308,116.34,22.38,4,5.51,24 / 24,26308,2020-01-08 16:21:41:284,0.2584,-0.4463,6.4644,0.0686,0.0565,9.8062,0.4508,0.1838,0.1249,-7.62,-34.81,-9.69,219.97,-87.63,-174.54
52.291763,-2.121308,116.34,22.38,4,5.51,24 / 24,26408,2020-01-08 16:21:41:384,0.2235,3.9341,12.4402,0.0634,0.0421,9.8063,0.4131,0.369,-0.0787,-7.62,-34.94,-9.5,217.72,-87.74,-179.91
52.291763,-2.121308,116.34,22.38,4,5.51,24 / 24,26508,2020-01-08 16:21:41:484,1.7226,-1.9828,7.5743,-0.072,0.1378,9.8054,0.0296,0.2956,-0.5959,-7.5,-34.87,-9.56,207.45,-87.29,176.02
52.291763,-2.121308,116.34,22.38,4,5.51,24 / 24,26608,2020-01-08 16:21:41:584,-0.9588,3.1018,10.3145,-0.085,-0.0062,9.8063,-0.1288,0.2685,-0.3305,-6.94,-35.12,-9.75,212.71,-87.84,-178.96
52.291763,-2.121308,116.34,22.38,4,5.51,24 / 24,26707,2020-01-08 16:21:41:683,-0.9205,2.9072,10.0341,0.0133,0.0107,9.8066,-0.0048,0.0513,0.355,-7.12,-35,-9.56,215.86,-87.71,-175.3
52.291763,-2.121308,116.34,22.38,4,5.51,24 / 24,26808,2020-01-08 16:21:41:784,-2.905,3.2392,10.2565,0.0603,-0.0487,9.8063,-0.085,0.0321,0.2085,-6.87,-35.19,-10.19,207.37,-87.7,175.4
52.291763,-2.121308,116.34,22.38,4,5.51,24 / 24,26908,2020-01-08 16:21:41:884,4.053,-2.6175,9.1469,-0.0771,0.0734,9.8061,-0.1164,0.0086,-0.2157,-7,-35.5,-10.44,223.22,-87.74,-167.35
52.291763,-2.121308,116.34,22.38,4,5.51,24 / 24,27008,2020-01-08 16:21:41:984,-0.0224,-1.6256,9.4735,-0.0243,-0.04,9.8065,-0.0678,-0.0363,-0.0535,-7.37,-34.94,-10.06,215.86,-87.79,-175.44
52.291763,-2.121308,116.34,22.38,4,5.51,24 / 24,27108,2020-01-08 16:21:42:084,3.1222,-0.7393,9.8926,-0.0305,0.0336,9.8065,-0.1032,-0.3588,0.1586,-6.81,-35.25,-10.31,211.21,-87.78,179.5
52.291763,-2.121308,116.34,22.38,4,5.51,24 / 24,27208,2020-01-08 16:21:42:184,1.7957,-2.0079,9.6976,0.0202,-0.0359,9.8065,-0.1284,-0.5079,0.1455,-6.12,-35.12,-10.69,208.87,-87.66,-176.6
52.291763,-2.121308,116.34,22.38,4,5.51,24 / 24,27308,2020-01-08 16:21:42:284,-2.8669,2.1983,10.2437,0.0388,-0.011,9.8065,-0.1521,-0.3344,0.4404,-6.69,-35,-10.75,209.04,-87.52,179.78
52.291763,-2.121308,116.34,22.38,4,5.51,24 / 24,27407,2020-01-08 16:21:42:383,-1.4294,0.7593,10.9508,0.0448,-0.0886,9.8061,-0.1991,-0.3545,0.3878,-6.31,-35.37,-10.87,200.25,-87.47,174.07
52.291763,-2.121308,116.34,22.38,4,5.51,24 / 24,27507,2020-01-08 16:21:42:483,-2.3119,1.6891,11.4764,0.0104,-0.0426,9.8065,-0.1979,-0.5653,0.1912,-6.37,-34.75,-10.62,210.81,-87.61,-174.4
52.291763,-2.121308,116.34,22.38,4,5.51,24 / 24,27609,2020-01-08 16:21:42:585,4.6663,-2.5393,8.9196,0.0625,-0.0773,9.8061,-0.1168,-0.3481,0.2622,-6.31,-35.06,-10.81,219.17,-87.6,-165.22
52.291763,-2.121308,116.34,22.38,4,5.51,24 / 24,27708,2020-01-08 16:21:42:684,-0.974,1.243,9.0966,0.0602,-0.0541,9.8062,-0.1104,-0.1824,0.0779,-6.12,-35.75,-10.69,217.68,-87.58,-166.69
52.291763,-2.121308,116.34,22.38,4,5.51,24 / 24,27808,2020-01-08 16:21:42:784,2.5075,-2.3928,9.2578,0.034,-0.0611,9.8064,-0.1354,-0.1008,0.1266,-6.19,-35.75,-10.12,213.15,-87.47,-173.55
52.291763,-2.121308,116.34,22.38,4,5.51,24 / 25,27908,2020-01-08 16:21:42:884,-1.7912,2.4571,11.1886,0.0208,-0.0375,9.8065,-0.0656,0.0238,0.0585,-6,-35.87,-10.69,215.29,-87.53,-169.25
52.291763,-2.121308,116.34,22.38,4,5.51,24 / 25,28008,2020-01-08 16:21:42:984,2.1375,-1.0549,9.0921,0.0045,-0.0288,9.8066,-0.0543,0.0124,-0.1327,-6.75,-35.12,-10.87,217.88,-87.44,-170.4
52.291763,-2.121308,116.34,22.38,4,5.51,24 / 25,28108,2020-01-08 16:21:43:084,-0.0694,-0.0735,9.3842,0.0835,-0.0397,9.8061,-0.0965,0.2322,-0.1703,-5.94,-35.87,-11.31,220.51,-87.38,-163.23
52.291763,-2.121308,116.34,22.38,4,5.51,24 / 25,28208,2020-01-08 16:21:43:184,1.4826,-0.3628,9.0667,0.014,-0.0114,9.8066,-0.0437,0.2459,-0.0107,-6.06,-35.94,-10.62,218.01,-87.53,-166.24
52.291763,-2.121308,116.34,22.38,4,5.51,24 / 25,28308,2020-01-08 16:21:43:284,0.8579,-0.7326,10.9048,-0.0133,-0.0173,9.8066,0.1154,0.0398,-0.0857,-5.87,-35.69,-11.19,218.14,-87.6,-166.22
52.291763,-2.121308,116.34,22.38,4,5.51,24 / 25,28407,2020-01-08 16:21:43:383,0.0459,0.6535,11.1095,-0.0079,0.0381,9.8066,0.1001,0.051,-0.1693,-5.62,-35.94,-11.12,219.91,-87.54,-164.18
52.291763,-2.121308,116.34,22.38,4,5.51,24 / 25,28508,2020-01-08 16:21:43:484,2.5963,-1.2591,9.3608,0.0294,0.0125,9.8065,-0.0341,0.168,-0.0805,-6.25,-35.81,-11.06,219.07,-87.38,-164.82
52.291763,-2.121308,116.34,22.38,4,5.51,24 / 25,28608,2020-01-08 16:21:43:584,0.3307,0.5158,10.4928,-0.0164,0.0399,9.8066,-0.0586,0.0205,0.0298,-5.94,-36.62,-11.62,218.59,-87.41,-163.55
52.291763,-2.121308,116.34,22.38,4,5.51,24 / 25,28707,2020-01-08 16:21:43:683,1.5699,-0.8315,8.8793,-0.0064,0.0363,9.8066,-0.0949,-0.2288,0.0366,-6.25,-35.81,-11.5,216.88,-87.22,-166.97
52.291763,-2.121308,116.34,22.38,4,5.51,24 / 25,28808,2020-01-08 16:21:43:784,-0.3478,-1.3426,10.2514,0.0114,-0.0215,9.8066,-0.1537,-0.2418,0.1473,-6.44,-36.62,-11.19,218.74,-87.35,-165
52.291763,-2.121308,116.34,22.38,4,5.51,24 / 24,28908,2020-01-08 16:21:43:884,2.7398,-0.1174,6.7004,-0.0086,0.1119,9.806,-0.2774,-0.2359,0.2476,-5.87,-35.75,-11.06,213.61,-86.93,-170.15
52.291763,-2.121308,116.34,22.38,4,5.51,24 / 24,29008,2020-01-08 16:21:43:984,-1.1529,3.2913,10.9614,-0.0137,-0.0847,9.8062,-0.2013,-0.4749,0.16,-5.81,-35.62,-11.37,214.4,-86.78,-169.02
52.291763,-2.121308,116.34,22.38,4,5.51,24 / 24,29108,2020-01-08 16:21:44:084,-1.6546,3.4228,10.106,-0.0034,0.0682,9.8064,-0.2452,-0.3802,0.1781,-6.44,-36.25,-11.19,214.09,-86.95,-169.64
52.291763,-2.121308,116.34,22.38,4,5.51,24 / 24,29208,2020-01-08 16:21:44:184,-3.7715,2.6692,11.3131,0.0592,-0.0723,9.8061,-0.1905,-0.2906,0.2297,-6.06,-35.75,-11.37,211.44,-86.81,-172.42
52.291763,-2.121308,116.34,22.38,4,5.51,24 / 24,29308,2020-01-08 16:21:44:284,2.4326,0.2713,9.3432,-0.0542,0.0439,9.8064,-0.1488,-0.257,0.2676,-6.25,-35.94,-11.19,213,-87.11,-171.11
52.291763,-2.121308,116.34,22.38,4,5.51,24 / 24,29408,2020-01-08 16:21:44:384,2.6871,-0.8989,9.7869,0.0342,-0.0174,9.8066,-0.0928,-0.1986,0.0616,-6.37,-36.19,-12.44,216.18,-87.08,-165.79
52.291763,-2.121308,116.34,22.38,4,5.51,24 / 24,29508,2020-01-08 16:21:44:484,3.8574,-2.3855,9.3666,-0.0171,0.0554,9.8064,-0.1975,-0.1263,0.047,-6.5,-35.62,-11.37,211.7,-86.8,-172.11
52.291763,-2.121308,116.34,22.38,4,5.51,24 / 24,29608,2020-01-08 16:21:44:584,0.7338,1.9453,11.7378,0.0809,-0.0041,9.8063,-0.3076,0.049,0.1051,-6.75,-35.44,-12.06,215.05,-86.89,-170.74
52.291763,-2.121308,116.34,22.38,4,5.51,24 / 24,29707,2020-01-08 16:21:44:683,-0.3923,0.7615,9.5472,0.0131,0.0658,9.8063,-0.2198,0.0085,0.0978,-7.5,-36.25,-12.19,221.24,-86.69,-163.4
52.291763,-2.121308,116.34,22.38,4,5.51,24 / 24,29808,2020-01-08 16:21:44:784,-0.7337,1.068,11.8444,0.0036,-0.0294,9.8066,0.0498,0.032,-0.0371,-7.44,-34.81,-11.94,225.23,-86.89,-159.49
52.291763,-2.121308,116.34,22.38,4,5.51,24 / 24,29908,2020-01-08 16:21:44:884,-0.0749,0.6263,11.132,-0.0005,0.016,9.8066,0.16,0.1262,-0.1453,-7.37,-35.56,-12.06,224.57,-86.9,-160.07
52.291763,-2.121308,116.34,22.38,4,5.51,24 / 24,30008,2020-01-08 16:21:44:984,3.2981,-1.8496,9.6986,0.0387,-0.0399,9.8065,0.0396,0.2627,-0.2375,-7.5,-35.44,-11.25,227.47,-86.72,-158.55
52.291763,-2.121308,116.34,22.38,4,5.51,24 / 24,30109,2020-01-08 16:21:45:085,0.0751,-1.1306,8.8536,0.007,-0.0175,9.8066,0.0126,0.1781,-0.138,-7.94,-35.62,-11.25,228.46,-86.79,-161.23
52.291763,-2.121308,116.34,22.38,4,5.51,24 / 24,30208,2020-01-08 16:21:45:184,1.6189,0.2497,9.8834,0.0028,-0.0167,9.8065,-0.0132,0.0309,-0.0448,-7.87,-35.69,-10.69,230.08,-86.93,-159.74
52.291763,-2.121308,116.34,22.38,4,5.51,24 / 24,30307,2020-01-08 16:21:45:283,-0.5102,0.9492,9.7679,0.0146,0.0021,9.8066,0.0002,0.1444,-0.0516,-7.81,-35.75,-11.19,231.36,-86.95,-158.37
52.291763,-2.121308,116.34,22.38,4,5.51,24 / 24,30408,2020-01-08 16:21:45:384,1.894,-0.9728,10.8336,0.0213,0.0092,9.8066,-0.0396,0.0612,-0.0762,-6.94,-35.75,-11,225.93,-86.84,-160.32
52.291763,-2.121308,116.34,22.38,4,5.51,24 / 24,30508,2020-01-08 16:21:45:484,1.0084,1.3649,9.0146,0.0349,0.0113,9.8066,0.0478,-0.1599,-0.0649,-6.94,-36.37,-11.31,226.47,-86.73,-159.5
52.291763,-2.121308,116.34,22.38,4,5.51,24 / 24,30608,2020-01-08 16:21:45:584,-1.4071,-1.2947,8.0947,-0.0475,-0.0372,9.8064,0.2283,-0.1732,0.1953,-7.81,-35.94,-10.87,231.37,-87.07,-158.63
52.291763,-2.121308,116.34,22.38,4,5.51,24 / 24,30708,2020-01-08 16:21:45:684,-1.313,-0.1698,9.1052,0.0218,0.0029,9.8066,0.1937,-0.1375,0.1295,-8.06,-35.81,-11.12,232.47,-86.78,-156.82
52.291763,-2.121308,116.34,22.38,4,5.51,24 / 24,30807,2020-01-08 16:21:45:783,1.4414,-0.2739,9.3524,0.0081,-0.0164,9.8066,0.0362,-0.1356,-0.021,-7.69,-35.75,-11.69,228.72,-86.81,-159.02
52.291763,-2.121308,116.34,22.38,4,5.51,23 / 23,30908,2020-01-08 16:21:45:884,1.0898,1.0306,11.3898,0.0034,-0.0058,9.8066,0.0946,-0.0876,0.0449,-7.5,-35.94,-11.37,227.44,-86.79,-158.53
52.293556,-2.12066,115.26,22.9,4,20.37,23 / 23,31008,2020-01-08 16:21:45:984,0.4904,0.9809,9.8839,-0.0209,0.0346,9.8065,0.1421,0.0118,-0.084,-7.25,-35.94,-11.06,225.71,-86.88,-160.63
52.293556,-2.12066,115.26,22.9,4,20.37,23 / 23,31108,2020-01-08 16:21:46:084,0.4694,0.8553,10.2681,-0.0218,0.0226,9.8065,0.0544,-0.0066,-0.1234,-7.12,-36.37,-11,227.06,-87.03,-159.44
52.293556,-2.12066,115.26,22.9,4,20.37,23 / 23,31207,2020-01-08 16:21:46:183,0.4916,-0.8209,10.4179,0.0263,0.003,9.8066,0.06,0.0574,-0.0114,-7.06,-36.25,-11,225.75,-86.99,-160.8
52.293556,-2.12066,115.26,22.9,4,20.37,23 / 23,31307,2020-01-08 16:21:46:283,0.1083,1.4196,10.7218,0.0135,0.0181,9.8066,0.0398,0.1223,0.1175,-7.25,-36.31,-11.75,219.67,-86.71,-165.17
52.293556,-2.12066,115.26,22.9,4,20.37,23 / 23,31407,2020-01-08 16:21:46:383,2.3028,0.1922,8.5045,-0.0364,0.0612,9.8063,-0.1651,0.1607,-0.0938,-7.56,-36.06,-11.12,223.64,-86.77,-166.53
52.293556,-2.12066,115.26,22.9,4,20.37,23 / 23,31508,2020-01-08 16:21:46:484,-1.929,1.6217,10.3974,-0.0414,0.0318,9.8065,-0.2413,0.0515,-0.2194,-6.81,-36.31,-11.12,226.1,-86.82,-160.07
52.293556,-2.12066,115.26,22.9,4,20.37,23 / 23,31607,2020-01-08 16:21:46:583,0.2439,2.4284,9.2914,0.0094,0.0652,9.8064,-0.1283,0.1397,0.0447,-7.06,-36.25,-11.75,218.91,-86.71,-166.02
52.293556,-2.12066,115.26,22.9,4,20.37,23 / 23,31708,2020-01-08 16:21:46:684,-1.7501,2.5462,8.6639,-0.0565,0.0067,9.8064,-0.0049,0.1256,-0.004,-7.12,-36.12,-11.25,221,-86.74,-165.6
52.293556,-2.12066,115.26,22.9,4,20.37,23 / 23,31808,2020-01-08 16:21:46:784,-0.0654,-0.2853,9.7573,-0.0318,-0.0072,9.8065,0.1174,-0.0291,-0.0982,-6.81,-36,-11.37,217.61,-87,-169.83
52.293556,-2.12066,115.26,22.9,4,20.37,23 / 23,31908,2020-01-08 16:21:46:884,-0.6851,0.0825,10.4203,0.0128,0.0057,9.8066,0.0984,-0.02,-0.0912,-6.31,-36.12,-11.25,213.05,-86.76,-170.53
