GPS LATITUDE (degrees), GPS LONGITUDE (degrees), GPS ALTITUDE (m), GPS SPEED (Kmh), GPS ACCURACY (m), GPS ORIENTATION (Â°),GPS SATELLITES IN RANGE, TIME SINCE START (ms), DATE (YYYY-MO-DD HH-MI-SS_SSS), ACCELEROMETER X (m/s²) , ACCELEROMETER Y (m/s²), ACCELEROMETER Z (m/s²), GRAVITY X (m/s²), GRAVITY Y (m/s²), GRAVITY Z (m/s²), GYROSCOPE Yaw (rad/s), GYROSCOPE Pitch (rad/s), GYROSCOPE Roll (rad/s), MAGNETIC FIELD X (Î¼T), MAGNETIC FIELD Y (Î¼T), MAGNETIC FIELD Z (Î¼T), ORIENTATION (Yaw) (Â°), ORIENTATION (Pitch) (Â°), ORIENTATION (Roll ) (Â°)
52.203125,-2.197729,120.81,8.87,2,244.31,21 / 21,13365410,2020-01-08 15:58:09:004,-1.399,3.8243,10.2656,-0.0212,0.01,9.8066,0.047,-0.3425,0.065,9.88,-33.56,14.25,72.68,-83.67,-155.04
52.203125,-2.197729,120.81,8.87,2,244.31,21 / 21,13365510,2020-01-08 15:58:09:104,-2.431,3.1283,10.2752,-0.0209,-0.0285,9.8066,0.0326,-0.3397,0.1064,10.13,-34,14.44,72.81,-83.37,-155.5
52.203125,-2.197729,120.81,8.87,2,244.31,21 / 21,13365610,2020-01-08 15:58:09:204,-0.6225,1.6089,9.186,-0.0034,-0.0116,9.8066,0.0841,-0.3966,0.076,9.81,-33.31,13.63,72.56,-83.23,-155.62
52.203125,-2.197729,120.81,8.87,2,244.31,21 / 21,13365710,2020-01-08 15:58:09:304,-2.0602,1.6326,9.1436,0.007,-0.0123,9.8066,-0.0559,-0.3776,0.128,9.88,-33.56,12.25,78.37,-83.13,-156.4
52.203125,-2.197729,120.81,8.87,2,244.31,21 / 21,13365810,2020-01-08 15:58:09:404,-1.3801,0.9305,9.8578,0.0484,-0.0153,9.8064,-0.0609,-0.4104,0.2121,10.44,-33.62,11.88,79.31,-83.16,-155.43
52.203125,-2.197729,120.81,8.87,2,244.31,21 / 21,13365910,2020-01-08 15:58:09:504,-0.2203,3.7224,9.9678,-0.0032,0.0016,9.8066,-0.0043,-0.4725,-0.0038,10.56,-33.37,10.25,87.26,-83.46,-155.2
52.203125,-2.197729,120.81,8.87,2,244.31,21 / 21,13366010,2020-01-08 15:58:09:604,0.8505,1.1417,10.0715,-0.006,-0.0252,9.8066,0.0302,-0.3466,-0.0807,12,-32.94,10.31,85.63,-83.49,-158.5
52.203125,-2.197729,120.81,8.87,2,244.31,21 / 21,13366110,2020-01-08 15:58:09:704,-2.0601,1.7619,10.2212,-0.0009,-0.0634,9.8064,0.0895,-0.3512,0.1616,12.5,-33,9.13,87.34,-83.35,-162.06
52.203125,-2.197729,120.81,8.87,2,244.31,21 / 21,13366210,2020-01-08 15:58:09:804,0.0862,0.476,9.466,0.0076,-0.02,9.8066,0.0404,-0.0806,-0.0266,12.94,-32.69,10.44,83.34,-83,-163.35
52.203125,-2.197729,120.81,8.87,2,244.31,21 / 21,13366309,2020-01-08 15:58:09:903,0.9801,-1.0721,10.0823,0.0244,-0.0004,9.8066,0.1114,-0.1686,-0.1423,13.19,-33.12,10.88,77.45,-83.06,-165.72
52.203125,-2.197729,120.81,8.87,2,244.31,21 / 21,13366409,2020-01-08 15:58:10:003,-1.0088,-1.4475,8.6642,-0.0141,0.0198,9.8066,-0.0225,0.2642,-0.3425,13.25,-33.06,11.38,73.43,-82.97,-169.68
52.203125,-2.197729,120.81,8.87,2,244.31,21 / 21,13366510,2020-01-08 15:58:10:104,0.6974,-2.0835,10.5065,0.0293,-0.0184,9.8065,-0.065,0.1746,-0.2276,12.38,-33.06,10.75,66.74,-83.09,-173.94
52.203125,-2.197729,120.81,8.87,2,244.31,21 / 21,13366610,2020-01-08 15:58:10:204,-1.2602,0.0851,11.9447,-0.0514,-0.0604,9.8063,-0.0728,0.1352,-0.0907,12.75,-33,10.13,65.8,-82.86,179.92
52.203125,-2.197729,120.81,8.87,2,244.31,21 / 21,13366710,2020-01-08 15:58:10:304,2.0751,-3.6363,9.8885,-0.0482,-0.0331,9.8064,0.0773,0.2181,-0.0956,13.13,-32.81,10.75,60.69,-82.51,177.89
52.203125,-2.197729,120.81,8.87,2,244.31,21 / 21,13366810,2020-01-08 15:58:10:404,-0.5318,-0.8547,10.2124,-0.0098,-0.0372,9.8065,0.1485,-0.2224,0.1873,12.63,-32.56,11,61.5,-81.9,177.5
52.203125,-2.197729,120.81,8.87,2,244.31,21 / 21,13366910,2020-01-08 15:58:10:504,-0.0797,0.4814,10.2258,-0.0338,0.0084,9.8065,0.0293,0.0298,-0.0756,12.44,-33,11.38,60.91,-81.38,177.61
52.203125,-2.197729,120.81,8.87,2,244.31,21 / 21,13367011,2020-01-08 15:58:10:605,0.2138,1.1038,9.9529,0.0447,-0.0051,9.8065,0.0654,-0.283,0.1799,12,-31.87,11.5,56.58,-81.32,177.42
52.203125,-2.197729,120.81,8.87,2,244.31,21 / 21,13367110,2020-01-08 15:58:10:704,0.4214,-0.7241,11.2801,0.0381,0.0112,9.8065,0.1343,0.0441,0.0802,11.81,-31.75,11.81,55.8,-81.56,177.17
52.203125,-2.197729,120.81,8.87,2,244.31,21 / 21,13367210,2020-01-08 15:58:10:804,1.7601,-4.8597,8.9474,0.0258,-0.0228,9.8066,0.0426,-0.3204,0.2669,11.19,-31.12,12.56,49.4,-81.5,176.98
52.203125,-2.197729,120.81,8.87,2,244.31,21 / 22,13367310,2020-01-08 15:58:10:904,-0.8959,-1.6935,12.099,0.0373,0.0281,9.8064,0.2337,-0.1151,0.1238,11.38,-31,12.75,51.74,-81.43,178.8
52.203125,-2.197729,120.81,8.87,2,244.31,21 / 22,13367410,2020-01-08 15:58:11:004,1.752,-1.8468,9.4922,-0.0533,-0.0449,9.8063,-0.2587,-0.0894,0.0368,10.63,-30.87,13.06,53.62,-81.24,-179.93
52.203125,-2.197729,120.81,8.87,2,244.31,21 / 22,13367510,2020-01-08 15:58:11:104,0.2921,0.879,8.3088,0.0259,-0.0546,9.8064,-0.0357,-0.1216,0.2183,11.56,-31.44,13.06,55.35,-80.8,178.85
52.203125,-2.197729,120.81,8.87,2,244.31,21 / 22,13367610,2020-01-08 15:58:11:204,2.6519,-4.1995,11.7879,-0.0495,0.0087,9.8065,-0.0127,0.4882,-0.313,11.38,-31.19,14.25,49.56,-80.81,178.72
52.203125,-2.197729,120.81,8.87,2,244.31,21 / 22,13367710,2020-01-08 15:58:11:304,0.3055,1.6487,10.3322,-0.0371,-0.0543,9.8064,-0.0671,-0.2318,0.0471,11.25,-31.75,13.88,49.98,-80.51,178.2
52.203125,-2.197729,120.81,8.87,2,244.31,21 / 22,13367810,2020-01-08 15:58:11:404,-1.7534,4.8547,7.6193,0.0108,0.023,9.8066,0.2148,0.9856,-0.0378,11.5,-31.31,14.69,51.5,-80.42,-179.8
52.203125,-2.197729,120.81,8.87,2,244.31,21 / 22,13367910,2020-01-08 15:58:11:504,-0.4217,0.0101,10.0193,-0.0774,0.0611,9.8061,-0.0447,0.3234,-0.6146,11.5,-31.87,14.75,55.97,-79.71,-177.56
52.203125,-2.197729,120.81,8.87,2,244.31,21 / 22,13368010,2020-01-08 15:58:11:604,-3.7327,7.3382,9.3819,-0.0706,0.0725,9.806,-0.058,0.5383,-0.2574,11.44,-31.5,15.19,49.78,-79.6,179.65
52.203125,-2.197729,120.81,8.87,2,244.31,21 / 22,13368110,2020-01-08 15:58:11:704,3.3984,-6.4002,10.0577,-0.0395,0.0804,9.8062,0.0268,1.0823,-0.7545,12.06,-32.37,15.38,57.65,-79.63,-176.28
52.203125,-2.197729,120.81,8.87,2,244.31,21 / 22,13368211,2020-01-08 15:58:11:805,-4.632,-0.2238,11.0848,-0.0956,0.0828,9.8058,0.1833,0.366,-0.5999,11.94,-32.31,15.13,54.07,-79.63,-179.25
52.203125,-2.197729,120.81,8.87,2,244.31,21 / 22,13368310,2020-01-08 15:58:11:904,1.7886,-4.5647,10.252,-0.0527,0.0573,9.8063,-0.0612,0.7116,-0.381,12.13,-32.87,14.69,57.04,-79.37,-177.69
52.203125,-2.197729,120.81,8.87,2,244.31,21 / 22,13368410,2020-01-08 15:58:12:004,-0.0904,-0.7655,8.8997,0.0409,0.0061,9.8065,0.075,-0.2069,0.2301,12.5,-33.44,14.81,56.96,-79.71,-178.97
52.203125,-2.197729,120.81,8.87,2,244.31,21 / 22,13368510,2020-01-08 15:58:12:104,1.364,-5.2913,9.2852,-0.0199,0.0338,9.8065,0.0804,0.2418,-0.2097,12.19,-33.37,14.25,59.15,-79.67,-178.05
52.203125,-2.197729,120.81,8.87,2,244.31,21 / 22,13368610,2020-01-08 15:58:12:204,-0.4706,2.4112,8.2945,0.0519,0.0006,9.8065,0.1665,-0.3564,0.3033,13.25,-33.5,14.56,56.95,-79.72,-178.96
52.203125,-2.197729,120.81,8.87,2,244.31,21 / 22,13368711,2020-01-08 15:58:12:305,-2.3433,3.2858,11.1895,0.011,0.0627,9.8064,0.1969,-0.0308,-0.0912,11.88,-32.44,14.13,59.04,-79.62,-177.73
52.203125,-2.197729,120.81,8.87,2,244.31,21 / 22,13368810,2020-01-08 15:58:12:404,-0.1121,3.6842,8.8698,0.04,-0.0161,9.8065,0.0098,-0.4834,0.4038,12.5,-33.19,14.63,58.68,-79.54,-177.8
52.203125,-2.197729,120.81,8.87,2,244.31,21 / 22,13368910,2020-01-08 15:58:12:504,1.2592,2.4123,9.265,0.0108,0.029,9.8066,0.0409,-0.2654,-0.0341,12.13,-33.87,14.25,61.01,-79.62,-177.11
52.203125,-2.197729,120.81,8.87,2,244.31,21 / 22,13369010,2020-01-08 15:58:12:604,1.0598,-0.9783,12.3206,-0.0325,-0.0107,9.8066,-0.1281,-0.227,-0.0846,12.5,-33.44,14.88,59.1,-79.49,-177.51
52.203125,-2.197729,120.81,8.87,2,244.31,21 / 22,13369110,2020-01-08 15:58:12:704,-2.057,4.5099,7.9254,-0.0117,-0.0954,9.8061,-0.1497,-0.5342,0.3713,12.44,-33.12,13.88,58.45,-79.45,-179
52.203125,-2.197729,120.81,8.87,2,244.31,21 / 22,13369210,2020-01-08 15:58:12:804,1.4108,-3.1832,11.3847,0.0148,0.0212,9.8066,0.2176,0.1595,-0.1434,11.88,-33.37,14.94,56.37,-79.44,-178.12
52.203125,-2.197729,120.81,8.87,2,244.31,22 / 23,13369310,2020-01-08 15:58:12:904,0.4208,-0.4384,10.8725,0.0249,-0.046,9.8065,0.0006,-0.4512,0.1889,11.5,-33,14.5,55.27,-79.49,-178.94
52.203125,-2.197729,120.81,8.87,2,244.31,22 / 23,13369410,2020-01-08 15:58:13:004,2.5006,-3.3156,9.9979,0.0279,0.042,9.8065,0.1199,0.2985,-0.2433,12.19,-33.5,14.19,58.15,-79.48,-179.2
52.203125,-2.197729,120.81,8.87,2,244.31,22 / 23,13369509,2020-01-08 15:58:13:103,0.0375,3.5785,10.0013,0.0111,-0.0531,9.8064,0.0819,-0.3023,0.163,12.31,-33.75,14.5,54.54,-79.47,179.97
52.203125,-2.197729,120.81,8.87,2,244.31,22 / 23,13369610,2020-01-08 15:58:13:204,-0.2804,1.1396,9.1145,0.0213,0.0356,9.8065,0.0782,0.1823,-0.17,11.88,-33.31,14.19,57.75,-79.6,-179.33
52.203125,-2.197729,120.81,8.87,2,244.31,22 / 23,13369709,2020-01-08 15:58:13:303,-1.2568,1.6545,9.9323,0.0136,-0.021,9.8066,0.0261,-0.065,0.0744,12.81,-33.75,13.88,60.12,-79.48,-179.76
52.203125,-2.197729,120.81,8.87,2,244.31,22 / 23,13369810,2020-01-08 15:58:13:404,0.8319,0.0976,9.7244,0.009,0.0219,9.8065,-0.0062,0.2181,-0.1599,12.5,-33.62,13.94,60.11,-79.48,-179.77
52.203125,-2.197729,120.81,8.87,2,244.31,22 / 23,13369909,2020-01-08 15:58:13:503,0.652,-2.2084,10.4355,-0.0032,-0.0087,9.8066,0.0001,0.0866,-0.0694,12.69,-33.75,13.75,59.82,-79.63,-179.76
52.203125,-2.197729,120.81,8.87,2,244.31,22 / 23,13370010,2020-01-08 15:58:13:604,1.2594,0.8809,9.8218,-0.0003,0.0311,9.8065,0.0472,0.152,-0.1326,12.19,-33,13.81,56.34,-79.6,179.51
52.203125,-2.197729,120.81,8.87,2,244.31,22 / 23,13370109,2020-01-08 15:58:13:703,1.7964,-0.3028,9.5776,-0.0133,0.006,9.8066,-0.0125,0.1644,-0.1177,13,-33.25,13.63,58.93,-79.58,179.91
52.203125,-2.197729,120.81,8.87,2,244.31,22 / 23,13370210,2020-01-08 15:58:13:804,0.6943,1.3363,11.0616,-0.0221,-0.0095,9.8065,-0.2117,-0.0113,0.0896,13.13,-32.44,13.25,61.24,-79.62,179.67
52.203125,-2.197729,120.81,8.87,2,244.31,22 / 22,13370309,2020-01-08 15:58:13:903,1.1934,-2.5202,10.1342,-0.0158,0.0094,9.8065,-0.0934,0.2455,-0.0304,12.5,-32.5,12.63,62.13,-79.81,-179.25
52.203125,-2.197729,120.81,8.87,2,244.31,22 / 22,13370410,2020-01-08 15:58:14:004,0.0701,1.8377,10.1477,-0.0158,-0.02,9.8066,-0.0932,-0.2701,0.17,12.25,-32.44,12.88,60.78,-79.89,-178.6
52.203125,-2.197729,120.81,8.87,2,244.31,22 / 22,13370510,2020-01-08 15:58:14:104,0.1684,2.3158,8.9326,-0.0146,0.0057,9.8066,-0.0681,0.0164,-0.0007,11.75,-32.75,13.56,58.74,-79.83,-178.12
52.203125,-2.197729,120.81,8.87,2,244.31,22 / 22,13370609,2020-01-08 15:58:14:203,0.1937,1.118,10.0159,0.0051,-0.0171,9.8066,-0.0103,-0.1713,0.0378,12,-33.31,13.75,58.26,-79.87,-178.45
52.203125,-2.197729,120.81,8.87,2,244.31,22 / 22,13370710,2020-01-08 15:58:14:304,0.5477,-0.6064,9.9795,0.0104,0.005,9.8066,0.0182,0.0402,-0.0123,12.13,-32.56,12.94,60.64,-79.94,-179.15
52.203125,-2.197729,120.81,8.87,2,244.31,22 / 22,13370810,2020-01-08 15:58:14:404,0.5264,-0.9164,10.4053,0.0007,-0.026,9.8066,-0.1171,-0.1932,0.0671,12.44,-33.44,13.81,56.32,-79.92,-179.98
52.203125,-2.197729,120.81,8.87,2,244.31,22 / 22,13370910,2020-01-08 15:58:14:504,0.5819,-0.3798,9.6434,0.0085,-0.0148,9.8066,-0.0544,-0.0546,0.1199,12.19,-32.12,12.81,58.36,-80,179.57
52.203125,-2.197729,120.81,8.87,2,244.31,22 / 22,13371010,2020-01-08 15:58:14:604,-0.4209,0.2271,10.2153,0.0112,-0.0122,9.8066,0.0284,-0.1045,0.0522,12.81,-32.5,13.56,57.69,-80.03,-179.94
52.203125,-2.197729,120.81,8.87,2,244.31,22 / 22,13371109,2020-01-08 15:58:14:703,-0.5069,-0.0967,10.6223,-0.0023,-0.0024,9.8066,0.053,0.0327,-0.0275,13.5,-32.12,12.38,64.85,-79.99,179.06
52.203125,-2.197729,120.81,8.87,2,244.31,22 / 22,13371210,2020-01-08 15:58:14:804,0.3868,-0.2882,11.0867,0.0421,0.0247,9.8065,0.1571,-0.1175,-0.0693,13.38,-32.75,13,59.98,-79.96,178.69
52.203125,-2.197729,120.81,8.87,2,244.31,22 / 22,13371310,2020-01-08 15:58:14:904,-0.5322,0.9401,10.5326,0.0085,0.0104,9.8066,0.0768,-0.1396,0.039,12.69,-32.19,13.31,58.72,-80.19,178.49
52.203125,-2.197729,120.81,8.87,2,244.31,22 / 23,13371410,2020-01-08 15:58:15:004,-0.1352,-0.19,10.1037,-0.0148,-0.0124,9.8066,-0.0239,-0.0671,-0.0165,12.5,-32.94,13.44,59.5,-80.11,178.54
52.203125,-2.197729,120.81,8.87,2,244.31,22 / 23,13371510,2020-01-08 15:58:15:104,0.7821,1.6359,9.5749,-0.0008,-0.0373,9.8065,-0.1122,-0.1417,0.1541,12.81,-32.31,13.75,55.13,-80,177.88
52.203125,-2.197729,120.81,8.87,2,244.31,22 / 23,13371610,2020-01-08 15:58:15:204,0.7961,0.3187,10.7911,-0.0015,-0.0057,9.8066,0.0564,0.1455,-0.0368,13.94,-31.81,12.63,60.56,-80.09,178.36
52.203125,-2.197729,120.81,8.87,2,244.31,22 / 23,13371710,2020-01-08 15:58:15:304,0.7655,-0.6099,9.743,-0.0285,-0.0029,9.8066,-0.0351,-0.0466,-0.0611,13.63,-32.81,12.75,61.61,-80,178.64
52.203125,-2.197729,120.81,8.87,2,244.31,22 / 23,13371810,2020-01-08 15:58:15:404,1.9551,-0.8777,9.2091,-0.0132,-0.0081,9.8066,-0.1083,-0.0535,-0.0691,13.38,-32.87,12.44,62.77,-80.06,178.29
52.203125,-2.197729,120.81,8.87,2,244.31,22 / 23,13371910,2020-01-08 15:58:15:504,-1.0042,2.9187,9.1452,0.0069,-0.0499,9.8065,-0.0853,-0.3217,0.2793,13.44,-32.94,13.06,58.02,-80.06,177.23
52.203125,-2.197729,120.81,8.87,2,244.31,22 / 23,13372010,2020-01-08 15:58:15:604,1.4874,-1.1595,10.6316,0.0205,-0.0418,9.8065,-0.0879,-0.1169,0.2453,12.69,-33,12.19,60.68,-80.26,176.87
52.203125,-2.197729,120.81,8.87,2,244.31,22 / 23,13372109,2020-01-08 15:58:15:703,-0.0299,-1.8662,8.8582,-0.0208,-0.0196,9.8066,-0.0026,0.0148,0.0549,13.38,-33.94,12.31,62.81,-80.33,178.3
52.203125,-2.197729,120.81,8.87,2,244.31,22 / 23,13372210,2020-01-08 15:58:15:804,-0.6903,0.8538,10.6443,0.0277,-0.0003,9.8065,0.1681,-0.0959,0.1116,12.56,-33,13.06,59.52,-80.2,178.71
52.203125,-2.197729,120.81,8.87,2,244.31,22 / 23,13372310,2020-01-08 15:58:15:904,-0.2015,-0.3545,10.2598,-0.0252,0.0303,9.8065,0.0195,0.0261,-0.1591,12.81,-33.37,11.94,63.56,-80.17,179.15
52.203125,-2.197729,120.81,8.87,2,244.31,22 / 22,13372410,2020-01-08 15:58:16:004,0.6375,-0.2758,9.9426,0,0.0254,9.8066,-0.0065,-0.0327,-0.1,12.63,-32.81,12.63,59.07,-80.07,178.12
52.203125,-2.197729,120.81,8.87,2,244.31,22 / 22,13372510,2020-01-08 15:58:16:104,-0.8674,1.6153,9.7186,0.0109,-0.0163,9.8066,-0.0967,-0.1797,0.1502,11.88,-32.87,12.25,60.31,-80.24,178.12
52.203125,-2.197729,120.81,8.87,2,244.31,22 / 22,13372610,2020-01-08 15:58:16:204,0.689,-2.4725,10.7576,-0.0032,-0.0561,9.8064,-0.1849,-0.16,0.1611,12.38,-33.19,11.94,58.43,-80.45,176.95
52.203125,-2.197729,120.81,8.87,2,244.31,22 / 22,13372710,2020-01-08 15:58:16:304,0.6729,0.5112,10.5615,0.0255,-0.0321,9.8065,-0.0796,-0.2151,0.1909,11.94,-32.62,12.38,57.94,-80.66,176.94
52.203125,-2.197729,120.81,8.87,2,244.31,22 / 22,13372809,2020-01-08 15:58:16:403,2.1807,2.2308,9.1216,0.0194,-0.0406,9.8065,0.0525,-0.134,0.3267,13.13,-32.25,13.63,53.72,-80.74,177.83
52.203125,-2.197729,120.81,8.87,2,244.31,22 / 22,13372910,2020-01-08 15:58:16:504,0.1288,1.1987,10.6604,-0.0064,0.0592,9.8064,0.1382,0.1749,-0.1483,13.75,-31.81,13.63,57.69,-80.62,179.35
52.203125,-2.197729,120.81,8.87,2,244.31,22 / 22,13373010,2020-01-08 15:58:16:604,-0.7714,1.1199,9.7386,-0.0094,0.0267,9.8065,0.1096,-0.0648,-0.0298,13.75,-32.06,12.75,61.58,-80.38,179.71
52.203125,-2.197729,120.81,8.87,2,244.31,22 / 22,13373110,2020-01-08 15:58:16:704,0.0418,-0.1031,10.3347,0.0207,0.0539,9.8065,0.0241,0.0293,-0.0265,14.38,-31.56,12.5,62.73,-80.5,-179.1
52.203125,-2.197729,120.81,8.87,2,244.31,22 / 22,13373210,2020-01-08 15:58:16:804,1.3675,-0.0811,9.6,0.0234,0.011,9.8066,-0.0665,-0.1313,0.1335,13.38,-32.31,11.56,64.5,-80.9,-178.2
52.203125,-2.197729,120.81,8.87,2,244.31,22 / 22,13373310,2020-01-08 15:58:16:904,0.7697,-0.4301,9.8928,0.0101,-0.0088,9.8066,-0.0541,-0.1301,0.1307,13.5,-32.06,11.25,69.69,-81.01,-177.84
52.203125,-2.197729,120.81,8.87,2,244.31,23 / 23,13373410,2020-01-08 15:58:17:004,0.507,0.1425,10.2509,-0.0073,-0.001,9.8066,0.0217,-0.1402,0.0672,12.56,-33,10.94,69.14,-80.98,-177.55
52.203125,-2.197729,120.81,8.87,2,244.31,23 / 23,13373509,2020-01-08 15:58:17:103,0.2892,1.3494,9.8526,-0.0166,0.0078,9.8066,0.0086,-0.0295,0.0294,11.81,-33,11,67.3,-80.99,-177.67
52.203125,-2.197729,120.81,8.87,2,244.31,23 / 23,13373610,2020-01-08 15:58:17:204,0.262,0.0696,10.0698,-0.0074,-0.0042,9.8065,0.1018,-0.1334,0.0657,12,-32.87,12.13,64.22,-80.8,-177.51
52.203125,-2.197729,120.81,8.87,2,244.31,23 / 23,13373709,2020-01-08 15:58:17:303,1.3265,0.6016,10.1226,-0.0097,0.003,9.8066,0.0681,-0.0206,-0.0219,12.25,-33.44,12.56,60.87,-80.8,-177.4
52.203125,-2.197729,120.81,8.87,2,244.31,23 / 23,13373810,2020-01-08 15:58:17:404,-0.154,0.1433,9.669,-0.0073,-0.0122,9.8066,-0.0367,0.0516,0.0194,11.69,-33,12.13,64.87,-80.74,-177.07
52.203125,-2.197729,120.81,8.87,2,244.31,23 / 23,13373910,2020-01-08 15:58:17:504,0.8958,0.3006,9.9957,0.0084,-0.0085,9.8066,0.0242,0.0132,-0.1037,12.19,-33.31,11.56,64.63,-80.75,-177.26
52.203125,-2.197729,120.81,8.87,2,244.31,23 / 23,13374009,2020-01-08 15:58:17:603,0.0984,0.1282,9.6584,0.0072,0.0005,9.8066,-0.0954,-0.0204,0.0309,12.44,-32.12,12.06,63.94,-80.89,-177.08
52.203125,-2.197729,120.81,8.87,2,244.31,23 / 23,13374110,2020-01-08 15:58:17:704,1.1711,0.7817,8.7394,0.0185,0.0087,9.8066,-0.0568,-0.0253,-0.0418,11.88,-33.12,11.75,63.22,-81.04,-177.9
52.203125,-2.197729,120.81,8.87,2,244.31,23 / 23,13374209,2020-01-08 15:58:17:803,2.6069,0.6006,10.2071,0.0178,-0.0125,9.8066,-0.0449,-0.0569,-0.0202,12.25,-32.94,11.69,62.64,-81.06,-178.37
52.203125,-2.197729,120.81,8.87,2,244.31,23 / 23,13374310,2020-01-08 15:58:17:904,1.1418,1.4718,10.4105,0.0191,0.0183,9.8065,-0.0758,-0.2162,0.1444,12.44,-33.25,11.63,61.58,-81.14,-179.12
52.20295,-2.198977,120.86,9.89,2,260.33,23 / 23,13374409,2020-01-08 15:58:18:003,1.2061,-0.7295,9.3746,-0.026,0.0298,9.8065,-0.0338,-0.0233,0.1135,11.88,-33.44,12.5,59.03,-81.09,-178.45
52.20295,-2.198977,120.86,9.89,2,260.33,23 / 23,13374510,2020-01-08 15:58:18:104,0.5492,1.5531,8.5922,0.0194,0.0191,9.8065,-0.0882,-0.2186,0.0642,12.31,-33.87,12.31,62.12,-80.95,-179.52
52.20295,-2.198977,120.86,9.89,2,260.33,23 / 23,13374609,2020-01-08 15:58:18:203,1.7686,-0.1986,9.9605,0.0168,0.0429,9.8065,-0.0967,-0.082,0.0831,12.81,-33.56,11.88,63.81,-81.3,-179.01
52.20295,-2.198977,120.86,9.89,2,260.33,23 / 23,13374710,2020-01-08 15:58:18:304,1.1027,3.3357,8.315,0.0155,0.0288,9.8065,-0.1662,-0.2989,0.1335,11.94,-33.81,11.88,60.39,-81.54,-179.85
52.20295,-2.198977,120.86,9.89,2,260.33,23 / 23,13374810,2020-01-08 15:58:18:404,2.1586,-1.4975,10.0107,0.0195,0.0759,9.8062,-0.0143,-0.1781,0.0202,12.69,-33.31,11.88,63.35,-81.83,-177.99
52.20295,-2.198977,120.86,9.89,2,260.33,23 / 23,13374910,2020-01-08 15:58:18:504,0.3138,0.0811,10.2082,-0.0426,0.018,9.8065,0.1147,-0.2691,0.3279,12.06,-32.87,11,64.77,-81.68,-178.47
52.20295,-2.198977,120.86,9.89,2,260.33,23 / 23,13375009,2020-01-08 15:58:18:603,2.1149,-2.0402,8.5219,-0.0511,0.0131,9.8064,0.0132,-0.1453,0.2601,12.69,-32.75,11.19,65.48,-81.59,-179.6
52.20295,-2.198977,120.86,9.89,2,260.33,23 / 23,13375110,2020-01-08 15:58:18:704,-0.1909,1.9837,9.6282,-0.0163,0.0353,9.8065,0.0886,-0.2891,0.1373,11.44,-33.12,10.75,61.37,-81.68,-179.65
52.20295,-2.198977,120.86,9.89,2,260.33,23 / 23,13375210,2020-01-08 15:58:18:804,1.426,0.9223,9.1754,-0.0256,0.0409,9.8065,0.0673,-0.136,0.2742,11.44,-33.44,11.38,62.24,-81.75,-178.76
52.20295,-2.198977,120.86,9.89,2,260.33,21 / 22,13375310,2020-01-08 15:58:18:904,-2.1594,3.3191,12.2546,0.0078,0.0098,9.8066,0.1784,-0.5732,0.0268,11.25,-32.87,11.75,61.84,-82.03,-175.37
52.20295,-2.198977,120.86,9.89,2,260.33,21 / 22,13375409,2020-01-08 15:58:19:003,2.4835,-0.9937,9.4383,-0.0692,0.0011,9.8064,-0.209,0.5258,-0.3002,11.19,-33.87,12.13,64.38,-81.93,-173.82
52.20295,-2.198977,120.86,9.89,2,260.33,21 / 22,13375510,2020-01-08 15:58:19:104,2.173,-2.1502,8.4275,0.0331,-0.0283,9.8065,0.0913,-0.0309,0.0057,11.19,-33.69,12.69,59.65,-81.98,-174.85
52.20295,-2.198977,120.86,9.89,2,260.33,21 / 22,13375609,2020-01-08 15:58:19:203,3.8398,-6.8645,9.6283,0.0124,0.0194,9.8066,-0.1791,0.8267,-0.6613,13.13,-32.87,13.38,62.13,-81.79,-176.32
52.20295,-2.198977,120.86,9.89,2,260.33,21 / 22,13375710,2020-01-08 15:58:19:304,2.6937,0.7765,7.7101,0.1007,-0.0743,9.8058,-0.2632,0.1094,-0.0007,13.63,-32.69,12.31,67.75,-81.69,-175.85
52.20295,-2.198977,120.86,9.89,2,260.33,21 / 22,13375810,2020-01-08 15:58:19:404,-1.3435,4.7927,11.0312,0.036,0.0523,9.8064,-0.0301,0.8407,-0.3935,13.88,-32.12,12.69,60.6,-82.15,-178.34
52.20295,-2.198977,120.86,9.89,2,260.33,21 / 22,13375910,2020-01-08 15:58:19:504,1.9041,0.4764,8.2708,0.0317,-0.0671,9.8063,-0.1381,0.598,-0.3484,13.44,-32.62,10.81,61.25,-82.17,177.77
52.20295,-2.198977,120.86,9.89,2,260.33,21 / 22,13376010,2020-01-08 15:58:19:604,-0.1455,4.0344,10.9311,0.0696,-0.0193,9.8064,0.2141,0.4506,-0.3588,13.69,-32.69,12.19,60.03,-82.32,178.36
52.20295,-2.198977,120.86,9.89,2,260.33,21 / 22,13376110,2020-01-08 15:58:19:704,2.8941,-3.6286,10.9449,-0.0098,-0.0651,9.8064,0.0224,0.5862,-0.2843,12.81,-33.19,11.88,59.94,-82.26,179.77
52.20295,-2.198977,120.86,9.89,2,260.33,21 / 22,13376210,2020-01-08 15:58:19:804,0.8168,2.5602,10.3338,0.0177,-0.0431,9.8065,0.1281,0.176,-0.0263,12.81,-33.62,13,55.4,-82.09,177.97
52.20295,-2.198977,120.86,9.89,2,260.33,23 / 23,13376310,2020-01-08 15:58:19:904,3.3634,-2.1909,10.2981,-0.0025,-0.0323,9.8066,0.1007,0.4082,-0.3075,12.38,-33.25,12.13,56.61,-82.06,178.32
52.20295,-2.198977,120.86,9.89,2,260.33,23 / 23,13376409,2020-01-08 15:58:20:003,2.225,2.1147,8.4513,0.0001,-0.0416,9.8065,-0.0595,-0.035,0.0212,12.44,-33.19,12.88,53.24,-81.96,178.11
52.20295,-2.198977,120.86,9.89,2,260.33,23 / 23,13376510,2020-01-08 15:58:20:104,3.7799,1.4803,9.3429,0.0036,0.0412,9.8065,0.0023,0.1141,0.0649,12.25,-33.44,13.13,53.18,-81.85,177.89
52.20295,-2.198977,120.86,9.89,2,260.33,23 / 23,13376609,2020-01-08 15:58:20:203,4.401,-1.2083,11.055,0.0049,0.0322,9.8065,-0.1331,-0.03,0.1308,12.13,-33.19,13.44,54.78,-81.96,179.42
52.20295,-2.198977,120.86,9.89,2,260.33,23 / 23,13376709,2020-01-08 15:58:20:303,3.4541,-0.0983,9.4374,-0.02,0.0298,9.8066,-0.0545,0.0661,0.1134,12.5,-33.62,13.31,59.48,-81.98,-178.71
52.20295,-2.198977,120.86,9.89,2,260.33,23 / 23,13376810,2020-01-08 15:58:20:404,2.7546,-0.0896,10.4101,-0.0061,0.0055,9.8066,0.0242,0.0081,0.1046,12.06,-33.5,14.25,53.07,-81.92,-179.48
52.20295,-2.198977,120.86,9.89,2,260.33,23 / 23,13376910,2020-01-08 15:58:20:504,1.6334,3.5031,8.5937,-0.0013,0.0288,9.8066,-0.0409,-0.0067,0.0965,12.19,-33,14.81,48.93,-81.7,179.13
52.20295,-2.198977,120.86,9.89,2,260.33,23 / 23,13377010,2020-01-08 15:58:20:604,1.9567,0.722,10.3871,-0.0194,0.037,9.8065,0.0246,-0.2055,0.337,12,-32.94,16,46.71,-81.57,179.33
52.20295,-2.198977,120.86,9.89,2,260.33,23 / 23,13377109,2020-01-08 15:58:20:703,2.3849,0.9912,8.9044,-0.0417,0.0264,9.8064,-0.0644,-0.0357,0.0966,11.56,-32.44,16.75,40.61,-81.33,176.34
52.20295,-2.198977,120.86,9.89,2,260.33,23 / 23,13377210,2020-01-08 15:58:20:804,5.5601,-1.6281,9.2501,0.013,0.0129,9.8065,0.073,0.2782,-0.029,11.81,-31.94,18.38,38.71,-81.33,176.65
52.20295,-2.198977,120.86,9.89,2,260.33,21 / 23,13377310,2020-01-08 15:58:20:904,3.0699,0.1978,9.4158,0.0028,-0.0175,9.8066,0.0035,0.2035,0.0087,11.31,-32.5,19.31,33.5,-81.43,176.23
52.20295,-2.198977,120.86,9.89,2,260.33,21 / 23,13377409,2020-01-08 15:58:21:003,5.859,-1.0299,9.4917,-0.0322,0.0243,9.8065,0.0316,0.516,-0.0193,10.69,-31.44,19.63,33.7,-81.44,178.13
52.20295,-2.198977,120.86,9.89,2,260.33,21 / 23,13377510,2020-01-08 15:58:21:104,5.4679,-1.2155,9.8222,-0.0244,0.0028,9.8066,0.0358,0.439,-0.0077,10.75,-31.62,20.06,34.75,-81.65,178.97
52.20295,-2.198977,120.86,9.89,2,260.33,21 / 23,13377610,2020-01-08 15:58:21:204,6.7653,-0.7043,9.6109,-0.0275,0.0323,9.8065,0.0105,0.7115,-0.1493,9.56,-32.31,21.56,34,-81.7,-176.88
52.20295,-2.198977,120.86,9.89,2,260.33,21 / 23,13377710,2020-01-08 15:58:21:304,4.4607,0.4336,10.0894,-0.0084,0.005,9.8066,0.0291,0.5552,0.0144,9,-31.56,22,33.94,-81.85,-174.72
52.20295,-2.198977,120.86,9.89,2,260.33,21 / 23,13377810,2020-01-08 15:58:21:404,4.0318,0.6323,9.0723,-0.0216,0.0137,9.8066,0.1034,0.7959,-0.122,8.13,-32.19,22.13,34.42,-81.95,-172.05
52.20295,-2.198977,120.86,9.89,2,260.33,21 / 23,13377910,2020-01-08 15:58:21:504,3.2576,0.2849,9.1417,-0.0114,-0.0161,9.8066,0.0783,0.6514,-0.0289,7.63,-31.87,22.81,36.66,-81.82,-169.23
52.20295,-2.198977,120.86,9.89,2,260.33,21 / 23,13378010,2020-01-08 15:58:21:604,3.6625,-0.0907,8.8733,-0.0242,0.0137,9.8066,0.0705,0.7432,-0.0913,6.31,-32.5,23.94,33.89,-81.87,-166.29
52.20295,-2.198977,120.86,9.89,2,260.33,21 / 23,13378111,2020-01-08 15:58:21:705,4.4033,-0.5278,9.3361,0.0096,0.0058,9.8066,-0.0338,0.6975,-0.1368,6.13,-31.94,23.69,35.34,-81.96,-164.99
52.20295,-2.198977,120.86,9.89,2,260.33,21 / 23,13378209,2020-01-08 15:58:21:803,3.4896,-0.2735,11.1813,0.0363,0.0188,9.8066,0.0893,0.9285,-0.3087,5,-31.94,24.81,31.08,-82.2,-165.52
52.20295,-2.198977,120.86,9.89,2,260.33,21 / 22,13378310,2020-01-08 15:58:21:904,6.1431,-0.5674,10.1575,0.0595,-0.0354,9.8064,0.0076,0.8749,-0.304,4.5,-32,25.56,30.21,-82.32,-165.58
52.20295,-2.198977,120.86,9.89,2,260.33,21 / 22,13378410,2020-01-08 15:58:22:004,2.0974,1.9213,10.3487,0.0275,0.0041,9.8065,0.0677,0.8894,-0.2196,3.94,-31.87,26.44,24.99,-82.46,-167.82
52.20295,-2.198977,120.86,9.89,2,260.33,21 / 22,13378509,2020-01-08 15:58:22:103,2.7444,1.3477,9.0396,0.0226,-0.0038,9.8066,-0.0307,0.8212,-0.2146,3,-31.44,26.25,22.64,-82.33,-167.62
52.20295,-2.198977,120.86,9.89,2,260.33,21 / 22,13378609,2020-01-08 15:58:22:203,0.2389,0.432,10.0623,0.0051,-0.0025,9.8066,0.1066,0.7708,-0.2175,1.44,-30.69,28.25,19.2,-81.99,-165.92
52.20295,-2.198977,120.86,9.89,2,260.33,21 / 22,13378710,2020-01-08 15:58:22:304,3.1626,0.283,9.7908,0.0091,-0.0265,9.8065,0.0238,0.7242,-0.1367,0.56,-30.75,28.44,21.57,-81.69,-164.06
52.20295,-2.198977,120.86,9.89,2,260.33,21 / 22,13378810,2020-01-08 15:58:22:404,0.2025,-1.2242,10.2885,0.0006,-0.0052,9.8066,0.0907,0.4847,-0.1069,-1,-30.5,28.94,17.17,-81.38,-163.67
52.20295,-2.198977,120.86,9.89,2,260.33,21 / 22,13378910,2020-01-08 15:58:22:504,0.5664,0.3107,9.9198,-0.0037,0.0003,9.8065,-0.0033,0.4458,-0.0338,-1.12,-30.44,28.88,17.91,-81.08,-163.15
52.20295,-2.198977,120.86,9.89,2,260.33,21 / 22,13379010,2020-01-08 15:58:22:604,1.1503,-0.7399,10.0254,-0.0017,0.013,9.8066,0.0204,0.1743,0.0143,-1.56,-30,29.38,15.8,-81.16,-162.91
52.20295,-2.198977,120.86,9.89,2,260.33,21 / 22,13379110,2020-01-08 15:58:22:704,0.7634,-1.098,9.6642,0.0027,-0.0001,9.8066,-0.0203,0.1625,-0.021,-1.75,-29.56,29.63,14.87,-81.16,-163.74
52.20295,-2.198977,120.86,9.89,2,260.33,21 / 22,13379210,2020-01-08 15:58:22:804,1.1791,-0.864,10.2271,0.0016,-0.0006,9.8066,0.076,-0.0576,0.024,-2.19,-29.5,28.81,13.34,-81.12,-164.9
52.20295,-2.198977,120.86,9.89,2,260.33,22 / 22,13379310,2020-01-08 15:58:22:904,-1.446,-1.294,10.3672,-0.0072,-0.0224,9.8065,0.0407,-0.0416,0.0702,-2.94,-29.37,28.75,8.04,-81.06,-167.39
52.20295,-2.198977,120.86,9.89,2,260.33,22 / 22,13379410,2020-01-08 15:58:23:004,0.4215,-0.4528,10.3526,0.0079,-0.011,9.8065,0.0482,-0.046,0.0103,-3.62,-29.62,29.5,4.06,-80.88,-169.03
52.20295,-2.198977,120.86,9.89,2,260.33,22 / 22,13379510,2020-01-08 15:58:23:104,-1.4563,-0.1433,9.5554,0.0202,-0.0041,9.8066,-0.0143,-0.0975,0.0014,-3.19,-28.81,30.06,3.74,-80.87,-171.17
52.20295,-2.198977,120.86,9.89,2,260.33,22 / 22,13379610,2020-01-08 15:58:23:204,1.8183,-0.451,9.79,0.0234,-0.0002,9.8065,0.0743,0.0042,-0.1288,-3.87,-28.94,29.75,357.29,-80.83,-174.66
52.20295,-2.198977,120.86,9.89,2,260.33,22 / 22,13379710,2020-01-08 15:58:23:304,-1.6798,-0.5829,9.9719,0.0403,-0.0214,9.8065,0.0296,-0.2619,0.1084,-3,-28.81,30.44,354.11,-80.57,-179.17
52.20295,-2.198977,120.86,9.89,2,260.33,22 / 22,13379810,2020-01-08 15:58:23:404,4.4463,-1.4619,10.2639,-0.0177,-0.0173,9.8065,-0.004,0.1761,-0.1378,-2.69,-28.62,30.81,352.56,-80.39,179.35
52.20295,-2.198977,120.86,9.89,2,260.33,22 / 22,13379909,2020-01-08 15:58:23:503,1.5253,-1.1999,9.2949,0.0198,-0.0062,9.8066,-0.0066,-0.1731,0.1303,-2.94,-28.81,31.31,350.29,-80.21,177.49
52.20295,-2.198977,120.86,9.89,2,260.33,22 / 22,13380010,2020-01-08 15:58:23:604,2.8355,-1.5681,9.7952,-0.0238,-0.0029,9.8066,-0.101,0.2027,-0.1273,-2.5,-28.69,31.44,351.95,-80.05,177.05
52.20295,-2.198977,120.86,9.89,2,260.33,22 / 22,13380110,2020-01-08 15:58:23:704,-0.7802,-0.7379,9.1429,0.0014,0.0283,9.8066,-0.1429,-0.0154,0.0769,-2.06,-28.19,31.19,350.88,-79.88,176.15
52.20295,-2.198977,120.86,9.89,2,260.33,22 / 22,13380210,2020-01-08 15:58:23:804,1.2847,-1.4472,11.3523,-0.0132,0.0305,9.8066,-0.1162,0.0814,-0.0521,-2.69,-27.75,30.56,347.64,-80.02,175.27
52.20295,-2.198977,120.86,9.89,2,260.33,22 / 22,13380310,2020-01-08 15:58:23:904,3.1088,-1.3341,9.4664,-0.0079,0.0437,9.8065,-0.2411,0.0236,0.06,-2.81,-28,30,344.52,-79.99,172.93
52.20295,-2.198977,120.86,9.89,2,260.33,22 / 22,13380410,2020-01-08 15:58:24:004,-0.616,-0.3218,11.919,0.0566,0.0336,9.8064,0.0573,0.4189,-0.0636,-2.69,-28.44,30.88,341.41,-80.14,170.01
52.20295,-2.198977,120.86,9.89,2,260.33,22 / 22,13380509,2020-01-08 15:58:24:103,6.6946,-0.321,11.1929,0.0416,-0.0548,9.8064,0.1367,0.6003,-0.4537,-4.25,-27.37,30.56,340.69,-80.04,171.15
52.20295,-2.198977,120.86,9.89,2,260.33,22 / 22,13380610,2020-01-08 15:58:24:204,1.141,-0.2773,9.5142,0.0405,-0.037,9.8065,0.1238,-0.0612,0.0251,-4.12,-26.31,31.25,341.37,-79.52,171.78
52.20295,-2.198977,120.86,9.89,2,260.33,22 / 22,13380710,2020-01-08 15:58:24:304,-0.2625,1.0886,10.7167,-0.0064,-0.0486,9.8065,0.1593,-0.0622,0.0946,-4.81,-25.94,32.44,342.05,-78.87,173.99
52.20295,-2.198977,120.86,9.89,2,260.33,22 / 22,13380810,2020-01-08 15:58:24:404,5.2374,-2.0796,11.5416,-0.0219,-0.0071,9.8066,-0.1336,0.2729,-0.1214,-4.94,-25.87,32.38,341.38,-78.55,173.53
52.20295,-2.198977,120.86,9.89,2,260.33,22 / 22,13380910,2020-01-08 15:58:24:504,2.8606,-1.23,8.6861,0.0041,0.0493,9.8064,-0.3364,-0.016,0.13,-3.19,-25.75,32.38,343.96,-78.65,172.14
52.20295,-2.198977,120.86,9.89,2,260.33,22 / 22,13381010,2020-01-08 15:58:24:604,5.5789,-0.8037,13.5364,-0.0514,0.0805,9.8061,0.2465,0.6321,-0.3053,-4.06,-26.5,31.75,342.57,-78.73,172.72
52.20295,-2.198977,120.86,9.89,2,260.33,22 / 22,13381110,2020-01-08 15:58:24:704,3.3741,-1.5156,9.8481,0.0671,-0.0889,9.806,0.0266,0.3185,-0.11,-4.06,-27.25,31.63,343.34,-78.57,173.51
52.20295,-2.198977,120.86,9.89,2,260.33,22 / 22,13381210,2020-01-08 15:58:24:804,-3.8123,-0.1216,6.3714,0.0242,-0.0391,9.8065,0.4606,0.6859,-0.4187,-4.25,-28,31.38,342.97,-77.96,173.82
52.20295,-2.198977,120.86,9.89,2,260.33,22 / 22,13381310,2020-01-08 15:58:24:904,5.8286,-1.4364,10.8943,0.1029,-0.062,9.8059,0.3215,0.479,-0.3552,-5.69,-27.5,32.19,338.53,-77.25,173.49
52.20295,-2.198977,120.86,9.89,2,260.33,22 / 22,13381410,2020-01-08 15:58:25:004,2.0852,-1.6751,9.6172,0.0477,-0.088,9.8061,0.1839,0.7166,-0.2798,-5.56,-27.19,31.88,339.83,-77.12,174.59
52.20295,-2.198977,120.86,9.89,2,260.33,22 / 22,13381510,2020-01-08 15:58:25:104,6.1924,-0.7391,12.3673,0.0555,-0.0104,9.8064,0.2475,0.5664,-0.4161,-6.87,-27.56,32,339.24,-77.35,175.86
52.20295,-2.198977,120.86,9.89,2,260.33,22 / 22,13381610,2020-01-08 15:58:25:204,-1.1225,-1.8812,9.9217,0.0413,-0.0699,9.8063,-0.0358,0.4491,-0.1196,-7,-28.31,32.44,339.24,-77.04,175.98
52.20295,-2.198977,120.86,9.89,2,260.33,22 / 22,13381709,2020-01-08 15:58:25:303,3.1443,-0.713,11.7529,-0.0262,-0.0027,9.8065,0.1968,0.5099,-0.2143,-7.69,-28.5,32.75,339.47,-77.13,177.28
52.20295,-2.198977,120.86,9.89,2,260.33,22 / 22,13381810,2020-01-08 15:58:25:404,-2.4221,-1.8334,9.3011,0.0433,-0.0602,9.8063,-0.1485,0.1452,0.0161,-8.06,-27.75,33.69,342.38,-76.79,179.24
52.20295,-2.198977,120.86,9.89,2,260.33,22 / 22,13381910,2020-01-08 15:58:25:504,1.1729,-1.7709,10.583,-0.0117,-0.0167,9.8066,0.1773,0.2579,-0.1334,-7.56,-28.06,33,344.34,-76.85,-178.73
52.20295,-2.198977,120.86,9.89,2,260.33,22 / 22,13382010,2020-01-08 15:58:25:604,-1.5085,1.2344,8.8763,-0.0033,-0.029,9.8066,-0.0551,-0.0165,0.0754,-8.25,-28.5,32.94,346.07,-76.69,-177.32
52.20295,-2.198977,120.86,9.89,2,260.33,22 / 22,13382110,2020-01-08 15:58:25:704,0.1345,-1.4034,11.0755,-0.0358,-0.0137,9.8065,0.0822,0.0968,0.013,-8.37,-27.94,33.5,348.94,-76.8,-175.52
52.20295,-2.198977,120.86,9.89,2,260.33,22 / 22,13382210,2020-01-08 15:58:25:804,-1.5496,-2.3726,10.6624,0.0126,-0.047,9.8065,-0.0088,-0.0386,0.1627,-8.62,-28.31,33,348.61,-76.44,-173.65
52.20295,-2.198977,120.86,9.89,2,260.33,22 / 22,13382310,2020-01-08 15:58:25:904,-1.1968,-2.5371,10.6527,0.0262,-0.0044,9.8066,0.0732,0.1278,-0.3248,-7.94,-27.56,32.75,350.94,-76.31,-173.42
52.20295,-2.198977,120.86,9.89,2,260.33,22 / 22,13382410,2020-01-08 15:58:26:004,-1.3828,-0.7709,8.3388,0.0581,-0.019,9.8064,0.0525,-0.1056,-0.1932,-7.56,-28,33.5,351.15,-76.03,-173.64
52.20295,-2.198977,120.86,9.89,2,260.33,22 / 22,13382510,2020-01-08 15:58:26:104,-2.8229,-2.2778,14.2008,0.0206,-0.0405,9.8065,0.3703,-0.4952,0.207,-7.44,-28.06,34.06,352.24,-76,-174.39
52.20295,-2.198977,120.86,9.89,2,260.33,22 / 22,13382610,2020-01-08 15:58:26:204,6.4436,-1.069,10.8888,-0.05,-0.1285,9.8056,-0.357,-0.6425,0.7561,-6.44,-27.81,33.13,354.12,-75.72,-174.19
52.20295,-2.198977,120.86,9.89,2,260.33,22 / 22,13382711,2020-01-08 15:58:26:305,1.6249,2.8255,10.3987,-0.1619,0.0808,9.8049,-0.1751,-0.3765,0.1821,-6.5,-27,33.81,351.63,-75.77,-176.51
52.20295,-2.198977,120.86,9.89,2,260.33,22 / 22,13382810,2020-01-08 15:58:26:404,-3.3866,0.5571,12.3867,-0.0018,0.0334,9.8065,-0.0405,-0.3393,0.2856,-5.56,-27.37,34.06,355.16,-75.95,-173.77
52.20295,-2.198977,120.86,9.89,2,260.33,22 / 22,13382910,2020-01-08 15:58:26:504,-3.2799,0.5093,9.2489,0.011,0.0288,9.8065,-0.2381,-0.0402,-0.0543,-6.5,-26.75,34.5,355.64,-75.62,-173.67
52.20295,-2.198977,120.86,9.89,2,260.33,22 / 22,13383010,2020-01-08 15:58:26:604,-2.9995,-2.8786,10.8293,-0.0059,0.0246,9.8065,0.0878,-0.4964,0.2388,-6.06,-26.69,35.19,355.23,-75.78,-174.01
52.20295,-2.198977,120.86,9.89,2,260.33,22 / 22,13383110,2020-01-08 15:58:26:704,-3.1165,0.282,8.7576,-0.0187,-0.0035,9.8065,-0.0659,-0.3194,0.1025,-6.37,-26.94,34.38,353.39,-75.7,-175.13
52.20295,-2.198977,120.86,9.89,2,260.33,22 / 22,13383209,2020-01-08 15:58:26:803,2.2132,2.0695,9.1067,-0.0053,0.0408,9.8065,0.0361,-0.6514,0.1277,-6.12,-27.44,34.25,352.94,-76.03,-175.51
52.202587,-2.199398,120.79,7.41,3,176.76,22 / 22,13383309,2020-01-08 15:58:26:903,-2.1865,1.3934,9.5307,-0.0249,-0.0317,9.8065,0.1313,-0.6112,0.4064,-6.37,-27.19,33.69,351.52,-76.16,-176.64
52.202587,-2.199398,120.79,7.41,3,176.76,22 / 22,13383410,2020-01-08 15:58:27:004,2.3671,-0.2275,9.2258,0.0224,0.0048,9.8065,0.041,0.4608,-0.2891,-5.69,-27.75,33.63,350.15,-76.02,-177.63
52.202587,-2.199398,120.79,7.41,3,176.76,22 / 22,13383510,2020-01-08 15:58:27:104,-7.6915,0.3258,7.9239,0.0172,0.0432,9.8065,0.1535,-0.2524,0.3098,-5.62,-27.87,33.38,348.96,-75.81,-178.16
52.202587,-2.199398,120.79,7.41,3,176.76,22 / 22,13383610,2020-01-08 15:58:27:204,-0.0313,-0.3686,10.719,-0.0954,0.0636,9.8059,0.2413,0.5454,-0.597,-5.12,-28.25,33.44,351.69,-76.2,-177.8
52.202587,-2.199398,120.79,7.41,3,176.76,22 / 22,13383710,2020-01-08 15:58:27:304,-4.0728,1.1906,7.8469,0.0079,-0.0062,9.8065,-0.2121,-0.3041,-0.0375,-4.81,-28.25,33,348.1,-76,179.46
52.202587,-2.199398,120.79,7.41,3,176.76,22 / 22,13383809,2020-01-08 15:58:27:403,4.6555,1.1103,9.952,-0.0311,0.036,9.8065,-0.0886,0.4842,-0.2337,-4.62,-27.31,33.13,346.68,-76.39,178.17
52.202587,-2.199398,120.79,7.41,3,176.76,22 / 22,13383910,2020-01-08 15:58:27:504,3.8983,-1.7282,12.476,0.0705,-0.0869,9.806,-0.3209,-0.6685,0.51,-4.37,-27.69,32.38,348.22,-76.36,178.06
52.202587,-2.199398,120.79,7.41,3,176.76,22 / 22,13384010,2020-01-08 15:58:27:604,10.124,1.079,11.1794,0.0148,-0.0069,9.8065,-0.0546,0.3377,0.0452,-3.56,-27,31.81,347.42,-76.06,177.42
52.202587,-2.199398,120.79,7.41,3,176.76,22 / 22,13384110,2020-01-08 15:58:27:704,-0.124,1.028,9.6985,0.166,-0.0626,9.805,-0.3018,-1.1494,0.9739,-2.12,-27.37,32.75,353.25,-76.22,178.22
52.202587,-2.199398,120.79,7.41,3,176.76,22 / 22,13384210,2020-01-08 15:58:27:804,-7.4186,2.4083,7.9122,-0.0145,-0.0234,9.8066,-0.1283,-0.34,0.0131,-2.31,-26.56,33.38,350.34,-75.75,176.04
52.202587,-2.199398,120.79,7.41,3,176.76,23 / 23,13384309,2020-01-08 15:58:27:903,-0.7043,0.7029,8.8846,0.0684,-0.0339,9.8063,-0.0731,-0.596,0.3644,-1.69,-26.56,33.94,347.22,-75.57,173.48
52.202587,-2.199398,120.79,7.41,3,176.76,23 / 23,13384410,2020-01-08 15:58:28:004,-2.4077,1.6605,8.8978,0.0396,-0.0033,9.8065,-0.0321,-0.2763,0.2478,-3.5,-26.87,33.56,345.25,-75.59,173.62
52.202587,-2.199398,120.79,7.41,3,176.76,23 / 23,13384509,2020-01-08 15:58:28:103,2.0419,0.2193,11.4604,-0.0094,-0.0279,9.8066,-0.0939,0.0604,-0.1627,-4.62,-27,34.13,341.67,-75.83,174.03
52.202587,-2.199398,120.79,7.41,3,176.76,23 / 23,13384610,2020-01-08 15:58:28:204,-3.4003,0.7816,9.4667,0.0673,-0.0175,9.8063,-0.1535,-0.3468,0.4044,-4.87,-26.94,33.25,340.37,-75.75,173.39
52.202587,-2.199398,120.79,7.41,3,176.76,23 / 23,13384710,2020-01-08 15:58:28:304,3.1837,1.2428,11.0184,0.0365,-0.0043,9.8065,0.0733,0.2313,0.1454,-4.56,-27.56,34,342.49,-75.74,174.83
52.202587,-2.199398,120.79,7.41,3,176.76,23 / 23,13384810,2020-01-08 15:58:28:404,0.1899,1.1122,8.7088,0.0002,-0.068,9.8064,-0.2488,0.0079,0.0454,-4.5,-27.06,34.38,345.71,-75.44,175.67
52.202587,-2.199398,120.79,7.41,3,176.76,23 / 23,13384910,2020-01-08 15:58:28:504,-1.0309,2.0057,11.9146,-0.0099,0.0118,9.8066,0.1769,-0.4078,0.0472,-5.31,-27.31,33,343.73,-75.72,176.03
52.202587,-2.199398,120.79,7.41,3,176.76,23 / 23,13385010,2020-01-08 15:58:28:604,-3.9578,1.3261,9.3132,0.0706,-0.0424,9.8062,0.074,-0.2366,0.3404,-5.31,-27.75,33.5,343.72,-75.45,175.88
52.202587,-2.199398,120.79,7.41,3,176.76,23 / 23,13385110,2020-01-08 15:58:28:704,2.9451,3.5303,6.6903,-0.0218,0.1165,9.8058,0.2744,-0.1812,0.0548,-6.12,-28.06,32.94,341.82,-75.18,176.53
52.202587,-2.199398,120.79,7.41,3,176.76,23 / 23,13385210,2020-01-08 15:58:28:804,-0.5058,-0.1449,10.8303,-0.0124,0.0557,9.8064,0.3273,-0.1214,0.1791,-6.75,-29.06,32.69,339.8,-75.88,176.51
52.202587,-2.199398,120.79,7.41,3,176.76,23 / 23,13385310,2020-01-08 15:58:28:904,0.7061,2.0455,7.5802,-0.0069,-0.1044,9.8061,0.1502,-0.2398,0.2085,-6.12,-28.62,32.88,343.22,-75.45,177.64
52.202587,-2.199398,120.79,7.41,3,176.76,23 / 23,13385410,2020-01-08 15:58:29:004,-3.6613,-0.277,11.5692,-0.0013,-0.0093,9.8066,0.3133,-0.495,0.1074,-6.62,-28.81,33.56,342.11,-75.63,177.93
52.202587,-2.199398,120.79,7.41,3,176.76,23 / 23,13385509,2020-01-08 15:58:29:103,0.116,-1.0214,11.5334,-0.0132,-0.0241,9.8066,-0.2048,0.2869,-0.2499,-7.12,-28.06,32.69,342.46,-75.61,178.53
52.202587,-2.199398,120.79,7.41,3,176.76,23 / 23,13385610,2020-01-08 15:58:29:204,-3.9887,-0.1222,9.3766,-0.0065,0.0339,9.8065,-0.0247,-0.0607,0.1576,-7.31,-29,32.63,342.36,-75.79,178.52
52.202587,-2.199398,120.79,7.41,3,176.76,23 / 23,13385710,2020-01-08 15:58:29:304,3.1125,-0.2307,10.9839,-0.0168,0.0204,9.8066,-0.0551,0.394,-0.4112,-7.31,-28.5,33.31,343.17,-76.01,178.96
52.202587,-2.199398,120.79,7.41,3,176.76,23 / 23,13385810,2020-01-08 15:58:29:404,2.7433,-0.8019,9.2101,-0.0075,0.0318,9.8065,-0.0888,0.0501,0.21,-7.44,-28.87,32.19,342.09,-75.95,178.73
52.202587,-2.199398,120.79,7.41,3,176.76,23 / 23,13385910,2020-01-08 15:58:29:504,0.2632,0.5512,10.0696,-0.0605,0.0255,9.8064,-0.0846,0.3224,0.177,-8.31,-28.31,33.13,341.49,-76.26,179.19
52.202587,-2.199398,120.79,7.41,3,176.76,23 / 23,13386010,2020-01-08 15:58:29:604,2.876,1.255,9.2107,-0.0118,0.0011,9.8066,-0.1312,0.2349,-0.1722,-8.12,-29,32.88,341.85,-76.22,179.61
52.202587,-2.199398,120.79,7.41,3,176.76,23 / 23,13386109,2020-01-08 15:58:29:703,3.5001,0.5814,10.0777,-0.0185,0.0154,9.8066,0.1089,-0.4437,0.0656,-8.25,-28.94,32.13,342.93,-76.23,-179.04
52.202587,-2.199398,120.79,7.41,3,176.76,23 / 23,13386209,2020-01-08 15:58:29:803,2.09,1.2051,7.9189,-0.0669,-0.0537,9.8062,-0.0215,-0.3206,0.5332,-9.12,-28.81,32.69,341.33,-76.17,-179.18
52.202587,-2.199398,120.79,7.41,3,176.76,23 / 23,13386310,2020-01-08 15:58:29:904,7.3803,2.9126,8.2206,-0.0169,-0.0365,9.8065,0.3301,-0.5473,0.4336,-8.56,-28.87,32.44,341.35,-75.86,-178.5
52.202587,-2.199398,120.79,7.41,3,176.76,23 / 23,13386410,2020-01-08 15:58:30:004,-9.3745,-1.415,11.2133,-0.0284,-0.0783,9.8062,0.2294,-1.0845,0.5159,-9.44,-28.37,32.5,345.27,-75.16,-175.94
52.202587,-2.199398,120.79,7.41,3,176.76,23 / 23,13386510,2020-01-08 15:58:30:104,1.9542,3.0217,8.8681,-0.0694,-0.1066,9.8057,-0.1567,0.0636,-0.0887,-9.81,-28.56,32.81,345.23,-74.88,-174.21
52.202587,-2.199398,120.79,7.41,3,176.76,23 / 23,13386610,2020-01-08 15:58:30:204,-8.5427,-4.0621,11.9917,-0.0233,0.0031,9.8065,0.262,-0.8478,0.5726,-9.56,-28.69,32.06,344.27,-75.26,-174.46
52.202587,-2.199398,120.79,7.41,3,176.76,23 / 23,13386710,2020-01-08 15:58:30:304,6.7121,-0.5241,10.7113,-0.0407,0.0089,9.8065,-0.273,0.9473,-0.7001,-9.94,-28.75,32,344.83,-75.58,-174.12
52.202587,-2.199398,120.79,7.41,3,176.76,23 / 23,13386810,2020-01-08 15:58:30:404,8.0845,4.4046,8.5375,0.0912,0.0755,9.8059,-0.127,-0.2193,0.1037,-8.62,-29.19,33.06,348.71,-75.9,-173.38
52.202587,-2.199398,120.79,7.41,3,176.76,23 / 23,13386910,2020-01-08 15:58:30:504,3.42,4.2525,8.02,-0.0388,0.0029,9.8065,-0.1734,0.8699,-0.4236,-9.81,-28.69,31.88,345.13,-76.35,-174.11
52.202587,-2.199398,120.79,7.41,3,176.76,23 / 23,13387009,2020-01-08 15:58:30:603,3.2617,3.2827,7.9094,0.0313,0.0433,9.8065,-0.1307,0.5672,-0.3106,-10,-29.75,32.69,344.09,-76.68,-175.49
52.202587,-2.199398,120.79,7.41,3,176.76,23 / 23,13387110,2020-01-08 15:58:30:704,-8.8551,0.4914,11.3958,0.018,0.0841,9.8062,-0.1046,0.851,-0.7284,-10.37,-29.19,31.44,343.33,-76.89,-175.05
52.202587,-2.199398,120.79,7.41,3,176.76,23 / 23,13387210,2020-01-08 15:58:30:804,-0.4441,2.2287,7.888,0.0764,0.0791,9.806,-0.3382,0.6957,-0.2262,-10.56,-29.69,32.44,344.31,-76.87,-173.2
52.202587,-2.199398,120.79,7.41,3,176.76,23 / 23,13387310,2020-01-08 15:58:30:904,-3.8392,0.3,10.9876,-0.034,0.0717,9.8063,0.2143,0.0536,0.0874,-10.25,-28.75,31.88,344.41,-77.46,-174.99
52.202587,-2.199398,120.79,7.41,3,176.76,22 / 23,13387410,2020-01-08 15:58:31:004,1.127,0.4373,11.4625,0.031,-0.053,9.8064,0.0028,0.395,-0.3162,-11,-29.5,31.31,340.57,-77.48,-175.81
52.202587,-2.199398,120.79,7.41,3,176.76,22 / 23,13387510,2020-01-08 15:58:31:104,-1.6968,1.5429,8.6871,0.0331,0.0114,9.8066,0.0733,-0.213,-0.0373,-10.44,-29.75,31.81,343.34,-77.28,-175.67
52.202587,-2.199398,120.79,7.41,3,176.76,22 / 23,13387610,2020-01-08 15:58:31:204,-1.4906,0.7582,10.4105,-0.0312,0.0077,9.8066,0.0142,-0.0222,0.1336,-10.5,-29.31,31.94,345.81,-77.45,-173.86
52.202587,-2.199398,120.79,7.41,3,176.76,22 / 23,13387710,2020-01-08 15:58:31:304,0.3998,1.8751,10.778,0.0089,0.0111,9.8066,-0.1211,-0.0187,0.0911,-11.12,-29.5,31.56,342.55,-77.44,-174.88
52.202587,-2.199398,120.79,7.41,3,176.76,22 / 23,13387810,2020-01-08 15:58:31:404,0.8702,3.4582,9.2631,-0.0073,0.0212,9.8066,-0.1293,0.1549,-0.0558,-10.44,-30,31.25,343.42,-77.66,-175.12
52.202587,-2.199398,120.79,7.41,3,176.76,22 / 23,13387910,2020-01-08 15:58:31:504,-1.2458,2.0739,9.7059,0.0065,-0.0029,9.8066,-0.1977,-0.0162,0.1028,-10.31,-29.62,30.94,343.06,-77.71,-175.42
52.202587,-2.199398,120.79,7.41,3,176.76,22 / 23,13388010,2020-01-08 15:58:31:604,-2.1081,3.1539,7.95,-0.0529,0.0429,9.8063,-0.0778,0.2157,-0.0707,-10.94,-29.94,30.63,340.57,-77.61,-175.73
52.202587,-2.199398,120.79,7.41,3,176.76,22 / 23,13388110,2020-01-08 15:58:31:704,-4.3978,0.6696,9.6593,0.0239,0.0421,9.8064,-0.093,-0.0251,0.1632,-10.75,-29.75,31.63,341.27,-77.99,-175.98
52.202587,-2.199398,120.79,7.41,3,176.76,22 / 23,13388210,2020-01-08 15:58:31:804,2.4268,1.8235,8.7123,-0.0007,0.0188,9.8065,-0.0717,0.2801,-0.3028,-10,-29.94,30.81,342.53,-78.05,-175.95
52.202587,-2.199398,120.79,7.41,3,176.76,22 / 23,13388310,2020-01-08 15:58:31:904,1.0858,1.116,8.9594,-0.0181,0.0041,9.8066,-0.0037,-0.2538,0.0962,-10.75,-29.75,31.06,340.02,-78.29,-176.42
52.202587,-2.199398,120.79,7.41,3,176.76,22 / 23,13388410,2020-01-08 15:58:32:004,-1.766,2.0002,11.2411,-0.0341,0.0444,9.8064,0.1467,-0.063,0.07,-11.06,-29.94,31.81,342.14,-78.63,-175.48
52.202587,-2.199398,120.79,7.41,3,176.76,22 / 23,13388510,2020-01-08 15:58:32:104,0.6961,3.0428,9.8026,0.0236,0.0225,9.8066,-0.154,-0.2544,0.1983,-10.62,-30.31,29.94,341.64,-78.69,-174.56
52.202587,-2.199398,120.79,7.41,3,176.76,22 / 23,13388609,2020-01-08 15:58:32:203,-1.3338,1.242,9.9462,0.0129,0.0228,9.8066,-0.0383,-0.1909,0.0825,-10.62,-30,30.06,340.78,-78.91,-175.34
52.202587,-2.199398,120.79,7.41,3,176.76,22 / 23,13388710,2020-01-08 15:58:32:304,-0.7705,2.1841,9.729,0.0345,0.0028,9.8065,-0.0988,-0.1349,0.0086,-10.75,-30.87,30.19,340.37,-79.07,-175.61
52.202587,-2.199398,120.79,7.41,3,176.76,22 / 23,13388809,2020-01-08 15:58:32:403,-1.6508,1.264,8.8579,0.0249,0.0157,9.8066,-0.0247,-0.0932,0.0748,-10.75,-30.19,30.19,338,-79.2,-177.72
52.202587,-2.199398,120.79,7.41,3,176.76,22 / 23,13388910,2020-01-08 15:58:32:504,-1.2741,1.4353,9.6506,0.0104,0.0172,9.8066,-0.0105,-0.0734,0.026,-9.81,-30.94,30.25,339.03,-79.38,-178.49
52.202587,-2.199398,120.79,7.41,3,176.76,22 / 23,13389009,2020-01-08 15:58:32:603,-2.3391,2.4676,10.1235,-0.012,0.0261,9.8066,-0.0162,-0.1815,-0.0412,-9.56,-30.87,29.88,338.88,-79.6,-178.71
52.202587,-2.199398,120.79,7.41,3,176.76,22 / 23,13389111,2020-01-08 15:58:32:705,-0.297,2.6123,11.3026,0.0106,-0.0044,9.8066,-0.2092,-0.2732,0.1367,-10.62,-30.44,29.38,335.56,-79.87,-179.28
52.202587,-2.199398,120.79,7.41,3,176.76,22 / 23,13389210,2020-01-08 15:58:32:804,-0.6874,4.8126,8.746,0.0296,-0.0015,9.8065,-0.1486,-0.1854,0.2934,-10.19,-30.37,29.81,339.56,-80.09,-178.45
52.202587,-2.199398,120.79,7.41,3,176.76,22 / 23,13389311,2020-01-08 15:58:32:905,-0.5125,3.2808,10.7767,0.0217,-0.0029,9.8066,0.0219,-0.3765,0.0807,-10.25,-31,29.88,342.1,-80.26,-176.3
52.202587,-2.199398,120.79,7.41,3,176.76,22 / 23,13389410,2020-01-08 15:58:33:004,-4.6773,2.3062,9.753,0.0258,-0.0068,9.8066,-0.0157,-0.3315,0.2184,-9.69,-30.19,29.63,341.07,-80.21,-177.24
52.202587,-2.199398,120.79,7.41,3,176.76,22 / 23,13389510,2020-01-08 15:58:33:104,-0.7116,3.3934,9.4893,0.0462,0.0246,9.8065,0.0598,-0.2218,0.1218,-8.69,-30.75,29.75,341.3,-80.25,-178.67
52.202587,-2.199398,120.79,7.41,3,176.76,22 / 23,13389610,2020-01-08 15:58:33:204,-3.0248,2.883,9.3258,0.042,0.0131,9.8065,0.0084,-0.3058,0.0698,-9.12,-30.31,29.69,340.43,-80.15,-179.45
52.202587,-2.199398,120.79,7.41,3,176.76,22 / 23,13389710,2020-01-08 15:58:33:304,-0.0904,3.5723,9.4143,0.0179,0.0084,9.8066,-0.0334,-0.1257,-0.0614,-9,-31.56,29.56,338.42,-80.08,179.14
52.202587,-2.199398,120.79,7.41,3,176.76,22 / 23,13389810,2020-01-08 15:58:33:404,-2.4018,1.4535,10.6035,0.0316,0.025,9.8065,0.0218,-0.2987,0.1891,-9.75,-30.5,29.38,333.66,-80.17,177.28
52.202587,-2.199398,120.79,7.41,3,176.76,22 / 23,13389910,2020-01-08 15:58:33:504,0.9656,2.1332,9.7899,0.0214,-0.0094,9.8065,-0.029,0.0041,0.014,-9.12,-30.12,30.19,337.04,-80.16,177.72
52.202587,-2.199398,120.79,7.41,3,176.76,22 / 23,13390011,2020-01-08 15:58:33:605,-0.5371,1.533,9.1736,0.023,-0.0055,9.8066,0.006,-0.1512,0.0583,-8.69,-30.62,29.81,335.92,-79.98,176.98
52.202587,-2.199398,120.79,7.41,3,176.76,22 / 23,13390110,2020-01-08 15:58:33:704,0.6932,1.835,9.3715,0.0033,-0.0064,9.8065,-0.0488,0.051,-0.0543,-8.81,-30.62,30.44,335.51,-79.91,176.68
52.202587,-2.199398,120.79,7.41,3,176.76,22 / 23,13390210,2020-01-08 15:58:33:804,-0.9669,1.198,9.6011,0.0111,0.01,9.8066,-0.0234,-0.0897,0.0557,-8.75,-30.62,30.06,335.21,-80,176.39
52.202587,-2.199398,120.79,7.41,3,176.76,22 / 23,13390310,2020-01-08 15:58:33:904,-0.8366,0.6204,10.3253,0,-0.0146,9.8066,-0.0261,0.0846,-0.0208,-8.56,-30.37,30.75,336.13,-80.07,176.37
52.202587,-2.199398,120.79,7.41,3,176.76,22 / 23,13390410,2020-01-08 15:58:34:004,-0.9127,0.6542,9.5728,0.0052,-0.0082,9.8066,-0.0457,-0.0007,-0.0112,-9,-31,30.75,336.38,-80.02,176.73
52.202587,-2.199398,120.79,7.41,3,176.76,22 / 23,13390510,2020-01-08 15:58:34:104,-0.4837,0.6415,10.0282,-0.0093,0,9.8066,-0.0149,0.0478,-0.0505,-8.5,-30.37,30.44,337.7,-80.12,176.55
52.202587,-2.199398,120.79,7.41,3,176.76,22 / 23,13390610,2020-01-08 15:58:34:204,0.2325,0.9671,9.858,0.0004,0.0008,9.8066,-0.0074,0.0173,-0.0186,-8.5,-29.81,30.44,337.8,-80.2,176.59
52.202587,-2.199398,120.79,7.41,3,176.76,22 / 23,13390709,2020-01-08 15:58:34:303,0.0358,0.488,9.9142,-0.0084,-0.0001,9.8066,0.0032,0.0654,-0.0371,-8.37,-30.69,30.19,337.97,-80.27,176.83
52.202587,-2.199398,120.79,7.41,3,176.76,22 / 23,13390810,2020-01-08 15:58:34:404,0.1539,0.8253,9.6846,-0.0057,-0.0028,9.8066,-0.0172,0.0379,-0.0266,-8.75,-30.19,29.56,335.99,-80.32,176.76
52.202587,-2.199398,120.79,7.41,3,176.76,22 / 23,13390911,2020-01-08 15:58:34:505,-0.7232,0.5671,9.7914,-0.0121,0.0013,9.8066,0.0117,0.0228,-0.0221,-8.44,-30.56,30.25,338.37,-80.42,177.09
52.202587,-2.199398,120.79,7.41,3,176.76,22 / 23,13391010,2020-01-08 15:58:34:604,-0.0822,0.3886,9.6872,-0.0034,-0.0007,9.8066,-0.0049,0.0177,-0.0214,-8,-30.75,29.75,338.5,-80.46,177.19
52.202587,-2.199398,120.79,7.41,3,176.76,22 / 23,13391110,2020-01-08 15:58:34:704,-0.3419,-0.1493,10.0508,-0.0026,-0.0004,9.8066,-0.0019,-0.0078,0.0001,-8.75,-30.19,30,336.5,-80.53,177.09
52.202587,-2.199398,120.79,7.41,3,176.76,22 / 23,13391210,2020-01-08 15:58:34:804,0.0655,-0.015,9.8608,-0.0035,0.0015,9.8066,0.0033,0.03,-0.006,-8.56,-30.12,29.69,336.66,-80.6,177.2
52.202587,-2.199398,120.79,7.41,3,176.76,22 / 23,13391309,2020-01-08 15:58:34:903,-0.2398,-0.1615,9.9308,-0.0027,0.0055,9.8066,0.0046,-0.0228,0.0172,-8.19,-30.25,29.94,338.92,-80.7,177.33
52.202587,-2.199398,120.79,7.41,3,176.76,22 / 23,13391410,2020-01-08 15:58:35:004,0.373,-0.0721,9.9336,-0.0045,0.0043,9.8066,-0.0142,0.0091,-0.0033,-8.44,-30.81,30.31,338.92,-80.8,177.4
52.202587,-2.199398,120.79,7.41,3,176.76,22 / 23,13391510,2020-01-08 15:58:35:104,-0.2259,-0.1045,9.7496,0.0029,0.0087,9.8065,-0.0095,-0.0269,0.031,-8.06,-30,30.31,339.01,-80.92,177.31
52.202587,-2.199398,120.79,7.41,3,176.76,22 / 23,13391610,2020-01-08 15:58:35:204,-0.2403,0.0558,9.9173,-0.0047,0.011,9.8065,0.0057,0.0138,-0.0181,-8.37,-30.06,29.94,338.78,-81.09,177.05
52.202587,-2.199398,120.79,7.41,3,176.76,22 / 23,13391710,2020-01-08 15:58:35:304,-0.4615,0.0719,9.8464,0.0045,0.0155,9.8066,0.0049,-0.0285,0.0106,-8.12,-30.19,29.44,337.89,-81.2,176.85
52.202587,-2.199398,120.79,7.41,3,176.76,22 / 23,13391810,2020-01-08 15:58:35:404,0.045,0.1948,9.9027,-0.0061,0.0118,9.8066,0.0184,0.0091,-0.0294,-8.12,-30.75,30.56,338.56,-81.38,176.3
52.202587,-2.199398,120.79,7.41,3,176.76,22 / 23,13391910,2020-01-08 15:58:35:504,-0.0614,0.1059,9.703,-0.0016,0.0109,9.8066,0.0063,-0.0197,0.0034,-8.44,-30.5,30.88,338.29,-81.52,175.91
52.202587,-2.199398,120.79,7.41,3,176.76,22 / 23,13392010,2020-01-08 15:58:35:604,0.259,-0.3028,9.9425,-0.0073,0.0103,9.8066,0.029,0.0226,-0.0152,-8,-29.87,30.25,337.64,-81.61,175.86
52.202587,-2.199398,120.79,7.41,3,176.76,22 / 23,13392110,2020-01-08 15:58:35:704,-0.1413,-0.5499,9.8605,-0.0032,0.0091,9.8066,0.0144,-0.0066,0.0113,-7.94,-29.69,30.56,338.13,-81.66,175.71
52.202587,-2.199398,120.79,7.41,3,176.76,22 / 23,13392210,2020-01-08 15:58:35:804,0.0393,-0.4853,9.916,-0.0041,0.0072,9.8066,0.0074,-0.0106,0.0016,-8.31,-30.5,29.81,337.58,-81.79,175.74
52.202194,-2.199236,121.77,0,3,161.75,21 / 21,13392310,2020-01-08 15:58:35:904,0.2561,-1.1834,9.9915,-0.0023,0.0049,9.8066,0.0148,-0.0309,0.0071,-8.12,-30.5,30.69,338.19,-81.88,175.68
52.202194,-2.199236,121.77,0,3,161.75,21 / 21,13392410,2020-01-08 15:58:36:004,0.0225,-0.8162,9.8069,0.0013,0.0065,9.8066,0.0049,-0.0162,0.0173,-8.56,-30.5,30,335.58,-81.93,175.69
52.202194,-2.199236,121.77,0,3,161.75,21 / 21,13392510,2020-01-08 15:58:36:104,-0.1082,-0.1305,9.7557,0.0004,0.0098,9.8065,0.0019,-0.0325,0.004,-7.94,-30.25,30.13,337.61,-81.92,175.71
52.202194,-2.199236,121.77,0,3,161.75,21 / 21,13392610,2020-01-08 15:58:36:204,0.2817,-1.4079,9.9231,0.0004,-0.0048,9.8066,0.0242,-0.0216,0.0072,-7.87,-30,30.31,337.42,-81.96,175.53
52.202194,-2.199236,121.77,0,3,161.75,21 / 21,13392710,2020-01-08 15:58:36:304,0.1503,-0.6617,9.812,0.0005,0.0028,9.8066,0.0242,0.0016,0.0066,-8.19,-30,30.25,337.53,-82,175.61
52.202194,-2.199236,121.77,0,3,161.75,21 / 21,13392810,2020-01-08 15:58:36:404,0.0643,-0.5578,9.7917,0.0008,0.0074,9.8066,-0.0105,-0.0431,-0.0008,-7.44,-30.5,30.5,339.99,-82.03,175.47
52.202194,-2.199236,121.77,0,3,161.75,21 / 21,13392909,2020-01-08 15:58:36:503,0.1543,-0.9258,9.9752,0.0018,0.0077,9.8066,-0.0031,-0.0195,-0.0234,-7.44,-30.19,30.5,339.51,-82.11,175.02
52.202194,-2.199236,121.77,0,3,161.75,21 / 21,13393010,2020-01-08 15:58:36:604,-0.0331,-0.4914,9.9406,0.0052,0.0111,9.8065,-0.004,-0.0331,0.0087,-7.69,-30.81,29.75,336.14,-82.19,174.42
52.202194,-2.199236,121.77,0,3,161.75,21 / 21,13393110,2020-01-08 15:58:36:704,0.145,-0.1009,9.7895,0.0046,0.01,9.8066,-0.0002,-0.0398,0.0094,-7.56,-30.25,30.31,335.88,-82.26,174.06
52.202194,-2.199236,121.77,0,3,161.75,21 / 21,13393210,2020-01-08 15:58:36:804,-0.0287,-0.1934,9.8027,0.0001,0.0025,9.8066,-0.014,-0.0548,0.0005,-8.44,-30.12,29.94,335.4,-82.35,173.6
52.202194,-2.199236,121.77,0,3,161.75,21 / 21,13393310,2020-01-08 15:58:36:904,0.3174,-0.2895,9.8947,-0.0063,-0.0003,9.8066,-0.0113,-0.0564,0.0154,-8.06,-30.31,30.19,335.73,-82.44,173.85
52.202194,-2.199236,121.77,0,3,161.75,22 / 23,13393409,2020-01-08 15:58:37:003,-0.3852,-0.3712,9.8169,0.0002,0.0071,9.8066,-0.005,-0.043,0.0321,-8.12,-30.37,29.69,335.83,-82.54,173.89
52.202194,-2.199236,121.77,0,3,161.75,22 / 23,13393510,2020-01-08 15:58:37:104,0.0083,-0.3015,9.8111,0.0019,0.0074,9.8066,-0.0023,-0.0186,-0.0046,-8.06,-30.37,29.69,335.77,-82.65,173.79
52.202194,-2.199236,121.77,0,3,161.75,22 / 23,13393609,2020-01-08 15:58:37:203,-0.019,-0.2719,9.9577,0.0007,0.0062,9.8065,0.0038,-0.045,-0.0288,-8.44,-30.69,29.44,334.6,-82.69,173.43
52.202194,-2.199236,121.77,0,3,161.75,22 / 23,13393710,2020-01-08 15:58:37:304,-0.1095,0.0154,9.9014,-0.0029,0.0053,9.8066,0.002,-0.0122,-0.0373,-7.56,-30.12,30.06,334.63,-82.72,172.75
52.202194,-2.199236,121.77,0,3,161.75,22 / 23,13393810,2020-01-08 15:58:37:404,-0.3138,-0.047,9.8483,0.0088,0.0079,9.8066,0.0102,-0.0347,0.0163,-8.37,-30.12,29.88,333.85,-82.79,172.03
52.202194,-2.199236,121.77,0,3,161.75,22 / 23,13393910,2020-01-08 15:58:37:504,-0.1227,0.0405,9.7937,-0.0033,0.0055,9.8066,0.0156,0.0293,-0.022,-7.37,-30.19,30.06,335.91,-82.84,172.06
52.202194,-2.199236,121.77,0,3,161.75,22 / 23,13394010,2020-01-08 15:58:37:604,0.4137,-0.0048,9.8171,-0.007,0.0022,9.8066,-0.006,-0.0124,-0.032,-7.62,-30.69,29.69,334.04,-82.91,172.24
52.202194,-2.199236,121.77,0,3,161.75,22 / 23,13394111,2020-01-08 15:58:37:705,0.2965,-0.1941,9.8184,-0.0053,0.0003,9.8066,-0.0004,0.0043,-0.0337,-8.06,-30.44,30.13,333.9,-82.98,171.98
52.202194,-2.199236,121.77,0,3,161.75,22 / 23,13394210,2020-01-08 15:58:37:804,0.296,-0.4057,9.9215,-0.0024,-0.0005,9.8066,-0.0045,-0.0061,-0.005,-7.94,-30.56,30.19,333.72,-83.01,171.91
52.202194,-2.199236,121.77,0,3,161.75,21 / 23,13394310,2020-01-08 15:58:37:904,-0.0065,-0.4651,9.8666,-0.0047,0.0026,9.8066,0.0015,-0.0196,0.0037,-7.25,-30.62,29.88,336,-83.06,172.12
52.202194,-2.199236,121.77,0,3,161.75,21 / 23,13394410,2020-01-08 15:58:38:004,0.2774,-0.5576,9.808,-0.0103,0.002,9.8066,0.0162,-0.0064,-0.0162,-7.31,-30,30,336.77,-83.13,172.69
52.202194,-2.199236,121.77,0,3,161.75,21 / 23,13394510,2020-01-08 15:58:38:104,-0.4532,-0.5965,9.8168,-0.0056,0.001,9.8066,0.0079,-0.0228,-0.0103,-7.31,-30.06,30.19,336.99,-83.14,172.88
52.202194,-2.199236,121.77,0,3,161.75,21 / 23,13394609,2020-01-08 15:58:38:203,0.2307,-0.6416,9.7367,-0.0021,-0.0016,9.8066,-0.005,-0.0231,-0.0237,-7,-30.06,31.19,337.62,-83.15,172.94
52.202194,-2.199236,121.77,0,3,161.75,21 / 23,13394710,2020-01-08 15:58:38:304,-0.1315,-0.5518,9.858,0.004,0.0013,9.8066,0.0137,-0.0485,0.0121,-7.56,-30.31,31.06,335.17,-83.15,172.49
52.202194,-2.199236,121.77,0,3,161.75,21 / 23,13394810,2020-01-08 15:58:38:404,0.4915,-1.6206,10.0029,-0.0052,-0.0071,9.8066,0.0145,-0.0378,-0.0178,-7.5,-29.94,31.69,337.93,-83.12,172.78
52.202194,-2.199236,121.77,0,3,161.75,21 / 23,13394910,2020-01-08 15:58:38:504,-0.3093,-0.3614,9.6918,-0.004,0.0052,9.8066,0.0218,-0.1145,0.0265,-6.69,-29.5,32.5,338.51,-83.17,172.77
52.202194,-2.199236,121.77,0,3,161.75,21 / 23,13395010,2020-01-08 15:58:38:604,-0.3695,-1.8883,9.8026,-0.011,-0.0177,9.8066,0.0671,-0.1183,0.0043,-6.5,-29.5,33.19,341.75,-83.07,174.05
52.202194,-2.199236,121.77,0,3,161.75,21 / 23,13395109,2020-01-08 15:58:38:703,-0.9228,-2.8458,9.561,-0.0123,-0.0043,9.8066,-0.0009,-0.1645,-0.0058,-6.75,-29.44,33.31,340.47,-82.9,174.62
52.202194,-2.199236,121.77,0,3,161.75,21 / 23,13395209,2020-01-08 15:58:38:803,-0.5997,-3.3163,9.6372,-0.0064,-0.0034,9.8066,0.0226,-0.2764,0.0468,-6.06,-29.5,33.63,343.76,-82.87,175.56
52.202194,-2.199236,121.77,0,3,161.75,23 / 23,13395311,2020-01-08 15:58:38:905,-1.5038,-3.3935,9.8173,-0.0119,0.0074,9.8066,-0.0379,-0.3169,0.0704,-5,-29.56,33,346.41,-82.99,176.61
52.202194,-2.199236,121.77,0,3,161.75,23 / 23,13395410,2020-01-08 15:58:39:004,-1.2257,-2.9883,9.5054,-0.0085,0.0086,9.8066,-0.0353,-0.3944,0.0209,-4.87,-30.62,32.06,346.82,-83.14,177.28
52.202194,-2.199236,121.77,0,3,161.75,23 / 23,13395510,2020-01-08 15:58:39:104,-1.7095,-3.3824,9.7368,0,0.0179,9.8066,-0.0598,-0.5028,0.0962,-3.75,-29.94,31.5,349.02,-83.37,177.39
52.202194,-2.199236,121.77,0,3,161.75,23 / 23,13395609,2020-01-08 15:58:39:203,-1.3541,-3.7603,9.5945,-0.0175,0.0216,9.8065,-0.0485,-0.52,0.0617,-3.06,-29.94,32.13,351.83,-83.71,178.07
52.202194,-2.199236,121.77,0,3,161.75,23 / 23,13395711,2020-01-08 15:58:39:305,-3.7825,-2.116,9.7017,-0.0106,0.033,9.8065,-0.0679,-0.7958,0.2223,-2.19,-29.69,32.19,355.19,-83.96,179.26
52.202194,-2.199236,121.77,0,3,161.75,23 / 23,13395810,2020-01-08 15:58:39:404,-5.4476,-2.0213,10.0657,-0.046,0.0395,9.8065,-0.0793,-0.782,0.0778,-1,-30.12,31.38,2.78,-84.52,-175.64
52.202194,-2.199236,121.77,0,3,161.75,23 / 23,13395910,2020-01-08 15:58:39:504,-4.6621,0.0573,8.9283,-0.0181,0.0454,9.8065,-0.1259,-0.9296,0.136,0.63,-30.81,29.75,11.04,-85.3,-171.83
52.202194,-2.199236,121.77,0,3,161.75,23 / 23,13396010,2020-01-08 15:58:39:604,-3.789,-0.4828,9.1854,-0.0087,0.0371,9.8065,-0.0544,-0.8803,0.0983,2,-30.87,27.94,17.14,-85.6,-168.42
52.202194,-2.199236,121.77,0,3,161.75,23 / 23,13396109,2020-01-08 15:58:39:703,-4.9567,-0.5069,9.3642,-0.0351,0.0354,9.8065,-0.016,-1.0246,0.0147,3,-31.31,26.19,22.65,-85.79,-165.91
52.202194,-2.199236,121.77,0,3,161.75,23 / 23,13396210,2020-01-08 15:58:39:804,-5.0976,0.1633,10.814,0.0149,0.0444,9.8065,0.0182,-1.2036,0.3278,4.75,-31.62,24.94,33.66,-86.12,-160.41
52.202194,-2.199236,121.77,0,3,161.75,23 / 23,13396310,2020-01-08 15:58:39:904,-2.9686,-0.1385,8.8181,-0.0059,0.0242,9.8066,-0.174,-1.1083,0.4128,5.69,-32.69,22.63,50.81,-86.08,-148.1
52.202194,-2.199236,121.77,0,3,161.75,23 / 23,13396409,2020-01-08 15:58:40:003,-5.0444,3.6321,7.8245,-0.0603,0.0414,9.8063,-0.2849,-1.2008,0.136,7.13,-32.87,20.69,69.07,-85.66,-135.48
52.202194,-2.199236,121.77,0,3,161.75,23 / 23,13396510,2020-01-08 15:58:40:104,-6.3441,3.3963,10.5607,-0.0363,-0.0377,9.8064,-0.1498,-1.1825,0.2666,8,-32.87,19.13,82.18,-85.53,-127.8
52.202194,-2.199236,121.77,0,3,161.75,23 / 23,13396610,2020-01-08 15:58:40:204,-1.9118,1.7336,8.2632,-0.051,-0.0501,9.8063,-0.2501,-0.8591,-0.1102,9.25,-34,16.38,89.92,-84.97,-128.82
52.202194,-2.199236,121.77,0,3,161.75,23 / 23,13396710,2020-01-08 15:58:40:304,-1.4129,0.2532,10.277,0.0244,-0.0377,9.8065,0.0313,-1.0574,-0.1259,10.13,-33.62,14.56,90.48,-85.35,-132.05
52.202194,-2.199236,121.77,0,3,161.75,23 / 23,13396810,2020-01-08 15:58:40:404,-0.8709,-0.5269,8.862,0.0038,-0.0957,9.8062,-0.0213,-0.8974,0.1399,11.13,-33.94,13.69,81.6,-85.6,-144.95
52.202194,-2.199236,121.77,0,3,161.75,23 / 23,13396910,2020-01-08 15:58:40:504,-0.5987,-2.7539,10.0395,0.0363,-0.0446,9.8064,0.0705,-0.7765,0.1161,11.44,-33.25,12,78.14,-85.58,-153.22
52.202194,-2.199236,121.77,0,3,161.75,23 / 23,13397010,2020-01-08 15:58:40:604,-1.6004,1.169,9.8429,0.009,-0.0395,9.8065,-0.0503,-0.6755,0.1033,12.44,-33.62,11.38,81.64,-85.52,-155.2
52.202194,-2.199236,121.77,0,3,161.75,23 / 23,13397110,2020-01-08 15:58:40:704,-0.247,-0.6319,9.645,0.0302,-0.036,9.8065,-0.0252,-0.5235,0.0555,13.13,-33.06,10.19,85.56,-85.7,-155.55
