GPS LATITUDE (degrees), GPS LONGITUDE (degrees), GPS ALTITUDE (m), GPS SPEED (Kmh), GPS ACCURACY (m), GPS ORIENTATION (Â°),GPS SATELLITES IN RANGE, TIME SINCE START (ms), DATE (YYYY-MO-DD HH-MI-SS_SSS), ACCELEROMETER X (m/s²) , ACCELEROMETER Y (m/s²), ACCELEROMETER Z (m/s²), GRAVITY X (m/s²), GRAVITY Y (m/s²), GRAVITY Z (m/s²), GYROSCOPE Yaw (rad/s), GYROSCOPE Pitch (rad/s), GYROSCOPE Roll (rad/s), MAGNETIC FIELD X (Î¼T), MAGNETIC FIELD Y (Î¼T), MAGNETIC FIELD Z (Î¼T), ORIENTATION (Yaw) (Â°), ORIENTATION (Pitch) (Â°), ORIENTATION (Roll ) (Â°)
52.275085,-2.121993,106.9,31.45,4,13.57,24 / 24,410,2020-01-08 16:20:26:104,3.7887,-0.9776,7.434,-0.0308,0.0723,9.8063,0.4381,0.6307,-0.2458,1.69,-27.19,-10.62,169.24,-84.23,177
52.275085,-2.121993,106.9,31.45,4,13.57,24 / 24,510,2020-01-08 16:20:26:204,-5.6672,-0.4172,11.4551,0.0726,-0.0351,9.8062,0.3884,0.9327,-0.4546,-2.12,-23.25,-10.5,189.91,-84.34,-179.26
52.275085,-2.121993,106.9,31.45,4,13.57,24 / 24,610,2020-01-08 16:20:26:304,-1.9919,1.2703,11.1799,-0.073,0.0823,9.806,0.1631,0.6468,-0.5295,-8.44,-21,-12.62,205.23,-84.25,176.88
52.275085,-2.121993,106.9,31.45,4,13.57,24 / 24,711,2020-01-08 16:20:26:405,0.6235,-3.4663,10.2354,0.0186,-0.051,9.8065,0.0974,0.6347,-0.493,-14.31,-24.37,-16.06,222.14,-84.54,-175.03
52.275085,-2.121993,106.9,31.45,4,13.57,24 / 24,810,2020-01-08 16:20:26:504,-3.2727,4.1773,12.0682,-0.0467,0.0997,9.8059,0.0254,0.0569,-0.0731,-12.44,-29.94,-16.37,213.03,-84.14,-179.18
52.275085,-2.121993,106.9,31.45,4,13.57,24 / 24,909,2020-01-08 16:20:26:603,5.3914,-6.0961,8.6982,0.0475,-0.1029,9.8059,-0.123,-0.3333,0.2183,-10.25,-33.44,-15.69,205.24,-83.99,177.59
52.275085,-2.121993,106.9,31.45,4,13.57,24 / 24,1010,2020-01-08 16:20:26:704,-5.0067,1.635,10.0952,0.0386,-0.0328,9.8064,-0.0763,-0.6408,0.3847,-7.69,-34.87,-14.37,204.57,-84.4,179.77
52.275085,-2.121993,106.9,31.45,4,13.57,24 / 24,1110,2020-01-08 16:20:26:804,2.986,-2.4755,9.6031,0.0273,-0.0548,9.8065,-0.0686,-0.4587,0.3067,-7.19,-35.44,-14.19,203.09,-84.73,-178.94
52.275085,-2.121993,106.9,31.45,4,13.57,24 / 24,1210,2020-01-08 16:20:26:904,-0.7225,-2.3406,8.6885,0.0279,-0.0095,9.8066,0.1171,0.1427,-0.016,-6.56,-35.5,-13.12,203.59,-84.66,-179.74
52.275085,-2.121993,106.9,31.45,4,13.57,23 / 24,1310,2020-01-08 16:20:27:004,-3.0026,0.9206,9.7667,-0.0266,0.0145,9.8065,0.1213,0.349,-0.2284,-6.62,-35.5,-12.31,204.69,-84.76,179.85
52.275085,-2.121993,106.9,31.45,4,13.57,23 / 24,1410,2020-01-08 16:20:27:104,4.0199,-2.0225,13.2883,-0.0931,0.0337,9.8061,0.5512,0.8372,-0.6905,-6.94,-35.44,-11.81,200.87,-84.87,175.14
52.275085,-2.121993,106.9,31.45,4,13.57,23 / 24,1510,2020-01-08 16:20:27:204,-8.3715,7.3311,15.68,0.0049,0.1932,9.8047,0.7799,0.9437,-0.6341,-6.56,-35.87,-11.94,202.22,-84.82,176.96
52.275085,-2.121993,106.9,31.45,4,13.57,23 / 24,1609,2020-01-08 16:20:27:303,2.8143,-1.2882,8.8167,-0.0857,0.2495,9.8031,0.2382,0.3774,-0.3353,-7.12,-35.87,-11.5,199.1,-83.65,172.26
52.275085,-2.121993,106.9,31.45,4,13.57,23 / 24,1710,2020-01-08 16:20:27:404,-5.3295,4.0446,11.2056,-0.0156,-0.074,9.8063,-0.1757,0.146,-0.1076,-6.06,-35.62,-11.81,200.59,-84.62,179.03
52.275085,-2.121993,106.9,31.45,4,13.57,23 / 24,1809,2020-01-08 16:20:27:503,3.3159,-3.0292,8.1267,0.0307,-0.0373,9.8064,-0.0759,-0.2912,0.1915,-7.44,-36.12,-11.69,206.12,-84.74,-178.22
52.275085,-2.121993,106.9,31.45,4,13.57,23 / 24,1910,2020-01-08 16:20:27:604,-0.9172,-0.8341,9.9045,0.0415,-0.0279,9.8065,-0.0627,-0.3603,0.2569,-6.56,-36.56,-11.87,201.7,-84.66,176.62
52.275085,-2.121993,106.9,31.45,4,13.57,23 / 24,2010,2020-01-08 16:20:27:704,-4.6781,0.8362,10.2803,-0.0104,0.0268,9.8066,-0.0175,-0.4818,0.3319,-6.94,-35.81,-11.56,201.41,-84.65,176.13
52.275085,-2.121993,106.9,31.45,4,13.57,23 / 24,2109,2020-01-08 16:20:27:803,3.5325,-2.0661,8.9006,0.0424,-0.0453,9.8064,-0.039,-0.5603,0.2516,-7,-36.5,-11.56,204.68,-84.75,-179.97
52.275085,-2.121993,106.9,31.45,4,13.57,23 / 24,2210,2020-01-08 16:20:27:904,-3.4488,0.9096,9.5293,0.0184,-0.0499,9.8065,0.0469,-0.3265,0.2395,-7,-36.19,-11.81,202.14,-84.7,176.98
52.275085,-2.121993,106.9,31.45,4,13.57,24 / 24,2309,2020-01-08 16:20:28:003,2.4045,-2.4322,9.4985,0.0301,-0.0306,9.8065,0.0029,-0.3,0.1949,-7.62,-35.87,-11.5,208.85,-85.04,179.07
52.275085,-2.121993,106.9,31.45,4,13.57,24 / 24,2410,2020-01-08 16:20:28:104,-1.067,0.4814,11.4795,0.0126,-0.0428,9.8065,0.0038,-0.2628,0.0669,-7.12,-36.5,-11.87,202.76,-85.13,177.31
52.275085,-2.121993,106.9,31.45,4,13.57,24 / 24,2510,2020-01-08 16:20:28:204,3.4736,-2.5381,8.7202,0.0387,-0.0184,9.8065,0.0763,-0.0673,0.0411,-7.37,-36.44,-11.62,204.15,-84.98,179.14
52.275085,-2.121993,106.9,31.45,4,13.57,24 / 24,2610,2020-01-08 16:20:28:304,-1.3829,0.4981,10.068,0.0392,-0.0897,9.8061,0.1809,0.1941,-0.1318,-7.12,-36.44,-11.5,207.23,-85.07,-179.09
52.275085,-2.121993,106.9,31.45,4,13.57,24 / 24,2709,2020-01-08 16:20:28:403,3.5793,-2.1817,9.9013,-0.0005,0.0071,9.8066,0.0905,0.3275,-0.2354,-7.69,-36.31,-11.87,207.25,-84.76,179.46
52.275085,-2.121993,106.9,31.45,4,13.57,24 / 24,2809,2020-01-08 16:20:28:503,-3.5093,2.0145,9.2153,0.0667,-0.0296,9.8063,-0.112,0.6141,-0.2903,-7,-36.5,-12,205.61,-84.81,-178.92
52.275085,-2.121993,106.9,31.45,4,13.57,24 / 24,2910,2020-01-08 16:20:28:604,-1.8016,-0.5676,8.1414,-0.0466,-0.0256,9.8064,-0.087,0.6241,-0.3501,-7.31,-36.5,-11.31,204.55,-85.13,177.59
52.275085,-2.121993,106.9,31.45,4,13.57,24 / 24,3009,2020-01-08 16:20:28:703,-3.0745,3.3093,9.6863,0.0248,-0.0479,9.8065,0.0384,0.4959,-0.4083,-7.56,-36.56,-11.87,208,-85.06,-179.82
52.275085,-2.121993,106.9,31.45,4,13.57,24 / 24,3109,2020-01-08 16:20:28:803,-2.8759,1.8559,8.9815,-0.0002,-0.0338,9.8066,-0.011,0.4074,-0.3544,-7.87,-37.31,-12,203.62,-84.94,175.05
52.275085,-2.121993,106.9,31.45,4,13.57,24 / 24,3210,2020-01-08 16:20:28:904,-2.3252,1.0916,10.4603,0.0257,-0.027,9.8065,0.0917,0.362,-0.2634,-7.19,-36.19,-11.56,205.3,-85.45,-179.99
52.275085,-2.121993,106.9,31.45,4,13.57,24 / 25,3310,2020-01-08 16:20:29:004,2.9923,-2.4032,10.5692,-0.0104,0.0157,9.8065,0.0095,0.3491,-0.1624,-7.56,-36.5,-12.06,207.25,-85.29,178.86
52.275085,-2.121993,106.9,31.45,4,13.57,24 / 25,3409,2020-01-08 16:20:29:103,-0.7214,0.179,10.8082,0.0336,-0.0372,9.8065,0.0787,0.4085,-0.2507,-7.69,-36.87,-11.31,210.97,-85.28,-178.52
52.275085,-2.121993,106.9,31.45,4,13.57,24 / 25,3510,2020-01-08 16:20:29:204,-2.5692,3.5672,10.87,-0.0031,0.0069,9.8066,0.073,0.3797,-0.1598,-7.87,-36.62,-11.37,209.37,-85.11,179.79
52.275085,-2.121993,106.9,31.45,4,13.57,24 / 25,3610,2020-01-08 16:20:29:304,-0.0815,-0.4256,8.9479,0.0472,-0.0951,9.806,-0.1312,-0.0939,0.0842,-7.69,-36.69,-11.75,207.3,-85.11,179.29
52.275085,-2.121993,106.9,31.45,4,13.57,24 / 25,3710,2020-01-08 16:20:29:404,-3.2598,2.7247,10.192,0.0263,-0.0692,9.8063,-0.1392,-0.4719,0.3141,-7.69,-36.69,-11.87,212.43,-85.52,-175.17
52.275085,-2.121993,106.9,31.45,4,13.57,24 / 25,3810,2020-01-08 16:20:29:504,3.381,-2.1723,10.0175,0.0367,-0.0092,9.8065,0.0112,-0.581,0.4093,-7.56,-37,-11.37,213.38,-85.45,-175.91
52.275085,-2.121993,106.9,31.45,4,13.57,24 / 25,3910,2020-01-08 16:20:29:604,-3.4126,1.1949,9.639,0.0783,-0.0054,9.8063,0.1082,-0.4999,0.2613,-8,-36.69,-12,209.89,-85.21,-177.76
52.275085,-2.121993,106.9,31.45,4,13.57,24 / 25,4009,2020-01-08 16:20:29:703,2.3371,-2.9518,9.8475,-0.0153,-0.0116,9.8065,-0.0179,-0.4541,0.2447,-7.81,-36.69,-11.5,209.71,-85.15,-179.85
52.275085,-2.121993,106.9,31.45,4,13.57,24 / 25,4109,2020-01-08 16:20:29:803,0.9554,-1.5769,9.893,0.0524,-0.0454,9.8063,-0.0648,-0.232,0.2817,-7.56,-37.12,-11.62,210.93,-85.19,-176.5
52.275085,-2.121993,106.9,31.45,4,13.57,23 / 24,4209,2020-01-08 16:20:29:903,4.1533,-0.591,11.6493,-0.0185,-0.0246,9.8066,0.069,-0.1581,0.1664,-7.81,-37,-11.19,211.87,-85.27,-177.43
52.275085,-2.121993,106.9,31.45,4,13.57,23 / 24,4310,2020-01-08 16:20:30:004,-0.0203,-0.205,9.5583,0.0295,0.0037,9.8065,0.0031,0.0948,0.0726,-7.81,-36.94,-11.69,210.22,-85.36,-177.55
52.275085,-2.121993,106.9,31.45,4,13.57,23 / 24,4410,2020-01-08 16:20:30:104,-0.8253,0.5834,9.7972,0.0012,-0.0001,9.8066,0.0738,0.2719,-0.0413,-7.12,-36.94,-11.62,205.06,-85.34,179.99
52.275085,-2.121993,106.9,31.45,4,13.57,23 / 24,4510,2020-01-08 16:20:30:204,0.8983,-2.9333,7.908,-0.0044,0.0518,9.8065,0.116,0.1691,-0.0737,-7.56,-37.19,-11.62,207.98,-85.11,-179.9
52.275085,-2.121993,106.9,31.45,4,13.57,23 / 24,4609,2020-01-08 16:20:30:303,-0.5693,1.6977,10.9356,0.0014,-0.0169,9.8066,0.1274,0.1401,-0.0595,-8.06,-36.69,-11.75,210.09,-85.28,-177.6
52.275085,-2.121993,106.9,31.45,4,13.57,23 / 24,4711,2020-01-08 16:20:30:405,1.4404,-3.1121,8.4753,-0.0042,0.0587,9.8064,0.1162,0.0807,-0.045,-7.75,-36.37,-11.56,209.63,-85.18,-178.19
52.275085,-2.121993,106.9,31.45,4,13.57,23 / 24,4810,2020-01-08 16:20:30:504,0.2413,-0.3273,10.2838,-0.0035,0.0013,9.8066,0.0794,0.1194,-0.1051,-7.75,-36.69,-10.81,212.43,-85.39,-176.95
52.275085,-2.121993,106.9,31.45,4,13.57,23 / 24,4910,2020-01-08 16:20:30:604,-0.6154,-0.6135,9.7935,-0.0306,0.039,9.8065,0.06,-0.1337,0.0027,-7.94,-37.06,-11.25,211.03,-85.34,-178.54
52.275085,-2.121993,106.9,31.45,4,13.57,23 / 24,5010,2020-01-08 16:20:30:704,0.1714,1.5162,10.3252,0.0328,0.019,9.8065,0.1122,-0.2385,0.0971,-7.44,-37,-11.31,207.07,-85.33,-179.44
52.275085,-2.121993,106.9,31.45,4,13.57,23 / 24,5110,2020-01-08 16:20:30:804,-0.0721,-0.9327,9.3144,0.0127,0.026,9.8065,0.157,-0.0839,-0.0439,-7.87,-36.37,-11.56,208.66,-85.22,-179.38
52.275085,-2.121993,106.9,31.45,4,13.57,23 / 24,5211,2020-01-08 16:20:30:905,0.3873,-2.0666,10.247,0.0069,0.033,9.8065,0.1205,-0.0735,-0.0798,-8,-36.5,-11.5,211.74,-85.27,-177.79
52.275085,-2.121993,106.9,31.45,4,13.57,23 / 24,5310,2020-01-08 16:20:31:004,0.0854,-1.2571,9.1159,0.0158,-0.0079,9.8066,0.0599,-0.0951,0.0152,-7.87,-36.81,-11.75,210.72,-85.24,-176.8
52.275085,-2.121993,106.9,31.45,4,13.57,23 / 24,5410,2020-01-08 16:20:31:104,1.9193,-1.1407,9.1912,0.0223,0.0001,9.8065,0.0322,-0.0728,0.0887,-7.75,-36.56,-11.44,213.94,-85.42,-175.2
52.275085,-2.121993,106.9,31.45,4,13.57,23 / 24,5510,2020-01-08 16:20:31:204,-0.1499,0.5883,9.2791,0.0243,0.0019,9.8065,0.0012,0.0711,-0.1463,-7.87,-37.12,-11.25,213.73,-85.37,-175.37
52.275085,-2.121993,106.9,31.45,4,13.57,23 / 24,5610,2020-01-08 16:20:31:304,0.6938,1.7131,9.8853,0.0011,0.0188,9.8065,-0.0663,0.1142,-0.0931,-7.75,-36.5,-11.37,212.74,-85.4,-176.78
52.275085,-2.121993,106.9,31.45,4,13.57,23 / 24,5710,2020-01-08 16:20:31:404,-0.5778,-1.4629,10.1039,0.0001,-0.014,9.8066,0.0763,0.1292,-0.0809,-7.87,-36.81,-12.06,210.38,-85.5,-177.53
52.275085,-2.121993,106.9,31.45,4,13.57,23 / 24,5810,2020-01-08 16:20:31:504,0.5747,0.5695,10.8578,-0.0037,0.041,9.8065,0.0509,0.176,-0.1022,-8.5,-36.75,-11.31,213.56,-85.76,-176.15
52.275085,-2.121993,106.9,31.45,4,13.57,23 / 24,5910,2020-01-08 16:20:31:604,-0.7239,-1.3347,5.8491,-0.008,0.0047,9.8065,0.3677,-0.0335,-0.0085,-8.25,-36.37,-12.06,212.27,-85.86,-175.97
52.275085,-2.121993,106.9,31.45,4,13.57,23 / 24,6009,2020-01-08 16:20:31:703,3.9307,-3.5037,11.6043,-0.0022,0.0682,9.8064,0.0931,0.2777,-0.1872,-8.19,-36.12,-11.56,211.4,-85.5,-176.51
52.275085,-2.121993,106.9,31.45,4,13.57,23 / 24,6110,2020-01-08 16:20:31:804,-0.3022,3.1022,9.8698,0.0383,0.0872,9.8062,-0.0794,0.4959,-0.2919,-8.19,-36.37,-11.31,212.97,-85.29,-176.35
52.275085,-2.121993,106.9,31.45,4,13.57,23 / 24,6210,2020-01-08 16:20:31:904,-1.5802,6.3786,11.5542,-0.0502,0.0765,9.8062,0.0751,0.2516,-0.0886,-7.5,-36.5,-11.25,209.25,-85.49,-177.21
52.275085,-2.121993,106.9,31.45,4,13.57,23 / 24,6309,2020-01-08 16:20:32:003,4.9304,-2.909,8.9338,-0.0238,0.108,9.806,-0.149,0.084,-0.0494,-8.44,-36.37,-11.25,208.42,-85.36,178.17
52.275085,-2.121993,106.9,31.45,4,13.57,23 / 24,6410,2020-01-08 16:20:32:104,0.6116,1.2713,10.74,-0.0558,0.0364,9.8064,-0.1473,-0.0548,-0.065,-8.25,-36.75,-11.62,208.13,-85.58,179.71
52.275085,-2.121993,106.9,31.45,4,13.57,23 / 24,6510,2020-01-08 16:20:32:204,4.0304,-3.7987,9.6221,-0.0365,0.0335,9.8065,-0.0346,-0.2829,0.1542,-8.19,-36.19,-11.94,210.17,-85.56,-178.02
52.275085,-2.121993,106.9,31.45,4,13.57,23 / 24,6610,2020-01-08 16:20:32:304,-0.8979,0.011,9.6691,-0.0202,0.0205,9.8065,0.1527,-0.4463,0.2826,-8.5,-36.69,-11.69,209.85,-85.47,-178.12
52.275085,-2.121993,106.9,31.45,4,13.57,23 / 24,6710,2020-01-08 16:20:32:404,2.5792,0.666,10.6327,-0.0642,-0.0144,9.8064,0.1037,-0.3492,0.0902,-7.56,-36.81,-11.12,211.69,-85.59,-178.1
52.275085,-2.121993,106.9,31.45,4,13.57,23 / 24,6810,2020-01-08 16:20:32:504,-1.716,2.3428,9.3818,-0.02,-0.0525,9.8065,0.0531,-0.4753,0.1811,-7.81,-36.31,-11,211.24,-85.3,-178.42
52.275085,-2.121993,106.9,31.45,4,13.57,23 / 24,6910,2020-01-08 16:20:32:604,-1.2758,2.1168,10.114,-0.0492,0.001,9.8065,0.0259,-0.4543,0.258,-7.81,-36.87,-11.56,207.68,-85.75,178.99
52.275085,-2.121993,106.9,31.45,4,13.57,23 / 24,7010,2020-01-08 16:20:32:704,-3.8467,1.9308,9.5888,0.039,-0.034,9.8064,-0.061,-0.2105,0.1787,-7.25,-36.5,-11.37,205.51,-85.72,178.07
52.275085,-2.121993,106.9,31.45,4,13.57,23 / 24,7110,2020-01-08 16:20:32:804,-0.4307,-0.5518,9.077,-0.0054,0.0201,9.8066,-0.0572,-0.2509,0.0342,-7.75,-36.75,-11.12,210.38,-85.8,-179.93
52.275085,-2.121993,106.9,31.45,4,13.57,24 / 24,7210,2020-01-08 16:20:32:904,5.7072,-3.2683,10.309,0.0983,-0.054,9.8059,0.0013,0.2462,-0.042,-7.37,-36.25,-11.25,213.21,-85.72,-172.85
52.275085,-2.121993,106.9,31.45,4,13.57,24 / 24,7310,2020-01-08 16:20:33:004,-3.8309,3.4298,10.837,0.0211,0.0005,9.8066,0.1264,0.3187,-0.1262,-7.37,-36.69,-11.19,210.3,-85.67,-176.02
52.275085,-2.121993,106.9,31.45,4,13.57,24 / 24,7410,2020-01-08 16:20:33:104,1.2271,0.3678,9.6588,0.0449,-0.0627,9.8063,0.0706,0.6676,-0.3865,-7.69,-36.69,-11.56,210.29,-85.55,-177.7
52.275085,-2.121993,106.9,31.45,4,13.57,24 / 24,7510,2020-01-08 16:20:33:204,-4.5284,4.8637,10.8218,0.0602,-0.0771,9.8061,0.1204,0.6868,-0.5113,-7.75,-36.44,-11.62,215.47,-85.76,-172.14
52.275085,-2.121993,106.9,31.45,4,13.57,24 / 24,7610,2020-01-08 16:20:33:304,3.6912,-0.841,9.5564,0.052,-0.0226,9.8064,0.0484,0.6406,-0.378,-7,-36.94,-11.25,212.46,-85.71,-173.54
52.275085,-2.121993,106.9,31.45,4,13.57,24 / 24,7709,2020-01-08 16:20:33:403,-4.0271,3.3314,11.3432,0.0427,-0.0898,9.8061,0.1532,0.4986,-0.2666,-6.87,-37,-11.56,211.35,-85.94,-173.33
52.275085,-2.121993,106.9,31.45,4,13.57,24 / 24,7810,2020-01-08 16:20:33:504,3.3071,-1.6624,9.532,-0.0026,0.0394,9.8065,-0.0908,0.2717,-0.0472,-7.5,-37.06,-10.81,210.55,-85.69,-175.76
52.275085,-2.121993,106.9,31.45,4,13.57,24 / 24,7910,2020-01-08 16:20:33:604,1.7162,-0.9911,8.7007,0.0582,-0.0526,9.8063,-0.109,0.1125,-0.05,-7.37,-36.81,-11.44,214.97,-85.73,-170.6
52.275085,-2.121993,106.9,31.45,4,13.57,24 / 24,8010,2020-01-08 16:20:33:704,-1.4327,3.2584,11.0783,-0.0222,0.0606,9.8063,-0.1675,-0.1025,0.1589,-7.12,-36.25,-11.25,214.9,-85.85,-171.08
52.275085,-2.121993,106.9,31.45,4,13.57,24 / 24,8110,2020-01-08 16:20:33:804,-3.4968,2.4903,10.5868,0.0171,-0.0351,9.8065,-0.1379,-0.1933,0.2037,-7.37,-37.12,-11.44,215.13,-85.9,-170.7
52.275085,-2.121993,106.9,31.45,4,13.57,24 / 24,8209,2020-01-08 16:20:33:903,-0.366,2.3406,11.3339,-0.0468,0.0772,9.8062,-0.207,-0.5087,0.2889,-6.69,-36.81,-11.31,215.07,-85.94,-170.83
52.275085,-2.121993,106.9,31.45,4,13.57,24 / 24,8309,2020-01-08 16:20:34:003,2.0296,-2.333,8.7523,-0.0027,0.068,9.8063,-0.253,-0.2972,0.2695,-7.31,-37.12,-11.5,210.25,-85.66,-176.07
52.27735,-2.121195,108.5,26.96,4,12.93,24 / 24,8409,2020-01-08 16:20:34:103,2.0565,0.0441,10.1773,-0.0389,0.0717,9.8063,-0.1858,-0.3883,0.3453,-6.81,-36.94,-11.25,212.49,-85.75,-173.57
52.27735,-2.121195,108.5,26.96,4,12.93,24 / 24,8510,2020-01-08 16:20:34:204,2.6062,-1.3929,8.1876,-0.0071,0.0374,9.8066,-0.1811,-0.4502,0.3483,-6.19,-36.25,-11.81,205.37,-85.56,-176.15
52.27735,-2.121195,108.5,26.96,4,12.93,24 / 24,8610,2020-01-08 16:20:34:304,-2.9449,3.0416,11.9527,-0.0298,0.0852,9.8062,-0.169,-0.4092,0.3282,-7,-36.87,-11.25,208.65,-85.58,-177.87
52.27735,-2.121195,108.5,26.96,4,12.93,24 / 24,8710,2020-01-08 16:20:34:404,3.4452,-1.6732,9.5845,-0.0327,0.0859,9.8062,-0.1162,-0.4734,0.234,-7.56,-36.87,-11.56,210.87,-85.66,-177.16
52.27735,-2.121195,108.5,26.96,4,12.93,24 / 24,8810,2020-01-08 16:20:34:504,-1.7213,2.9441,10.6644,-0.0087,0.0583,9.8064,-0.2326,-0.0211,0.1365,-7,-36.87,-11.19,212.09,-85.96,-174.33
52.27735,-2.121195,108.5,26.96,4,12.93,24 / 24,8910,2020-01-08 16:20:34:604,1.3891,-1.7132,7.9881,-0.015,0.0786,9.8063,-0.1531,0.0161,0.229,-6.06,-36.94,-11.19,207.44,-85.7,-175.38
52.27735,-2.121195,108.5,26.96,4,12.93,24 / 24,9010,2020-01-08 16:20:34:704,0.8268,2.9061,11.4564,-0.0153,0.0258,9.8066,0.1094,-0.3265,0.0755,-6.25,-36.62,-10.75,209.4,-85.82,-173.2
52.27735,-2.121195,108.5,26.96,4,12.93,24 / 24,9109,2020-01-08 16:20:34:803,5.0636,-2.0484,8.8406,-0.0427,0.0694,9.8063,0.1662,-0.1686,0.0401,-6.69,-36.56,-11.31,211.89,-85.7,-174.19
52.27735,-2.121195,108.5,26.96,4,12.93,24 / 24,9210,2020-01-08 16:20:34:904,-1.7006,1.0812,9.1497,-0.0501,-0.0109,9.8064,0.0575,0.1603,-0.0563,-7,-36.44,-11.06,216.94,-85.81,-168.64
52.27735,-2.121195,108.5,26.96,4,12.93,24 / 24,9309,2020-01-08 16:20:35:003,2.8894,-1.4689,9.4799,-0.052,0.0402,9.8064,0.0588,0.1213,-0.1068,-5.75,-37.19,-11.5,209.55,-85.85,-173.07
52.27735,-2.121195,108.5,26.96,4,12.93,24 / 24,9410,2020-01-08 16:20:35:104,-2.1766,3.1213,9.7075,-0.0138,0.0132,9.8066,-0.0471,0.2461,-0.1888,-6.25,-36.75,-11.37,211.31,-85.99,-171.19
52.27735,-2.121195,108.5,26.96,4,12.93,24 / 24,9510,2020-01-08 16:20:35:204,1.0714,-1.0078,9.421,-0.0471,0.0346,9.8064,0.0103,0.2621,-0.1617,-6.25,-37.31,-11.62,208.6,-86.11,-172.88
52.27735,-2.121195,108.5,26.96,4,12.93,24 / 24,9610,2020-01-08 16:20:35:304,-2.3881,0.6701,8.8082,-0.0081,0.0349,9.8066,-0.1275,0.2403,-0.2155,-5.69,-36.06,-11.44,211.56,-85.97,-171.05
52.27735,-2.121195,108.5,26.96,4,12.93,24 / 24,9710,2020-01-08 16:20:35:404,2.2724,-0.3422,8.5303,-0.0594,0.0005,9.8065,-0.0706,0.2927,-0.1399,-6.12,-36.31,-11.62,211.16,-86.35,-170.37
52.27735,-2.121195,108.5,26.96,4,12.93,24 / 24,9810,2020-01-08 16:20:35:504,-0.7808,0.7709,10.5668,0.0326,0.0117,9.8065,0.0141,0.3858,-0.1876,-6.19,-36.56,-12.12,213.15,-86.55,-168.26
52.27735,-2.121195,108.5,26.96,4,12.93,24 / 24,9910,2020-01-08 16:20:35:604,1.5209,-0.6217,9.9812,-0.0108,0.0296,9.8065,0.1251,0.2961,-0.2157,-6.44,-36.62,-12.25,213.79,-86.39,-167.28
52.27735,-2.121195,108.5,26.96,4,12.93,24 / 24,10010,2020-01-08 16:20:35:704,1.1703,0.2294,8.2049,0.0315,-0.0523,9.8064,-0.1235,0.3826,-0.0713,-7,-36.44,-11.87,219.12,-86.4,-165.3
52.27735,-2.121195,108.5,26.96,4,12.93,24 / 24,10110,2020-01-08 16:20:35:804,-1.8703,0.9825,10.1956,-0.0335,-0.0132,9.8065,-0.1263,0.2218,-0.2243,-7.69,-36.37,-12.62,221.46,-86.62,-164.9
52.27735,-2.121195,108.5,26.96,4,12.93,24 / 24,10209,2020-01-08 16:20:35:903,2.921,-2.5917,9.0959,0.0362,-0.0383,9.8064,-0.182,0.0616,0.0689,-7.62,-36.69,-13.25,219.9,-86.56,-166.39
52.27735,-2.121195,108.5,26.96,4,12.93,24 / 24,10310,2020-01-08 16:20:36:004,1.6033,-0.8269,10.8302,0.0316,-0.0314,9.8065,0.0053,-0.0515,0.1401,-7.31,-36.37,-12,222.67,-86.51,-161.5
52.27735,-2.121195,108.5,26.96,4,12.93,24 / 24,10409,2020-01-08 16:20:36:103,2.215,-0.1855,11.0354,0.0776,-0.016,9.8063,0.0927,-0.034,0.0379,-7.06,-37,-11.75,224.45,-86.21,-158.78
52.27735,-2.121195,108.5,26.96,4,12.93,24 / 24,10510,2020-01-08 16:20:36:204,-2.1813,2.5734,10.1436,0.0069,0.0264,9.8066,0.0282,-0.3022,0.1104,-7.56,-36.81,-12.31,223.23,-86.22,-163.87
52.27735,-2.121195,108.5,26.96,4,12.93,24 / 24,10609,2020-01-08 16:20:36:303,2.6408,0.9441,11.3579,0.0286,-0.0194,9.8065,0.1326,-0.3416,0.2349,-7.62,-36.37,-12.19,224.02,-86.34,-163.36
52.27735,-2.121195,108.5,26.96,4,12.93,24 / 24,10710,2020-01-08 16:20:36:404,-1.0604,1.5475,7.9149,0.0559,0.0333,9.8063,0.1573,-0.0777,0.0525,-7.75,-36.62,-12.37,224.04,-86.15,-162.83
52.27735,-2.121195,108.5,26.96,4,12.93,24 / 24,10810,2020-01-08 16:20:36:504,0.3298,0.8504,10.6185,0.002,-0.0101,9.8066,0.1274,-0.0448,-0.0556,-7.5,-36.06,-11.94,219.9,-86.52,-164.61
52.27735,-2.121195,108.5,26.96,4,12.93,24 / 24,10910,2020-01-08 16:20:36:604,1.5225,-0.2102,10.3634,0.0213,0.0505,9.8064,0.0708,-0.0032,-0.0205,-7.12,-35.87,-12.06,221.16,-86.38,-162.96
52.27735,-2.121195,108.5,26.96,4,12.93,24 / 24,11010,2020-01-08 16:20:36:704,0.8903,0.9423,11.7098,-0.0023,-0.0243,9.8066,0.032,0.0645,0.076,-7.5,-36.5,-11.87,224.6,-86.44,-159.22
52.27735,-2.121195,108.5,26.96,4,12.93,24 / 24,11110,2020-01-08 16:20:36:804,0.1388,-0.024,8.6472,0.0116,0.0119,9.8066,-0.1605,-0.0071,0.0599,-7.37,-36.25,-12.37,222.87,-86.35,-160.99
52.27735,-2.121195,108.5,26.96,4,12.93,24 / 24,11210,2020-01-08 16:20:36:904,0.0331,-0.1818,9.2948,-0.0174,-0.0724,9.8063,-0.2028,0.0326,0.0476,-7.87,-36.5,-12.19,226.09,-86.4,-161.18
52.27735,-2.121195,108.5,26.96,4,12.93,23 / 23,11310,2020-01-08 16:20:37:004,-0.1182,2.7663,11.9676,0.003,-0.0217,9.8066,-0.3041,-0.239,0.1561,-8.06,-36.5,-11.94,230.41,-86.66,-156.88
52.27735,-2.121195,108.5,26.96,4,12.93,23 / 23,11410,2020-01-08 16:20:37:104,1.4643,0.0941,10.0157,0.0192,-0.0678,9.8063,-0.1763,-0.2939,0.2925,-8.06,-36,-11.87,233.84,-86.66,-153.14
52.27735,-2.121195,108.5,26.96,4,12.93,23 / 23,11509,2020-01-08 16:20:37:203,-1.1268,1.1773,11.5851,0.0304,-0.0485,9.8065,-0.0859,-0.0786,0.0708,-7.19,-36.12,-12.06,228.92,-86.66,-154.85
52.27735,-2.121195,108.5,26.96,4,12.93,23 / 23,11610,2020-01-08 16:20:37:304,1.3547,0.6399,8.7907,-0.0095,-0.0055,9.8066,-0.1952,-0.2021,-0.0265,-7.81,-36.75,-11.44,232.14,-86.45,-156.3
52.27735,-2.121195,108.5,26.96,4,12.93,23 / 23,11710,2020-01-08 16:20:37:404,-2.7956,2.3089,10.8684,0.033,-0.087,9.8062,-0.0973,0.0496,0.021,-7.31,-36.87,-11.62,230.72,-86.43,-152.21
52.27735,-2.121195,108.5,26.96,4,12.93,23 / 23,11810,2020-01-08 16:20:37:504,3.3867,-3.2913,7.3572,-0.0204,-0.0119,9.8066,-0.123,0.2545,-0.0515,-7.44,-36.5,-12.31,227.89,-86.46,-155.6
52.27735,-2.121195,108.5,26.96,4,12.93,23 / 23,11910,2020-01-08 16:20:37:604,-2.6853,2.6065,11.1561,0.0064,-0.0785,9.8062,0.0094,0.2951,-0.2508,-7.62,-37.25,-11.69,234.82,-86.66,-151.89
52.27735,-2.121195,108.5,26.96,4,12.93,23 / 23,12010,2020-01-08 16:20:37:704,-0.0065,0.4241,9.3564,-0.0372,0.0399,9.8064,0.2107,0.422,-0.2525,-7.69,-36.62,-12.69,226.84,-86.55,-158.7
52.27735,-2.121195,108.5,26.96,4,12.93,23 / 23,12110,2020-01-08 16:20:37:804,2.1805,-1.226,10.2105,-0.0026,0.009,9.8066,0.0686,0.2036,-0.1868,-8,-36.81,-12.37,230,-86.53,-156.89
52.27735,-2.121195,108.5,26.96,4,12.93,23 / 23,12209,2020-01-08 16:20:37:903,1.0659,-2.0894,9.5671,-0.0318,-0.0152,9.8065,-0.0026,0.2274,-0.1518,-7.44,-35.94,-12.37,226.56,-86.43,-157.02
52.27735,-2.121195,108.5,26.96,4,12.93,24 / 24,12310,2020-01-08 16:20:38:004,-0.1195,-0.2518,10.9538,-0.0024,-0.0429,9.8065,0.0877,0.1218,-0.12,-7.62,-36.31,-11.94,232.99,-86.65,-154.06
52.27735,-2.121195,108.5,26.96,4,12.93,24 / 24,12410,2020-01-08 16:20:38:104,-1.6028,-0.1302,9.6263,0.0028,0.0313,9.8065,0.1077,0.1247,0.0184,-7.31,-36.12,-11.81,229.24,-86.72,-154.6
52.27735,-2.121195,108.5,26.96,4,12.93,24 / 24,12510,2020-01-08 16:20:38:204,0.4293,-1.8615,9.486,-0.0307,-0.0089,9.8066,0.2781,-0.0429,-0.0907,-7.06,-36.06,-11.94,227.85,-86.64,-155.98
52.27735,-2.121195,108.5,26.96,4,12.93,24 / 24,12609,2020-01-08 16:20:38:303,1.2605,-0.2858,9.5155,-0.0018,0.0196,9.8066,0.0762,-0.0909,-0.1468,-7.62,-36.19,-12,230.93,-86.34,-155.7
52.27735,-2.121195,108.5,26.96,4,12.93,24 / 24,12710,2020-01-08 16:20:38:404,-0.7105,0.2762,9.1664,0.0359,-0.0085,9.8065,0.1069,0.089,0.0127,-7.69,-36.25,-12.5,232.86,-86.35,-153.6
52.27735,-2.121195,108.5,26.96,4,12.93,24 / 24,12810,2020-01-08 16:20:38:504,0.4542,1.1405,10.3963,0.0064,0.0341,9.8065,0.073,0.1609,0.0155,-7.31,-36.62,-11.69,230.21,-86.54,-152.99
52.27735,-2.121195,108.5,26.96,4,12.93,24 / 24,12909,2020-01-08 16:20:38:603,1.0268,-1.5634,8.9758,0.0134,0.0248,9.8065,0.0427,0.1322,-0.1953,-7.31,-36.56,-11.62,229.36,-86.33,-153.52
52.27735,-2.121195,108.5,26.96,4,12.93,24 / 24,13009,2020-01-08 16:20:38:703,2.6241,-0.1282,9.5037,0.01,0.0449,9.8065,0.0454,0.1786,-0.1384,-7.87,-36.62,-11.44,235.54,-86.51,-152.69
52.27735,-2.121195,108.5,26.96,4,12.93,24 / 24,13110,2020-01-08 16:20:38:804,-0.79,-0.0772,9.5751,0.0054,0.0262,9.8066,-0.0052,0.259,-0.0683,-7.5,-36.62,-11.62,231.76,-86.34,-154.78
52.27735,-2.121195,108.5,26.96,4,12.93,24 / 24,13210,2020-01-08 16:20:38:904,3.7595,1.0904,11.8913,-0.0345,0.0659,9.8063,-0.1064,0.2229,-0.1546,-8.12,-36.56,-11.5,230.48,-86.41,-158.06
52.27735,-2.121195,108.5,26.96,4,12.93,23 / 23,13310,2020-01-08 16:20:39:004,-0.8448,1.3733,9.4152,0.0525,0.0624,9.8063,-0.1654,0.1275,-0.0177,-7.62,-36.94,-11.75,229.93,-86.2,-156.35
52.27735,-2.121195,108.5,26.96,4,12.93,23 / 23,13409,2020-01-08 16:20:39:103,0.7308,1.0324,9.7894,-0.0591,0.0024,9.8064,0.0481,0.4642,-0.0127,-8.37,-36.81,-11.5,235.82,-86.32,-151.95
52.27735,-2.121195,108.5,26.96,4,12.93,23 / 23,13509,2020-01-08 16:20:39:203,5.7606,-1.7974,10.3808,0.0058,0.0092,9.8066,0.0633,0.0915,-0.1442,-8.06,-37.37,-11.75,233.31,-86.26,-152.72
52.27735,-2.121195,108.5,26.96,4,12.93,23 / 23,13610,2020-01-08 16:20:39:304,1.1356,-0.1963,10.3502,-0.0701,0.0149,9.8064,0.0154,-0.3756,0.0712,-7.31,-36.62,-11.81,226.09,-86.51,-157.5
52.27735,-2.121195,108.5,26.96,4,12.93,23 / 23,13710,2020-01-08 16:20:39:404,5.2622,-1.1606,10.2088,-0.0555,0.0221,9.8064,0.0461,-0.3914,0.2865,-7.37,-36.69,-12.37,224.04,-86.46,-159.71
52.27735,-2.121195,108.5,26.96,4,12.93,23 / 23,13810,2020-01-08 16:20:39:504,-2.763,1.562,9.4559,-0.0697,0.0117,9.8064,0.095,-0.6117,0.3709,-7.19,-36.69,-11.69,226.78,-86.43,-156.58
52.27735,-2.121195,108.5,26.96,4,12.93,23 / 23,13910,2020-01-08 16:20:39:604,3.9473,-0.4111,10.3635,-0.0756,0.0084,9.8063,0.0445,-0.5175,0.3553,-7.69,-36.81,-11.06,227.96,-86.75,-161.52
52.27735,-2.121195,108.5,26.96,4,12.93,23 / 23,14010,2020-01-08 16:20:39:704,-2.314,0.3752,8.1681,-0.0014,-0.0003,9.8066,0.0823,-0.411,0.1221,-7.56,-36.94,-11.69,231.61,-86.69,-155.47
52.27735,-2.121195,108.5,26.96,4,12.93,23 / 23,14110,2020-01-08 16:20:39:804,-2.1671,0.3848,8.7673,-0.0396,-0.0199,9.8065,0.0391,-0.1769,0.0133,-8.06,-36.56,-11.75,232.23,-86.81,-155.03
52.27735,-2.121195,108.5,26.96,4,12.93,23 / 23,14210,2020-01-08 16:20:39:904,-2.2259,1.4452,8.5629,0.0575,0.0275,9.8064,0.0004,0.1082,-0.013,-7.19,-36.56,-11.12,229.63,-86.48,-155.25
52.27735,-2.121195,108.5,26.96,4,12.93,23 / 24,14309,2020-01-08 16:20:40:003,-0.9057,1.0243,9.5728,-0.0172,0.0087,9.8066,-0.1174,0.2152,-0.0783,-7.5,-36.44,-11.12,227.15,-86.57,-158.41
52.27735,-2.121195,108.5,26.96,4,12.93,23 / 24,14410,2020-01-08 16:20:40:104,4.6917,-1.3052,11.3202,0.0668,-0.0015,9.8063,-0.1056,0.5626,-0.3943,-7.56,-37.12,-11.69,231.06,-86.31,-155.29
52.27735,-2.121195,108.5,26.96,4,12.93,23 / 24,14510,2020-01-08 16:20:40:204,-4.0073,2.7468,9.6443,0.0779,0,9.8062,-0.0348,0.5806,-0.4528,-7.69,-36.75,-12.06,230.1,-86.29,-156.32
52.27735,-2.121195,108.5,26.96,4,12.93,23 / 24,14609,2020-01-08 16:20:40:303,-0.4187,-0.482,8.845,0.0629,-0.0311,9.8063,0.0475,0.5985,-0.3685,-8.31,-36.5,-11.75,226.12,-86.32,-160.99
52.27735,-2.121195,108.5,26.96,4,12.93,23 / 24,14710,2020-01-08 16:20:40:404,4.0075,0.8823,11.1681,0.0755,-0.0135,9.8063,0.0206,0.4399,-0.2971,-7.75,-36.94,-11.44,231.04,-86.11,-156.78
52.27735,-2.121195,108.5,26.96,4,12.93,23 / 24,14810,2020-01-08 16:20:40:504,5.0833,-0.0128,12.085,-0.0157,-0.0323,9.8065,0.1778,0.0955,-0.1337,-8.56,-37.25,-12.06,229.02,-86.22,-160.86
52.27735,-2.121195,108.5,26.96,4,12.93,23 / 24,14909,2020-01-08 16:20:40:603,-0.5446,3.5787,9.9946,0.0482,-0.0026,9.8065,0.2291,-0.066,-0.0433,-7.62,-37.12,-12,225.41,-86.16,-161.3
52.27735,-2.121195,108.5,26.96,4,12.93,23 / 24,15010,2020-01-08 16:20:40:704,-0.1065,0.6127,8.6025,-0.0089,-0.031,9.8065,0.1322,-0.1385,0.0376,-7.75,-36.94,-11.5,225.89,-86.15,-162.66
52.27735,-2.121195,108.5,26.96,4,12.93,23 / 24,15110,2020-01-08 16:20:40:804,-3.1636,0.7652,8.1562,0.0685,0.0205,9.8063,0.0538,-0.3876,0.0914,-7.62,-36.56,-11.75,227.86,-86.07,-158.61
52.27735,-2.121195,108.5,26.96,4,12.93,23 / 24,15210,2020-01-08 16:20:40:904,-0.6382,1.6608,11.3795,-0.0815,0.0265,9.8062,0.0996,-0.6168,0.4494,-8.25,-36.81,-11.37,227.92,-86.47,-161.01
52.27735,-2.121195,108.5,26.96,4,12.93,23 / 23,15309,2020-01-08 16:20:41:003,6.9931,-2.8275,10.4425,-0.0042,0.0655,9.8064,0.1347,-0.8455,0.3973,-7.12,-37.31,-11.69,223.39,-86.13,-159.82
52.27735,-2.121195,108.5,26.96,4,12.93,23 / 23,15410,2020-01-08 16:20:41:104,0.2416,2.7338,10.6327,-0.1104,0.0052,9.806,0.2212,-0.6181,0.322,-7.19,-37.12,-11.12,226.98,-86.1,-157.43
52.27735,-2.121195,108.5,26.96,4,12.93,23 / 23,15510,2020-01-08 16:20:41:204,5.8711,-1.7132,10.0534,-0.0886,0.0074,9.8062,0.1536,-0.4135,0.271,-7.87,-36.75,-11.31,226.02,-86.41,-163.01
52.27735,-2.121195,108.5,26.96,4,12.93,23 / 23,15610,2020-01-08 16:20:41:304,-3.5097,2.466,9.6755,-0.0692,0.0159,9.8064,0.068,-0.2097,0.131,-7.31,-36.62,-11.37,222.4,-86.57,-163.54
52.27735,-2.121195,108.5,26.96,4,12.93,23 / 23,15710,2020-01-08 16:20:41:404,4.8611,-1.5697,10.1501,-0.0813,0.0671,9.806,0.05,-0.2549,0.0191,-7.62,-36.69,-12.19,222.21,-86.45,-165.4
52.27735,-2.121195,108.5,26.96,4,12.93,23 / 23,15810,2020-01-08 16:20:41:504,-3.0494,2.1509,9.1426,-0.0637,0.0072,9.8064,0.0634,0.0705,-0.0419,-7.19,-37.19,-11.94,223.76,-86.34,-159.81
52.27735,-2.121195,108.5,26.96,4,12.93,23 / 23,15910,2020-01-08 16:20:41:604,4.6216,1.1089,10.9092,-0.0788,0.0341,9.8063,-0.0098,0.0466,-0.0183,-8.06,-37,-11.5,225.46,-86.4,-163.62
52.27735,-2.121195,108.5,26.96,4,12.93,23 / 23,16009,2020-01-08 16:20:41:703,-4.1224,4.6803,9.1313,-0.0419,0.0134,9.8065,-0.0647,0.1651,-0.1624,-7.37,-37.12,-11.69,225.63,-86.19,-157.42
52.27735,-2.121195,108.5,26.96,4,12.93,23 / 23,16110,2020-01-08 16:20:41:804,3.6544,-0.9658,8.3277,-0.1095,0.0266,9.806,-0.1385,0.3179,-0.2359,-7.44,-36.94,-11.81,222.87,-86.6,-161.26
52.27735,-2.121195,108.5,26.96,4,12.93,23 / 23,16210,2020-01-08 16:20:41:904,-5.108,1.7057,8.7245,-0.0298,-0.0134,9.8065,-0.072,0.6066,-0.3378,-7.62,-36.62,-12,229.93,-86.52,-156.95
52.27735,-2.121195,108.5,26.96,4,12.93,23 / 23,16311,2020-01-08 16:20:42:005,3.4225,-0.0073,10.5765,-0.0737,0.0052,9.8063,-0.0522,0.5286,-0.336,-7.19,-36.69,-11.75,225.9,-86.86,-158.37
52.27735,-2.121195,108.5,26.96,4,12.93,23 / 23,16410,2020-01-08 16:20:42:104,1.349,0.111,11.7116,0.0303,0.0265,9.8065,0.0125,0.5299,-0.3727,-7.19,-37.06,-12.5,225.69,-86.75,-158.41
52.27735,-2.121195,108.5,26.96,4,12.93,23 / 23,16510,2020-01-08 16:20:42:204,5.1208,-0.8567,10.1098,-0.0562,0.0559,9.8063,0.021,0.5049,-0.4163,-7.06,-36.81,-12,220.38,-86.46,-163.81
52.27735,-2.121195,108.5,26.96,4,12.93,23 / 23,16610,2020-01-08 16:20:42:304,-2.391,3.7074,10.9196,0.0018,-0.0219,9.8065,0.1964,0.6517,-0.3684,-6.69,-37.12,-12.06,222.5,-86.56,-161.61
52.27735,-2.121195,108.5,26.96,4,12.93,23 / 23,16710,2020-01-08 16:20:42:404,-0.7531,1.7355,7.8025,-0.0466,0.0925,9.806,0.2358,0.6249,-0.4456,-6.56,-37.25,-12.62,214.87,-86.53,-168.5
52.27735,-2.121195,108.5,26.96,4,12.93,23 / 23,16809,2020-01-08 16:20:42:503,-3.9755,5.2795,13.133,-0.0165,-0.0144,9.8066,0.4173,0.5369,-0.6575,-6,-37,-11.69,217.59,-86.8,-163.63
52.27735,-2.121195,108.5,26.96,4,12.93,23 / 23,16911,2020-01-08 16:20:42:605,5.9325,-2.0617,8.2063,-0.0863,0.109,9.8056,0.4164,0.9112,-0.5299,-5.44,-37.19,-11.5,211.7,-86.68,-167.45
52.27735,-2.121195,108.5,26.96,4,12.93,23 / 23,17010,2020-01-08 16:20:42:704,2.119,-0.7264,8.7338,0.0487,-0.0499,9.8063,0.4776,0.8643,-0.6006,-4,-37.06,-10.75,213.17,-86.8,-161.31
52.27735,-2.121195,108.5,26.96,4,12.93,23 / 23,17110,2020-01-08 16:20:42:804,8.7158,-5.2705,6.8594,-0.126,0.1047,9.8052,0.1448,0.862,-0.606,-3,-36.5,-8.12,201.63,-86.73,-173.87
52.27735,-2.121195,108.5,26.96,4,12.93,23 / 23,17210,2020-01-08 16:20:42:904,-9.9955,0.051,10.9285,0.1314,-0.048,9.8056,-0.0198,0.5999,-0.2866,0.69,-34.12,-3.25,176.52,-86.74,-167.17
52.27949,-2.120448,109.82,27.39,4,11.95,23 / 23,17310,2020-01-08 16:20:43:004,-1.1685,-0.1129,11.0133,-0.0026,-0.0299,9.8065,-0.0736,0.1138,0.0861,6.88,-23.12,0.25,119.55,-86.85,-159.45
52.27949,-2.120448,109.82,27.39,4,11.95,23 / 23,17409,2020-01-08 16:20:43:103,2.1885,0.0862,9.3991,0.1306,0.0443,9.8056,-0.1418,-0.1548,0.1109,10.19,-15.62,-10.69,155.58,-86.57,-163.64
52.27949,-2.120448,109.82,27.39,4,11.95,23 / 23,17510,2020-01-08 16:20:43:204,-6.4176,-0.2841,10.9987,-0.0109,-0.0147,9.8066,-0.1724,-0.0787,0.2399,2.31,-30,-23.31,194.15,-86.57,-159.82
52.27949,-2.120448,109.82,27.39,4,11.95,23 / 23,17610,2020-01-08 16:20:43:304,-5.8278,1.9893,9.7108,0.0942,-0.064,9.806,-0.2297,-0.2054,0.1243,-2.94,-34.5,-18.81,215.32,-86.81,-150.43
52.27949,-2.120448,109.82,27.39,4,11.95,23 / 23,17709,2020-01-08 16:20:43:403,-3.8147,-0.7646,7.582,-0.002,0.0226,9.8066,0.2388,-0.6126,0.4527,-5.81,-35.62,-15.81,218.01,-86.65,-158.24
52.27949,-2.120448,109.82,27.39,4,11.95,23 / 23,17810,2020-01-08 16:20:43:504,4.6245,-0.7628,10.5198,0.0943,-0.0077,9.8061,0.1203,-0.4364,0.2992,-7.06,-35.75,-14.25,221.94,-86.92,-159.93
52.27949,-2.120448,109.82,27.39,4,11.95,23 / 23,17910,2020-01-08 16:20:43:604,1.0828,1.6015,11.6905,-0.0032,-0.0173,9.8066,-0.0169,-0.4177,0.1653,-7.31,-36,-12.37,228.78,-86.72,-155.12
52.27949,-2.120448,109.82,27.39,4,11.95,23 / 23,18009,2020-01-08 16:20:43:703,3.7103,-2.2435,9.1861,0.0439,-0.0014,9.8065,-0.1142,-0.486,0.2446,-7.25,-36.5,-12.75,227.26,-86.77,-155.29
52.27949,-2.120448,109.82,27.39,4,11.95,23 / 23,18110,2020-01-08 16:20:43:804,-2.4595,1.3369,10.1633,0.048,-0.0667,9.8062,-0.0557,-0.3403,0.3049,-7.62,-36.56,-11.81,237.41,-86.75,-149.27
52.27949,-2.120448,109.82,27.39,4,11.95,23 / 23,18209,2020-01-08 16:20:43:903,3.4888,-1.6449,9.0949,0.035,-0.0288,9.8065,-0.0799,-0.3745,0.245,-8,-36.19,-13.44,231.48,-86.74,-154.14
52.27949,-2.120448,109.82,27.39,4,11.95,24 / 25,18310,2020-01-08 16:20:44:004,-3.1649,2.3513,10.5662,0.0243,-0.0801,9.8063,0.0464,-0.551,0.261,-7.94,-36.87,-11.69,237.47,-86.81,-149.33
52.27949,-2.120448,109.82,27.39,4,11.95,24 / 25,18409,2020-01-08 16:20:44:103,3.695,-1.7815,8.874,0.052,-0.0146,9.8064,0.0777,-0.544,0.1983,-8.12,-37,-11.94,229.77,-86.48,-157.07
52.27949,-2.120448,109.82,27.39,4,11.95,24 / 25,18510,2020-01-08 16:20:44:204,-3.7459,3.5506,9.3046,0.0739,-0.0825,9.806,0.0691,-0.255,0.1744,-8.12,-36.62,-11.75,234.68,-86.37,-151.43
52.27949,-2.120448,109.82,27.39,4,11.95,24 / 25,18609,2020-01-08 16:20:44:303,3.7659,-0.965,10.1495,0.0408,-0.0079,9.8065,0.0991,-0.3209,0.1022,-8.25,-36.94,-11.75,235.53,-86.4,-150.58
52.27949,-2.120448,109.82,27.39,4,11.95,24 / 25,18710,2020-01-08 16:20:44:404,-2.4425,1.5329,10.5361,0.0614,-0.0602,9.8062,0.0757,-0.0996,0.046,-7.94,-36.75,-11.37,239.03,-86.56,-148.99
52.27949,-2.120448,109.82,27.39,4,11.95,24 / 25,18810,2020-01-08 16:20:44:504,4.4494,-2.825,10.1168,0.024,0.0158,9.8065,0.1043,-0.0348,-0.0691,-7.87,-37.25,-11.62,234.08,-86.62,-152.61
52.27949,-2.120448,109.82,27.39,4,11.95,24 / 25,18910,2020-01-08 16:20:44:604,-1.0901,1.4081,9.1834,0.0863,-0.0311,9.8061,0.0662,0.1182,-0.0918,-7.94,-36.87,-11.25,236.83,-86.45,-151.12
52.27949,-2.120448,109.82,27.39,4,11.95,24 / 25,19010,2020-01-08 16:20:44:704,-2.1018,2.0328,9.7529,0.0257,-0.0098,9.8066,0.0715,0.1366,-0.0913,-8.5,-37.19,-11.31,235.64,-86.61,-152.81
52.27949,-2.120448,109.82,27.39,4,11.95,24 / 25,19110,2020-01-08 16:20:44:804,-4.1976,3.2593,9.9262,0.0568,-0.0472,9.8063,-0.0012,0.4021,-0.3032,-7.75,-36.75,-11.94,237.87,-86.5,-148.24
52.27949,-2.120448,109.82,27.39,4,11.95,23 / 24,19210,2020-01-08 16:20:44:904,3.6801,-2.0772,9.8302,-0.0246,-0.0009,9.8066,-0.0031,0.4527,-0.4168,-8.5,-36.69,-12.12,235.83,-86.63,-150.75
52.27949,-2.120448,109.82,27.39,4,11.95,23 / 24,19310,2020-01-08 16:20:45:004,0.4748,-1.8503,9.7982,0.0557,-0.0474,9.8063,0.0737,0.5112,-0.2566,-7.81,-37.06,-12.06,237.71,-86.78,-149.02
52.27949,-2.120448,109.82,27.39,4,11.95,23 / 24,19409,2020-01-08 16:20:45:103,5.0033,-2.0457,9.7789,-0.0209,0.0292,9.8066,0.1475,0.4909,-0.3218,-6.94,-36.62,-11.81,229.49,-86.8,-154.3
52.27949,-2.120448,109.82,27.39,4,11.95,23 / 24,19511,2020-01-08 16:20:45:205,-2.4705,1.9837,10.1103,0.0497,-0.0308,9.8065,0.0977,0.635,-0.471,-7.62,-37.5,-11.94,234.43,-86.59,-152.18
52.27949,-2.120448,109.82,27.39,4,11.95,23 / 24,19610,2020-01-08 16:20:45:304,-2.0298,2.5875,9.4995,-0.0427,0.0321,9.8065,0.2056,0.7211,-0.4644,-7.56,-36.25,-11.69,233.07,-86.67,-154
52.27949,-2.120448,109.82,27.39,4,11.95,23 / 24,19711,2020-01-08 16:20:45:405,-5.9774,4.7454,10.0738,0.0372,-0.077,9.8063,0.1249,0.9337,-0.4726,-7.44,-36.87,-12.25,233.17,-86.74,-150.17
52.27949,-2.120448,109.82,27.39,4,11.95,23 / 24,19810,2020-01-08 16:20:45:504,-1.206,-0.2724,8.5343,-0.1108,0.029,9.8059,0.0675,0.4864,-0.4593,-8.69,-36.81,-11.94,235.15,-86.94,-155.55
52.27949,-2.120448,109.82,27.39,4,11.95,23 / 24,19910,2020-01-08 16:20:45:604,5.9954,-3.162,10.603,0.001,-0.0161,9.8066,0.073,0.2057,-0.011,-7.87,-37.19,-11.75,236.62,-86.79,-150.22
52.27949,-2.120448,109.82,27.39,4,11.95,23 / 24,20009,2020-01-08 16:20:45:703,-5.3787,3.0327,10.125,-0.0893,0.0607,9.806,0.0571,0.0178,0.0766,-7.94,-36.87,-11.69,240.98,-86.67,-145.26
52.27949,-2.120448,109.82,27.39,4,11.95,23 / 24,20109,2020-01-08 16:20:45:803,1.3023,0.1537,10.6172,-0.0527,0.0417,9.8064,0.0319,-0.3318,0.2781,-8.44,-36.62,-11.62,240.05,-86.7,-146.31
52.27949,-2.120448,109.82,27.39,4,11.95,23 / 24,20210,2020-01-08 16:20:45:904,-6.5571,2.9649,8.8069,-0.0891,0.0477,9.8061,0.0985,-0.8032,0.4267,-7.5,-36.87,-11.19,238.39,-86.72,-146.16
52.27949,-2.120448,109.82,27.39,4,11.95,23 / 24,20311,2020-01-08 16:20:46:005,3.6634,-2.593,9.4788,-0.1071,0.0226,9.806,-0.0367,-0.7931,0.4775,-7.94,-36.94,-11.87,233.41,-87.1,-154.32
52.27949,-2.120448,109.82,27.39,4,11.95,23 / 24,20409,2020-01-08 16:20:46:103,-5.4435,1.2578,10.7449,-0.0216,0.0113,9.8066,0.016,-0.6487,0.38,-7.19,-36.87,-12.31,233.1,-86.98,-150.75
52.27949,-2.120448,109.82,27.39,4,11.95,23 / 24,20510,2020-01-08 16:20:46:204,3.6415,-3.5083,10.5022,-0.0751,0.0585,9.8062,-0.0043,-0.6661,0.3743,-7.56,-37.56,-11.94,229.46,-87.01,-158.27
52.27949,-2.120448,109.82,27.39,4,11.95,23 / 24,20610,2020-01-08 16:20:46:304,1.0614,-1.309,10.0314,0.0308,-0.0128,9.8065,-0.002,-0.3868,0.2931,-7.75,-37,-12.12,233.83,-86.78,-153.21
52.27949,-2.120448,109.82,27.39,4,11.95,23 / 24,20709,2020-01-08 16:20:46:403,5.1206,-3.6818,9.1089,-0.0532,0.0345,9.8064,-0.0612,-0.2509,0.1621,-7.94,-36.81,-12.12,230.93,-86.85,-156.51
52.27949,-2.120448,109.82,27.39,4,11.95,23 / 24,20810,2020-01-08 16:20:46:504,0.3386,0.0628,10.4203,0.0631,-0.0328,9.8064,-0.0552,0.0924,-0.1541,-7.69,-36.87,-11.62,232.15,-86.84,-155.16
52.27949,-2.120448,109.82,27.39,4,11.95,23 / 24,20909,2020-01-08 16:20:46:603,-4.0957,2.1014,9.3623,-0.0065,0.0258,9.8066,-0.0688,0.1955,-0.2251,-7.37,-36.69,-12.06,229.24,-86.82,-154.62
52.27949,-2.120448,109.82,27.39,4,11.95,23 / 24,21010,2020-01-08 16:20:46:704,-1.6692,2.7293,9.8011,0.0682,-0.0233,9.8064,-0.0866,0.412,-0.1833,-7.44,-36.81,-12.06,232.27,-86.75,-151.17
52.27949,-2.120448,109.82,27.39,4,11.95,23 / 24,21110,2020-01-08 16:20:46:804,-2.0541,2.3656,8.8512,0.0187,0.0041,9.8066,-0.1191,0.5059,-0.2572,-7.69,-36.56,-12.31,233.55,-86.85,-153.68
52.27949,-2.120448,109.82,27.39,4,11.95,23 / 24,21210,2020-01-08 16:20:46:904,3.5157,-2.1604,10.6576,0.0677,-0.0124,9.8064,-0.094,0.5435,-0.2921,-7.62,-36.81,-11.25,234.96,-87.17,-154.78
52.27949,-2.120448,109.82,27.39,4,11.95,23 / 23,21310,2020-01-08 16:20:47:004,-2.4572,1.107,9.6989,0.0639,-0.0051,9.8064,-0.0521,0.5066,-0.2479,-7.69,-37.06,-11.81,236.08,-86.83,-150.88
52.27949,-2.120448,109.82,27.39,4,11.95,23 / 23,21409,2020-01-08 16:20:47:103,3.8646,-0.7581,10.9665,0.0396,0.0127,9.8065,-0.0187,0.2011,-0.0772,-8,-36.75,-11.87,234.82,-86.63,-151.82
52.27949,-2.120448,109.82,27.39,4,11.95,23 / 23,21510,2020-01-08 16:20:47:204,-2.5178,3.3163,8.204,0.0787,-0.0157,9.8062,0.0384,0.1827,0.0724,-7.75,-36.75,-11.5,238.86,-86.41,-148.82
52.27949,-2.120448,109.82,27.39,4,11.95,23 / 23,21610,2020-01-08 16:20:47:304,-2.6414,2.3868,9.6821,-0.047,0.0197,9.8064,-0.0396,-0.5881,0.1532,-7.75,-36.81,-11.37,236.57,-86.65,-151.87
52.27949,-2.120448,109.82,27.39,4,11.95,23 / 23,21710,2020-01-08 16:20:47:404,-2.8215,0.3421,7.9549,0.0026,0.0848,9.8062,0.0798,-0.6168,0.3013,-7.62,-37.06,-12.31,231.24,-86.47,-155.42
52.27949,-2.120448,109.82,27.39,4,11.95,23 / 23,21809,2020-01-08 16:20:47:503,-0.5249,1.8712,11.3625,-0.0941,0.0191,9.8061,0.1464,-0.5895,0.3935,-8,-36.94,-11.69,226.63,-86.67,-160.88
52.27949,-2.120448,109.82,27.39,4,11.95,23 / 23,21909,2020-01-08 16:20:47:603,3.653,-2.8075,8.9847,-0.0484,0.0675,9.8063,0.0748,-0.3664,0.1075,-7.94,-36.87,-11.69,226.39,-86.28,-160.44
52.27949,-2.120448,109.82,27.39,4,11.95,23 / 23,22009,2020-01-08 16:20:47:703,-5.9158,4.2859,10.0846,0.0902,-0.0745,9.8059,-0.0042,0.0325,-0.0684,-7.37,-36.75,-11.5,233.26,-86.22,-150.63
52.27949,-2.120448,109.82,27.39,4,11.95,23 / 23,22110,2020-01-08 16:20:47:804,1.1214,-0.5258,9.4454,0.0064,-0.0112,9.8066,0.0625,0.2073,-0.1176,-7.19,-36.31,-11,230.04,-86.4,-154.85
52.27949,-2.120448,109.82,27.39,4,11.95,25 / 25,22209,2020-01-08 16:20:47:903,-4.855,4.1934,8.4617,0.085,-0.0394,9.8062,-0.1088,0.514,-0.2967,-7.31,-36.44,-12,230.64,-86.28,-152.2
52.27949,-2.120448,109.82,27.39,4,11.95,25 / 25,22310,2020-01-08 16:20:48:004,1.8744,-0.3695,8.9449,-0.0502,-0.0373,9.8064,-0.2014,0.5363,-0.3094,-7.75,-36.56,-11.5,234.41,-86.57,-154.05
52.27949,-2.120448,109.82,27.39,4,11.95,25 / 25,22410,2020-01-08 16:20:48:104,3.4493,-1.1825,11.8249,0.0247,-0.0411,9.8065,-0.0572,0.5873,-0.3057,-7.12,-36.5,-11.37,232.84,-86.37,-151.67
52.27949,-2.120448,109.82,27.39,4,11.95,25 / 25,22509,2020-01-08 16:20:48:203,3.0785,-2.0003,8.9257,-0.0801,0.0016,9.8063,0.0122,0.5881,-0.3443,-7.75,-36.94,-12.62,233.33,-86.2,-150.93
52.27949,-2.120448,109.82,27.39,4,11.95,25 / 25,22610,2020-01-08 16:20:48:304,2.346,-0.5384,10.8917,-0.0297,-0.065,9.8063,0.1883,0.3424,-0.2378,-7.69,-37.25,-12.12,234.59,-86.56,-151.93
52.27949,-2.120448,109.82,27.39,4,11.95,25 / 25,22709,2020-01-08 16:20:48:403,-3.7328,1.8596,10.1126,-0.053,0.0562,9.8062,0.1777,0.232,-0.1049,-8,-37,-12.06,228.17,-86.53,-158.92
52.27949,-2.120448,109.82,27.39,4,11.95,25 / 25,22810,2020-01-08 16:20:48:504,3.1614,-1.0696,10.5327,-0.0413,0.0281,9.8064,0.0325,-0.2597,0.1529,-8.25,-37.12,-11.87,228.97,-86.4,-157.79
52.27949,-2.120448,109.82,27.39,4,11.95,25 / 25,22910,2020-01-08 16:20:48:604,-3.1228,2.1786,9.6184,0.0247,0.0202,9.8065,0.0873,-0.4498,0.2611,-8.25,-37.06,-12.12,232.78,-86.27,-153.32
52.27949,-2.120448,109.82,27.39,4,11.95,25 / 25,23010,2020-01-08 16:20:48:704,1.5139,-1.434,9.9224,-0.0594,0.0123,9.8064,0.1019,-0.423,0.2927,-7.87,-36.69,-11.44,234.83,-86.49,-153.42
52.27949,-2.120448,109.82,27.39,4,11.95,25 / 25,23109,2020-01-08 16:20:48:803,2.0079,-2.08,9.8378,0.0145,-0.0139,9.8066,0.0108,-0.3655,0.0864,-8.31,-36.25,-11.44,237.33,-86.42,-150.73
52.27949,-2.120448,109.82,27.39,4,11.95,23 / 25,23211,2020-01-08 16:20:48:905,1.4371,0.0408,10.3191,0.0046,0.0017,9.8066,0.0518,-0.0769,0.0012,-8.12,-37,-11.06,237.03,-86.53,-151.11
52.27949,-2.120448,109.82,27.39,4,11.95,23 / 25,23310,2020-01-08 16:20:49:004,-0.4188,-0.5999,9.6625,0.0545,-0.0013,9.8064,0.0059,0.0131,-0.0334,-8.31,-36.5,-11.62,232.74,-86.62,-154.27
52.27949,-2.120448,109.82,27.39,4,11.95,23 / 25,23409,2020-01-08 16:20:49:103,-2.5005,2.0352,9.6389,0.044,-0.0068,9.8065,-0.0725,0.2796,-0.1306,-7.94,-37,-12.06,236.09,-86.49,-150.15
52.27949,-2.120448,109.82,27.39,4,11.95,23 / 25,23510,2020-01-08 16:20:49:204,2.8304,-1.5186,9.6991,0.0316,-0.0153,9.8065,-0.0039,0.4915,-0.3014,-7.94,-36.87,-11.81,234.44,-86.46,-151.88
52.27949,-2.120448,109.82,27.39,4,11.95,23 / 25,23610,2020-01-08 16:20:49:304,-4.045,0.7219,8.1742,0.0736,-0.0396,9.8063,-0.0178,0.5867,-0.3217,-7.37,-37.25,-11.44,236.51,-86.3,-147.22
52.27949,-2.120448,109.82,27.39,4,11.95,23 / 25,23709,2020-01-08 16:20:49:403,2.0741,-1.6322,9.2309,-0.0244,-0.0444,9.8065,0.1629,0.2023,-0.228,-7.12,-37.44,-11.81,238.12,-86.84,-145.01
52.27949,-2.120448,109.82,27.39,4,11.95,23 / 25,23811,2020-01-08 16:20:49:505,1.6955,-0.3211,11.1414,0.0167,-0.0399,9.8066,0.158,0.1347,-0.0726,-7.31,-37.19,-11.75,236.2,-86.71,-146.8
52.27949,-2.120448,109.82,27.39,4,11.95,23 / 25,23911,2020-01-08 16:20:49:605,-2.1752,2.1277,10.6002,-0.0376,0.0173,9.8065,0.1893,0.0358,0.0421,-7.62,-36.87,-12.12,239.95,-86.6,-146.22
52.27949,-2.120448,109.82,27.39,4,11.95,23 / 25,24010,2020-01-08 16:20:49:704,-0.8339,1.2085,10.4636,0.0034,-0.0479,9.8065,0.1541,-0.0775,-0.0551,-8.19,-37.06,-11.25,244.05,-86.6,-143.65
52.27949,-2.120448,109.82,27.39,4,11.95,23 / 25,24110,2020-01-08 16:20:49:804,-0.4404,-1.0473,8.3914,-0.0259,-0.0169,9.8066,0.163,-0.2321,0.0168,-7.69,-37.25,-12.12,241.53,-86.74,-144.81
52.27949,-2.120448,109.82,27.39,4,11.95,23 / 25,24210,2020-01-08 16:20:49:904,2.0137,-0.9197,11.4934,-0.0381,-0.0495,9.8064,0.2439,-0.3315,0.1094,-8.19,-36.5,-11.94,242.08,-86.81,-144.58
52.27949,-2.120448,109.82,27.39,4,11.95,22 / 23,24310,2020-01-08 16:20:50:004,-0.6507,-0.4064,7.9819,-0.013,0.0024,9.8066,0.1338,-0.0863,0.034,-7.87,-36.69,-12.12,241.61,-86.64,-144.51
52.27949,-2.120448,109.82,27.39,4,11.95,22 / 23,24410,2020-01-08 16:20:50:104,0.5873,0.4746,10.8767,-0.0043,-0.0443,9.8065,0.0515,0.0321,-0.0836,-8.37,-37.12,-11.37,245.45,-86.68,-142.36
52.27949,-2.120448,109.82,27.39,4,11.95,22 / 23,24509,2020-01-08 16:20:50:203,2.874,-0.2743,10.8609,0.0423,0.0132,9.8065,-0.0722,0.2153,-0.1282,-7.87,-36.75,-11.62,242.5,-86.44,-143.09
52.27949,-2.120448,109.82,27.39,4,11.95,22 / 23,24610,2020-01-08 16:20:50:304,1.2954,1.3348,9.9229,0.0141,-0.0066,9.8066,-0.1554,0.4209,-0.139,-8.12,-37,-11.62,242.54,-86.51,-143.21
52.27949,-2.120448,109.82,27.39,4,11.95,22 / 23,24711,2020-01-08 16:20:50:405,3.9156,-0.7395,10.4915,0.0401,-0.0116,9.8065,-0.0839,0.3037,-0.2964,-8.75,-36.87,-11.87,245.56,-86.7,-143.9
52.27949,-2.120448,109.82,27.39,4,11.95,22 / 23,24810,2020-01-08 16:20:50:504,-0.9393,2.8374,9.0491,0.0441,-0.0038,9.8065,-0.0827,0.2682,-0.1964,-8.44,-36.81,-11.56,243.46,-86.65,-142.55
52.27949,-2.120448,109.82,27.39,4,11.95,22 / 23,24909,2020-01-08 16:20:50:603,4.7277,-0.3106,11.6575,-0.0341,-0.0144,9.8065,0.0421,0.2442,-0.0609,-8.56,-36.87,-11.31,245.42,-86.75,-146.18
52.27949,-2.120448,109.82,27.39,4,11.95,22 / 23,25009,2020-01-08 16:20:50:703,-1.7242,2.6164,9.3331,0.0026,0.0162,9.8066,0.0864,-0.0866,-0.048,-8.12,-36.81,-11.87,242.74,-86.66,-143.34
52.27949,-2.120448,109.82,27.39,4,11.95,22 / 23,25110,2020-01-08 16:20:50:804,0.1793,0.1071,8.1123,-0.0374,0.0171,9.8065,0.1801,-0.2355,0.0246,-8.44,-36.12,-11.94,243.24,-86.71,-143.13
52.27949,-2.120448,109.82,27.39,4,11.95,22 / 23,25209,2020-01-08 16:20:50:903,-4.5191,3.0964,10.2868,0.0499,0.0332,9.8064,0.2084,-0.3278,0.2152,-8.06,-36.87,-12.25,246.22,-86.88,-140.15
52.27949,-2.120448,109.82,27.39,4,11.95,22 / 23,25310,2020-01-08 16:20:51:004,-0.7714,-0.4638,7.4404,-0.0139,0.0786,9.8062,-0.0098,-0.4038,0.213,-8.56,-37.25,-12.06,243.82,-86.73,-145.82
52.27949,-2.120448,109.82,27.39,4,11.95,22 / 23,25410,2020-01-08 16:20:51:104,3.1268,-1.4069,9.7919,0.03,-0.0203,9.8066,-0.0819,-0.4343,0.1736,-8.69,-36.87,-12,247.27,-86.7,-142.11
52.27949,-2.120448,109.82,27.39,4,11.95,22 / 23,25509,2020-01-08 16:20:51:203,-1.8237,0.522,9.6596,0.0293,0.0137,9.8065,-0.0739,-0.0146,0.0981,-7.87,-37.12,-12.06,239.84,-86.69,-146.52
52.27949,-2.120448,109.82,27.39,4,11.95,22 / 23,25610,2020-01-08 16:20:51:304,1.585,-1.7529,10.2015,0.006,0.0008,9.8065,-0.0038,0.0885,-0.0465,-7.81,-36.56,-11.62,237.86,-86.65,-148.57
52.27949,-2.120448,109.82,27.39,4,11.95,22 / 23,25710,2020-01-08 16:20:51:404,0.1164,1.7793,10.3491,0.0398,-0.0199,9.8065,-0.0609,0.2329,-0.1903,-7.75,-36.81,-11.75,238.5,-86.48,-147.5
52.27949,-2.120448,109.82,27.39,4,11.95,22 / 23,25810,2020-01-08 16:20:51:504,2.4928,-1.1328,10.2396,-0.0189,-0.0306,9.8066,-0.1028,0.3828,-0.1575,-8.31,-36.94,-12.25,236.52,-86.44,-149.58
52.27949,-2.120448,109.82,27.39,4,11.95,22 / 23,25910,2020-01-08 16:20:51:604,1.2823,1.8909,10.8756,0.0393,0.0292,9.8065,-0.0652,0.3779,-0.1544,-8.25,-36.75,-11.31,238.21,-86.46,-149.64
52.27949,-2.120448,109.82,27.39,4,11.95,22 / 23,26010,2020-01-08 16:20:51:704,-2.7311,3.2458,8.3758,0.0204,0.0383,9.8065,0.0374,0.2937,-0.1631,-7.62,-36.69,-12.37,234.97,-86.57,-151.55
52.27949,-2.120448,109.82,27.39,4,11.95,22 / 23,26110,2020-01-08 16:20:51:804,2.0574,0.7199,11.1151,0.037,0.0092,9.8065,0.1618,-0.142,0.0475,-7.87,-37.06,-11.87,233.95,-86.71,-152.93
52.27949,-2.120448,109.82,27.39,4,11.95,22 / 23,26210,2020-01-08 16:20:51:904,-2.7997,1.7893,7.5827,0.0622,0.0337,9.8064,0.1787,-0.2456,0.1541,-7.94,-36.5,-11.94,235.43,-86.44,-150.97
52.2816,-2.119732,111.05,26.25,4,11.8,22 / 23,26309,2020-01-08 16:20:52:003,-0.761,2.3082,10.321,-0.0098,0.0057,9.8066,0.1888,-0.5125,0.157,-7.81,-36.37,-11.94,235.17,-86.59,-151.57
52.2816,-2.119732,111.05,26.25,4,11.8,22 / 23,26410,2020-01-08 16:20:52:104,-3.5707,2.447,8.6026,0.0216,0.0192,9.8065,0.1378,-0.524,0.181,-7.81,-36.56,-11.31,238.01,-86.48,-149.92
52.2816,-2.119732,111.05,26.25,4,11.8,22 / 23,26510,2020-01-08 16:20:52:204,-0.4617,1.3391,9.1591,-0.0956,-0.0161,9.8061,0.0915,-0.373,0.2357,-8.19,-36.81,-11.12,236.99,-86.71,-151.54
52.2816,-2.119732,111.05,26.25,4,11.8,22 / 23,26610,2020-01-08 16:20:52:304,5.6386,0.0371,11.2246,-0.0189,-0.0293,9.8065,-0.1935,-0.0718,0.1578,-7.62,-37.31,-11.94,237.53,-86.43,-148.46
52.2816,-2.119732,111.05,26.25,4,11.8,22 / 23,26710,2020-01-08 16:20:52:404,-1.4941,0.0679,7.1666,-0.0782,-0.0063,9.8063,-0.2408,0.3324,-0.2608,-7.37,-36.31,-12.31,234.16,-86.34,-148.43
52.2816,-2.119732,111.05,26.25,4,11.8,22 / 23,26810,2020-01-08 16:20:52:504,4.9372,0.996,10.8346,-0.0807,-0.0092,9.8062,-0.0851,0.5431,-0.1739,-8.5,-36.69,-11.81,237.8,-86.78,-148.93
52.2816,-2.119732,111.05,26.25,4,11.8,22 / 23,26909,2020-01-08 16:20:52:603,-1.8483,4.5595,12.0738,0.0012,0.0979,9.8061,-0.0047,0.626,-0.2901,-7.62,-36.75,-11.87,236.94,-86.43,-149.1
52.2816,-2.119732,111.05,26.25,4,11.8,22 / 23,27010,2020-01-08 16:20:52:704,3.8284,-2.1654,11.4604,-0.074,0.0406,9.8062,0.1708,0.714,-0.5,-8.62,-36.56,-12.12,242.04,-86.58,-147.38
52.2816,-2.119732,111.05,26.25,4,11.8,22 / 23,27110,2020-01-08 16:20:52:804,-5.0112,3.9387,8.8534,0.0126,0.0956,9.8061,0.2737,0.7965,-0.5119,-8.19,-36.31,-11.75,246.01,-86.64,-140.03
52.2816,-2.119732,111.05,26.25,4,11.8,22 / 24,27210,2020-01-08 16:20:52:904,2.3986,-4.2106,7.2338,-0.0764,0.1017,9.8058,0.3109,0.3789,-0.2734,-7.81,-36.06,-12,238.82,-86.65,-147.73
52.2816,-2.119732,111.05,26.25,4,11.8,22 / 24,27310,2020-01-08 16:20:53:004,3.6565,-0.3744,12.1606,0.0682,0.0155,9.8063,0.2624,0.179,-0.1308,-8.06,-36.19,-11.44,245.23,-86.83,-143.17
52.2816,-2.119732,111.05,26.25,4,11.8,22 / 24,27410,2020-01-08 16:20:53:104,1.1947,-2.6397,8.1328,0.0072,0.0661,9.8064,0.1922,-0.3057,0.1911,-7.81,-36.12,-11.81,241.84,-86.52,-144.2
52.2816,-2.119732,111.05,26.25,4,11.8,22 / 24,27510,2020-01-08 16:20:53:204,3.0609,-1.3849,11.2402,0.0745,-0.0343,9.8063,0.1207,-0.4333,0.3367,-7.5,-36.56,-11.87,238.58,-86.69,-144.17
52.2816,-2.119732,111.05,26.25,4,11.8,22 / 24,27610,2020-01-08 16:20:53:304,-4.228,2.2483,11.061,0.0546,-0.0139,9.8064,-0.1315,-0.71,0.3406,-7.94,-36.31,-12.25,246.89,-86.51,-138.8
52.2816,-2.119732,111.05,26.25,4,11.8,22 / 24,27710,2020-01-08 16:20:53:404,2.7957,-1.5313,11.7385,0.0183,-0.0608,9.8064,-0.1166,-0.5601,0.344,-8.25,-36.56,-11.81,245.55,-86.61,-140.24
52.2816,-2.119732,111.05,26.25,4,11.8,22 / 24,27809,2020-01-08 16:20:53:503,-2.9394,1.2433,9.7806,0.0706,-0.0237,9.8063,-0.1141,-0.148,0.1327,-8,-35.87,-11.81,245.71,-86.86,-140.85
52.2816,-2.119732,111.05,26.25,4,11.8,22 / 24,27909,2020-01-08 16:20:53:603,-2.587,1.3018,8.6989,-0.0337,-0.0039,9.8066,-0.1824,-0.0034,0.0384,-7.94,-35.56,-11.19,249.98,-86.81,-138.11
52.2816,-2.119732,111.05,26.25,4,11.8,22 / 24,28009,2020-01-08 16:20:53:703,-1.5297,1.2816,9.9275,0.065,0.0429,9.8063,-0.2472,0.3565,-0.1334,-8.31,-35.94,-12.06,247.08,-86.42,-138.39
52.2816,-2.119732,111.05,26.25,4,11.8,22 / 24,28110,2020-01-08 16:20:53:804,-1.8405,-0.4416,9.0816,0.0174,0.0403,9.8065,-0.1738,0.3789,-0.1356,-8.19,-36.37,-12.25,248.38,-86.64,-137.51
52.2816,-2.119732,111.05,26.25,4,11.8,21 / 22,28210,2020-01-08 16:20:53:904,2.0067,-0.0061,11.3719,0.0422,0.0336,9.8064,-0.1793,0.2649,0.0176,-8.25,-36.06,-12.25,250.83,-86.79,-135.3
52.2816,-2.119732,111.05,26.25,4,11.8,21 / 22,28309,2020-01-08 16:20:54:003,-2.5904,2.5809,7.4027,0.0594,0.0073,9.8064,-0.1561,-0.0054,0.0542,-8.31,-35.87,-12.19,251.51,-86.43,-133.73
52.2816,-2.119732,111.05,26.25,4,11.8,21 / 22,28410,2020-01-08 16:20:54:104,3.8571,2.0737,9.9518,-0.0496,-0.0349,9.8064,-0.0331,-0.3203,0.2397,-8.25,-35.75,-11.44,255.02,-86.56,-132.2
52.2816,-2.119732,111.05,26.25,4,11.8,21 / 22,28510,2020-01-08 16:20:54:204,4.3327,-1.5607,10.1952,0.0365,0.0097,9.8065,-0.0215,-0.4743,0.3414,-8.25,-36.06,-12.37,256.55,-86.71,-129.13
52.2816,-2.119732,111.05,26.25,4,11.8,21 / 22,28609,2020-01-08 16:20:54:303,-3.1044,1.9226,9.6292,-0.0683,0.0268,9.8064,0.0507,-0.6534,0.3086,-8.62,-36,-12.12,254.76,-86.96,-135.05
52.2816,-2.119732,111.05,26.25,4,11.8,21 / 22,28710,2020-01-08 16:20:54:404,1.0673,-0.5184,10.0786,-0.0521,0.0112,9.8065,0.0321,-0.3823,0.3166,-8.75,-35.37,-12.94,254.37,-86.73,-133.37
