GPS LATITUDE (degrees), GPS LONGITUDE (degrees), GPS ALTITUDE (m), GPS SPEED (Kmh), GPS ACCURACY (m), GPS ORIENTATION (Â°),GPS SATELLITES IN RANGE, TIME SINCE START (ms), DATE (YYYY-MO-DD HH-MI-SS_SSS), ACCELEROMETER X (m/s²) , ACCELEROMETER Y (m/s²), ACCELEROMETER Z (m/s²), GRAVITY X (m/s²), GRAVITY Y (m/s²), GRAVITY Z (m/s²), GYROSCOPE Yaw (rad/s), GYROSCOPE Pitch (rad/s), GYROSCOPE Roll (rad/s), MAGNETIC FIELD X (Î¼T), MAGNETIC FIELD Y (Î¼T), MAGNETIC FIELD Z (Î¼T), ORIENTATION (Yaw) (Â°), ORIENTATION (Pitch) (Â°), ORIENTATION (Roll ) (Â°)
52.20858,-2.187417,101.63,9.7,2,295.93,24 / 25,12673309,2020-01-08 15:46:36:903,2.7205,1.2363,9.5708,0.0151,-0.0021,9.8066,0.0247,-0.0652,-0.0257,4.94,-36.31,-1.25,156.32,-83.48,-143.66
52.20858,-2.187417,101.63,9.7,2,295.93,24 / 25,12673410,2020-01-08 15:46:37:004,0.7335,-1.5041,9.9221,0.021,0.024,9.8066,0.0537,0.1566,-0.1442,6.31,-35.94,-0.94,153.69,-83.52,-142.88
52.20858,-2.187417,101.63,9.7,2,295.93,24 / 25,12673510,2020-01-08 15:46:37:104,3.8303,3.1787,9.4255,0.009,0.0056,9.8065,0.0139,-0.3769,0.1447,5.19,-35.94,-1.19,156.56,-83.5,-143.16
52.20858,-2.187417,101.63,9.7,2,295.93,24 / 25,12673609,2020-01-08 15:46:37:203,2.27,2.8104,10.1833,0.0259,0.0228,9.8065,0.0779,-0.1005,-0.0757,5,-36.62,-0.31,151.85,-83.36,-141.82
52.20858,-2.187417,101.63,9.7,2,295.93,24 / 25,12673710,2020-01-08 15:46:37:304,2.8708,2.5595,9.8884,-0.0009,-0.0133,9.8065,-0.0368,-0.4041,0.0755,5.31,-36.31,-1.25,156.86,-83.43,-142.84
52.20858,-2.187417,101.63,9.7,2,295.93,24 / 25,12673810,2020-01-08 15:46:37:404,2.1284,1.5481,9.5551,0.0069,0.0121,9.8066,-0.0114,-0.2386,-0.1115,4.44,-36.44,-1.56,166.05,-83.47,-143.18
52.20858,-2.187417,101.63,9.7,2,295.93,24 / 25,12673910,2020-01-08 15:46:37:504,4.2635,3.0181,9.688,-0.0075,-0.0341,9.8065,0.0661,-0.4777,0.0603,4.63,-36.25,-1.87,160.44,-83.65,-145.58
52.20858,-2.187417,101.63,9.7,2,295.93,24 / 25,12674010,2020-01-08 15:46:37:604,3.0934,1.7542,10.8254,-0.0014,-0.0119,9.8066,0.0373,-0.309,-0.1933,4.38,-36.31,-3,167.33,-83.96,-149.04
52.20858,-2.187417,101.63,9.7,2,295.93,24 / 25,12674110,2020-01-08 15:46:37:704,4.7994,2.1908,9.2133,-0.0214,-0.0484,9.8065,-0.0175,-0.6201,0.0174,4.38,-35.69,-3.12,164.65,-84.17,-153.31
52.20858,-2.187417,101.63,9.7,2,295.93,24 / 25,12674210,2020-01-08 15:46:37:804,2.5531,1.3101,10.2588,0.006,-0.043,9.8065,0.1036,-0.4306,-0.0671,5.06,-35.37,-4.25,160.32,-84.6,-158.25
52.20858,-2.187417,101.63,9.7,2,295.93,25 / 25,12674310,2020-01-08 15:46:37:904,2.7998,1.5162,9.0186,0.0039,-0.0202,9.8066,-0.066,-0.6168,0.0212,4.75,-35.87,-5,161.68,-84.76,-161.66
52.20858,-2.187417,101.63,9.7,2,295.93,25 / 25,12674410,2020-01-08 15:46:38:004,4.1652,1.266,10.7284,0.0123,-0.0388,9.8065,0.0136,-0.6348,0.0857,3.63,-35.75,-6.06,168.95,-84.97,-162.13
52.20858,-2.187417,101.63,9.7,2,295.93,25 / 25,12674510,2020-01-08 15:46:38:104,3.7229,0.4686,9.2643,-0.0267,-0.02,9.8066,-0.1466,-0.5644,0.1502,4.5,-35.94,-6.44,164.92,-85.15,-161.05
52.20858,-2.187417,101.63,9.7,2,295.93,25 / 25,12674609,2020-01-08 15:46:38:203,3.8718,0.2921,9.5544,0.007,-0.0192,9.8065,-0.0053,-0.5404,-0.0133,2.44,-35.94,-8.37,182.97,-85.38,-161.96
52.20858,-2.187417,101.63,9.7,2,295.93,25 / 25,12674709,2020-01-08 15:46:38:303,3.5138,0.5145,9.2911,0.0005,0.0205,9.8065,-0.0651,-0.5526,0.0511,2.44,-35,-8.5,182.49,-85.36,-162.62
52.20858,-2.187417,101.63,9.7,2,295.93,25 / 25,12674810,2020-01-08 15:46:38:404,5.3163,0.9375,8.8539,0.0008,0.0129,9.8066,-0.0703,-0.7107,0.1651,0.88,-35.62,-9.44,188.69,-85.13,-162.08
52.20858,-2.187417,101.63,9.7,2,295.93,25 / 25,12674910,2020-01-08 15:46:38:504,4.1764,0.3484,9.0997,-0.0084,-0.0081,9.8066,0.0236,-0.4514,-0.0963,0.5,-35.87,-10.44,189.41,-85.13,-162.06
52.20858,-2.187417,101.63,9.7,2,295.93,25 / 25,12675009,2020-01-08 15:46:38:603,6.8989,0.053,8.8586,-0.0288,-0.005,9.8066,-0.0424,-0.6595,-0.0298,-0.19,-35.75,-10.81,192.05,-85.41,-164.85
52.20858,-2.187417,101.63,9.7,2,295.93,25 / 25,12675110,2020-01-08 15:46:38:704,2.5621,-0.7318,8.9664,0.0476,-0.0651,9.8063,-0.0241,0.099,-0.3648,-1.37,-35.69,-11.19,191.75,-85.78,-170.68
52.20858,-2.187417,101.63,9.7,2,295.93,25 / 25,12675210,2020-01-08 15:46:38:804,-0.5698,-0.1639,9.6246,0.0153,-0.0391,9.8065,-0.092,-0.4633,0.0809,-2.06,-36.12,-12.06,199.22,-86.42,-166.79
52.20858,-2.187417,101.63,9.7,2,295.93,24 / 25,12675310,2020-01-08 15:46:38:904,0.5006,0.9369,10.3562,0.0539,-0.0154,9.8065,0.0512,0.0121,-0.2108,-3.31,-36.12,-12.25,208.23,-86.58,-161.14
52.20858,-2.187417,101.63,9.7,2,295.93,24 / 25,12675410,2020-01-08 15:46:39:004,0.491,-0.1975,8.2617,0.0012,0.027,9.8066,-0.1247,-0.1631,-0.1984,-3.69,-36.12,-12.5,213.91,-86.47,-158.96
52.20858,-2.187417,101.63,9.7,2,295.93,24 / 25,12675510,2020-01-08 15:46:39:104,6.4985,-0.5666,9.5315,0.0705,-0.0154,9.8064,0.08,-0.048,-0.293,-4.62,-35,-12.5,217.84,-86.48,-159.01
52.20858,-2.187417,101.63,9.7,2,295.93,24 / 25,12675609,2020-01-08 15:46:39:203,2.3534,0.0186,9.3618,0.0404,-0.0108,9.8065,0.0223,-0.1,-0.0559,-5.81,-35.25,-12.31,220.34,-86.45,-160.27
52.20858,-2.187417,101.63,9.7,2,295.93,24 / 25,12675710,2020-01-08 15:46:39:304,5.6432,-1.2317,9.7405,0.0584,-0.0484,9.8063,-0.0057,-0.168,-0.0693,-6.81,-35.5,-11.94,227.43,-86.36,-156.12
52.20858,-2.187417,101.63,9.7,2,295.93,24 / 25,12675810,2020-01-08 15:46:39:404,0.6695,0.3696,9.5089,0.0556,-0.0237,9.8064,-0.0624,-0.1495,-0.1299,-7.31,-34.62,-13,234.55,-86.2,-146.45
52.20858,-2.187417,101.63,9.7,2,295.93,24 / 25,12675910,2020-01-08 15:46:39:504,4.1362,-0.7706,10.751,0.035,-0.0049,9.8066,0.0518,-0.2626,0.0003,-9,-35.19,-12.5,243.42,-86.2,-145.54
52.20858,-2.187417,101.63,9.7,2,295.93,24 / 25,12676009,2020-01-08 15:46:39:603,1.1323,0.5628,9.0562,0.0525,0.0033,9.8064,-0.0824,-0.2136,-0.0715,-9.12,-35.75,-12.44,244.28,-85.88,-143.68
52.20858,-2.187417,101.63,9.7,2,295.93,24 / 25,12676109,2020-01-08 15:46:39:703,2.9739,-0.3646,10.2034,0.0342,-0.0109,9.8066,0.0453,-0.3982,0.0746,-11.12,-35,-12.19,253.35,-85.58,-140.05
52.20858,-2.187417,101.63,9.7,2,295.93,24 / 25,12676211,2020-01-08 15:46:39:805,2.1116,-0.3397,9.1472,0.0363,0.0029,9.8065,-0.0393,-0.3157,0.0512,-11.06,-35.25,-12.75,252.6,-85.3,-138.42
52.20858,-2.187417,101.63,9.7,2,295.93,25 / 26,12676310,2020-01-08 15:46:39:904,2.7364,-0.7708,10.2852,0.0112,-0.0011,9.8065,0.048,-0.4077,0.0387,-12.31,-35.06,-11.69,258.02,-85.15,-137.16
52.20858,-2.187417,101.63,9.7,2,295.93,25 / 26,12676410,2020-01-08 15:46:40:004,3.3887,-0.8444,9.9996,0.0165,0.0131,9.8065,-0.0016,-0.4164,0.1015,-13.31,-34.62,-11.87,259.4,-84.88,-137.89
52.20858,-2.187417,101.63,9.7,2,295.93,25 / 26,12676510,2020-01-08 15:46:40:104,1.9264,-0.0642,9.869,0.0047,-0.0024,9.8066,0.0122,-0.4008,0.0762,-13.31,-34.56,-12,259.49,-84.65,-137.36
52.20858,-2.187417,101.63,9.7,2,295.93,25 / 26,12676610,2020-01-08 15:46:40:204,2.7008,-0.7636,9.8443,0.0181,0.0163,9.8066,-0.0477,-0.4178,0.1474,-14.87,-33.75,-11.25,266.26,-84.37,-137.14
52.20858,-2.187417,101.63,9.7,2,295.93,25 / 26,12676710,2020-01-08 15:46:40:304,2.0889,0.2499,10.5243,-0.0027,0.0274,9.8065,-0.0011,-0.3618,0.0886,-14.87,-34,-10.31,268.75,-84.15,-136.44
52.20858,-2.187417,101.63,9.7,2,295.93,25 / 26,12676810,2020-01-08 15:46:40:404,1.9691,-0.5092,9.3885,0.0113,0.035,9.8065,-0.0305,-0.2529,-0.0048,-15.31,-34.31,-10.06,265.58,-84.07,-139.49
52.20858,-2.187417,101.63,9.7,2,295.93,25 / 26,12676910,2020-01-08 15:46:40:504,0.9544,2.4518,9.6179,-0.0251,0.0266,9.8066,-0.0455,-0.3254,0.0615,-14.94,-34.44,-8.94,264.12,-84.21,-143.64
52.20858,-2.187417,101.63,9.7,2,295.93,25 / 26,12677010,2020-01-08 15:46:40:604,1.8736,-0.5473,9.1509,-0.0221,0.0221,9.8066,-0.0657,-0.2701,0.1276,-14.87,-34.25,-9.12,263.25,-84.26,-144.63
52.20858,-2.187417,101.63,9.7,2,295.93,25 / 26,12677109,2020-01-08 15:46:40:703,0.3973,1.3071,10.4455,0.0113,0.0331,9.8065,-0.0697,-0.1207,0.0605,-14.75,-33.25,-8.81,264.45,-84.28,-143.77
52.20858,-2.187417,101.63,9.7,2,295.93,25 / 26,12677209,2020-01-08 15:46:40:803,1.2045,-0.1645,9.5197,0.0066,0.0233,9.8066,-0.1006,-0.1465,0.0476,-14.19,-34.19,-9.06,260.17,-84.18,-145.31
52.20858,-2.187417,101.63,9.7,2,295.93,25 / 26,12677310,2020-01-08 15:46:40:904,1.7425,-0.6453,10.7456,0.0085,-0.0177,9.8066,0.0845,0.0744,-0.0167,-14.06,-33.25,-8.5,263.34,-84.14,-144.91
52.20858,-2.187417,101.63,9.7,2,295.93,25 / 26,12677409,2020-01-08 15:46:41:003,0.6229,2.0517,10.6756,0.0524,-0.0042,9.8064,-0.0189,0.0906,-0.135,-14.31,-33.56,-8.81,260.75,-83.85,-144.02
52.20858,-2.187417,101.63,9.7,2,295.93,25 / 26,12677510,2020-01-08 15:46:41:104,1.0091,0.8254,11.3939,0.0062,-0.0543,9.8065,0.2992,0.1275,-0.1389,-15,-33.37,-8.62,264.73,-83.74,-142.45
52.20858,-2.187417,101.63,9.7,2,295.93,25 / 26,12677610,2020-01-08 15:46:41:204,-0.6825,3.1759,11.4797,0.0136,-0.0407,9.8065,0.281,0.2574,-0.2561,-15.37,-34.19,-10,260.11,-83.47,-143.99
52.20858,-2.187417,101.63,9.7,2,295.93,25 / 26,12677710,2020-01-08 15:46:41:304,-0.2824,-2.0173,8.3133,0.0021,-0.0877,9.8062,0.2011,0.0812,-0.3324,-15,-33.87,-9.37,259.4,-83.34,-146.83
52.20858,-2.187417,101.63,9.7,2,295.93,25 / 26,12677809,2020-01-08 15:46:41:403,2.777,-1.4837,10.5733,-0.0424,0.0184,9.8065,0.1952,-0.1948,0.2568,-14.87,-34.37,-9.37,260.44,-83.47,-145.98
52.20858,-2.187417,101.63,9.7,2,295.93,25 / 26,12677910,2020-01-08 15:46:41:504,-1.4325,1.0444,7.441,-0.0424,-0.0197,9.8065,-0.016,0.1164,0.1625,-14.19,-34.37,-9.56,257.07,-83.26,-144.33
52.20858,-2.187417,101.63,9.7,2,295.93,25 / 26,12678009,2020-01-08 15:46:41:603,-0.9479,0.044,11.2188,-0.0273,-0.1116,9.8059,0.4442,-0.4839,-0.082,-15.44,-34.81,-9.87,265.55,-83.57,-138.18
52.20858,-2.187417,101.63,9.7,2,295.93,25 / 26,12678110,2020-01-08 15:46:41:704,-5.6829,4.3663,5.2612,0.0703,0.0239,9.8063,-0.5554,1.0393,-0.425,-14.81,-35.44,-10.25,263.76,-83.15,-139.2
52.20858,-2.187417,101.63,9.7,2,295.93,25 / 26,12678210,2020-01-08 15:46:41:804,-3.2517,1.2425,7.2572,-0.0167,0.059,9.8064,-0.398,0.4701,-0.0134,-15.25,-35.12,-9.56,262.17,-83.44,-141.41
52.20858,-2.187417,101.63,9.7,2,295.93,24 / 24,12678310,2020-01-08 15:46:41:904,1.1829,-0.4921,11.3268,0.0708,0.0312,9.8062,-0.1969,0.0377,-0.1966,-14.5,-34.75,-8.19,264.46,-83.5,-141.57
52.20858,-2.187417,101.63,9.7,2,295.93,24 / 24,12678409,2020-01-08 15:46:42:003,-1.3342,-1.6427,11.319,-0.0662,0.0298,9.8063,-0.3119,-0.2192,0.2638,-14.94,-34.62,-8.62,262.1,-83.6,-144.14
52.20858,-2.187417,101.63,9.7,2,295.93,24 / 24,12678510,2020-01-08 15:46:42:104,-2.7422,3.9474,11.5711,0.0143,0.0834,9.8062,-0.1683,-0.0401,0.0291,-14.5,-34.37,-9.19,266.11,-84.04,-138.9
52.20858,-2.187417,101.63,9.7,2,295.93,24 / 24,12678610,2020-01-08 15:46:42:204,1.6147,-1.2124,9.8962,-0.0125,0.0801,9.8063,-0.1274,-0.3325,0.3455,-14.81,-34.31,-9.37,264.05,-84.04,-143.38
52.20858,-2.187417,101.63,9.7,2,295.93,24 / 24,12678710,2020-01-08 15:46:42:304,-1.7819,0.7653,10.5688,-0.0086,0.0356,9.8065,0.0117,0.0878,-0.0093,-14.06,-34.69,-10.25,259.07,-84.01,-143.36
52.20858,-2.187417,101.63,9.7,2,295.93,24 / 24,12678809,2020-01-08 15:46:42:403,1.1541,-2.0411,9.5816,-0.0115,0.0537,9.8065,-0.048,-0.2032,0.087,-13.94,-34.25,-8.81,259.91,-83.95,-145.11
52.20858,-2.187417,101.63,9.7,2,295.93,24 / 24,12678910,2020-01-08 15:46:42:504,-1.7906,1.5287,10.0617,0.0206,-0.0296,9.8065,0.0902,0.3644,-0.2048,-13.56,-34.94,-9,259.39,-83.95,-145.28
52.20858,-2.187417,101.63,9.7,2,295.93,24 / 24,12679010,2020-01-08 15:46:42:604,-1.7093,1.261,9.5787,0.0017,0.0341,9.8065,-0.1411,-0.0508,0.0668,-13.25,-34.62,-8.94,257.24,-83.8,-144.58
52.20858,-2.187417,101.63,9.7,2,295.93,24 / 24,12679110,2020-01-08 15:46:42:704,-2.1914,3.734,10.5699,0.0333,-0.0294,9.8065,0.0658,0.4407,-0.2617,-13.12,-34.62,-9.31,258.43,-83.92,-143.58
52.20858,-2.187417,101.63,9.7,2,295.93,24 / 24,12679209,2020-01-08 15:46:42:803,-0.8267,-0.4652,8.7647,0.0108,0.0378,9.8065,-0.1413,0.0397,0.0295,-13.19,-34.81,-9.25,258.57,-83.78,-143.13
52.20906,-2.187778,100.64,9.87,3,22.65,24 / 25,12679310,2020-01-08 15:46:42:904,1.6299,-1.8775,9.4898,0.0356,-0.0323,9.8065,0.1248,0.4859,-0.2422,-13.19,-34.5,-9.94,258.99,-83.63,-140.38
52.20906,-2.187778,100.64,9.87,3,22.65,24 / 25,12679409,2020-01-08 15:46:43:003,-1.2529,0.9666,9.1272,0.0115,-0.0207,9.8065,-0.0711,0.1534,-0.1436,-12.87,-35.06,-9.31,260.02,-83.63,-141.27
52.20906,-2.187778,100.64,9.87,3,22.65,24 / 25,12679510,2020-01-08 15:46:43:104,1.6304,-2.7519,9.7453,0.0486,-0.0443,9.8063,0.0837,0.4493,-0.3636,-12.44,-34.12,-9.56,254.79,-83.81,-142.32
52.20906,-2.187778,100.64,9.87,3,22.65,24 / 25,12679609,2020-01-08 15:46:43:203,0.8951,-2.2041,9.9895,-0.0055,0.0317,9.8065,-0.0271,0.1127,-0.0225,-12.94,-35.31,-9.31,259.04,-83.65,-142.34
52.20906,-2.187778,100.64,9.87,3,22.65,24 / 25,12679710,2020-01-08 15:46:43:304,-0.1415,-0.8059,9.8275,0.0386,-0.0177,9.8065,-0.0561,0.4074,-0.2119,-12.94,-35,-9.5,260.15,-83.59,-141.05
52.20906,-2.187778,100.64,9.87,3,22.65,24 / 25,12679810,2020-01-08 15:46:43:404,-2.6238,2.0863,9.3409,0.0006,-0.0073,9.8066,-0.0255,0.1962,-0.1332,-12.69,-34.62,-9.62,258.04,-83.79,-141.34
52.20906,-2.187778,100.64,9.87,3,22.65,24 / 25,12679910,2020-01-08 15:46:43:504,-1.7238,0.7609,9.6776,0.0311,-0.0126,9.8065,-0.0488,0.217,-0.1608,-12.75,-34.5,-9.75,257.49,-83.89,-142.5
52.20906,-2.187778,100.64,9.87,3,22.65,24 / 25,12680010,2020-01-08 15:46:43:604,-0.0191,0.9003,9.3792,0.0012,0.0036,9.8066,-0.0693,0.0817,-0.0019,-13.12,-34.81,-10.37,257.92,-83.82,-141.53
52.20906,-2.187778,100.64,9.87,3,22.65,24 / 25,12680110,2020-01-08 15:46:43:704,1.4274,-0.6266,10.0438,0.0367,-0.0046,9.8065,0.0843,0.1558,-0.1156,-13.06,-34.56,-10.12,257.99,-83.8,-141.41
52.20906,-2.187778,100.64,9.87,3,22.65,24 / 25,12680209,2020-01-08 15:46:43:803,0.3026,0.8622,8.7968,0.0283,0.03,9.8065,-0.0242,0.1826,-0.0633,-12.12,-35.87,-9.94,253.12,-83.42,-142.46
52.20906,-2.187778,100.64,9.87,3,22.65,23 / 26,12680311,2020-01-08 15:46:43:905,1.5236,-1.7248,10.3802,0.0092,-0.0322,9.8066,0.1256,0.133,-0.0921,-12.94,-34.5,-9.44,257.49,-83.25,-143.52
52.20906,-2.187778,100.64,9.87,3,22.65,23 / 26,12680410,2020-01-08 15:46:44:004,-1.4679,2.5564,11.1265,0.036,-0.0153,9.8065,0.1067,0.3039,-0.2612,-13.25,-34.87,-10,255.6,-83.14,-142.54
52.20906,-2.187778,100.64,9.87,3,22.65,23 / 26,12680510,2020-01-08 15:46:44:104,0.0338,0.2338,10.0705,0.0357,-0.0409,9.8064,0.1341,0.247,-0.2294,-12.44,-34.94,-9.81,250.83,-83.15,-144.76
52.20906,-2.187778,100.64,9.87,3,22.65,23 / 26,12680609,2020-01-08 15:46:44:203,-0.9678,2.1398,9.8961,0.0261,-0.0142,9.8065,0.071,0.2216,-0.1739,-13,-34.25,-10.06,254.04,-82.95,-144.24
52.20906,-2.187778,100.64,9.87,3,22.65,23 / 26,12680710,2020-01-08 15:46:44:304,1.5382,-1.21,10.1204,0.0217,-0.015,9.8066,-0.0285,0.2228,-0.1807,-12.62,-34.56,-9.5,255.58,-82.84,-144.22
52.20906,-2.187778,100.64,9.87,3,22.65,23 / 26,12680809,2020-01-08 15:46:44:403,-0.1277,0.0081,9.4871,0.0014,-0.0045,9.8066,-0.0674,0.1571,-0.0799,-13.62,-34.31,-10.06,256.26,-83.03,-144.73
52.20906,-2.187778,100.64,9.87,3,22.65,23 / 26,12680910,2020-01-08 15:46:44:504,0.3226,-0.4877,9.6629,0.0133,-0.0117,9.8065,0.0426,0.0306,-0.022,-13,-34.75,-9.81,253.59,-83.02,-144.46
52.20906,-2.187778,100.64,9.87,3,22.65,23 / 26,12681009,2020-01-08 15:46:44:603,-0.992,0.5271,9.6283,0.0139,-0.0087,9.8065,0.037,0.1097,-0.068,-13.19,-34.25,-9.69,254.23,-82.85,-143.83
52.20906,-2.187778,100.64,9.87,3,22.65,23 / 26,12681110,2020-01-08 15:46:44:704,-0.2422,0.3919,8.8883,0.0125,-0.0021,9.8066,-0.0271,0.1536,-0.0822,-12.56,-34.56,-9.06,255.08,-82.82,-144.72
52.20906,-2.187778,100.64,9.87,3,22.65,23 / 26,12681210,2020-01-08 15:46:44:804,-1.6831,2.4945,10.8668,0.0038,-0.0457,9.8065,0.1262,0.2421,-0.1566,-12.62,-34.44,-9.25,256.2,-82.79,-143.89
52.20906,-2.187778,100.64,9.87,3,22.65,25 / 26,12681309,2020-01-08 15:46:44:903,1.0724,-0.3341,10.643,0.0359,0.0068,9.8066,-0.1148,0.0946,-0.0951,-12.56,-34.06,-10.69,251.18,-82.63,-144.58
52.20906,-2.187778,100.64,9.87,3,22.65,25 / 26,12681409,2020-01-08 15:46:45:003,-1.1994,0.5045,10.4909,0.0113,-0.0209,9.8066,0.0303,0.1733,-0.0187,-12.44,-34.37,-10,250.58,-82.7,-144.54
52.20906,-2.187778,100.64,9.87,3,22.65,25 / 26,12681510,2020-01-08 15:46:45:104,0.1286,-0.8658,10.2633,0.0191,0.0159,9.8066,-0.0502,0.0302,0.0573,-12.37,-34.5,-10,250.61,-82.6,-144.29
52.20906,-2.187778,100.64,9.87,3,22.65,25 / 26,12681610,2020-01-08 15:46:45:204,-0.5815,-0.1006,10.4015,0.014,-0.0246,9.8066,0.068,0.1306,-0.0598,-12.75,-34.25,-9,255.95,-82.45,-143.44
52.20906,-2.187778,100.64,9.87,3,22.65,25 / 26,12681710,2020-01-08 15:46:45:304,-0.6215,-0.2442,9.5866,-0.0001,-0.0024,9.8066,0.0254,-0.0005,0.0513,-12.81,-34.44,-9.69,252.95,-82.31,-144.13
52.20906,-2.187778,100.64,9.87,3,22.65,25 / 26,12681810,2020-01-08 15:46:45:404,-1.6842,0.8867,9.7174,0.0231,-0.0124,9.8065,0.0739,0.1628,-0.043,-12.5,-34.75,-9.37,251.98,-82.09,-143.38
52.20906,-2.187778,100.64,9.87,3,22.65,25 / 26,12681910,2020-01-08 15:46:45:504,-1.4153,-0.4942,8.0022,-0.0121,-0.04,9.8065,0.103,-0.0861,0.0632,-13.12,-34.37,-9.56,254.28,-81.95,-141.93
52.20906,-2.187778,100.64,9.87,3,22.65,25 / 26,12682010,2020-01-08 15:46:45:604,-0.5369,-0.5214,10.6076,-0.0071,-0.0611,9.8064,0.1571,-0.007,-0.0249,-13,-34.56,-10.25,254.81,-81.82,-140.56
52.20906,-2.187778,100.64,9.87,3,22.65,25 / 26,12682110,2020-01-08 15:46:45:704,-1.1508,-0.2224,8.7548,0.015,-0.0474,9.8064,-0.0149,0.068,-0.0624,-13.94,-34.06,-9.87,258.53,-81.76,-139.76
52.20906,-2.187778,100.64,9.87,3,22.65,25 / 26,12682210,2020-01-08 15:46:45:804,-0.1749,-0.0714,11.1388,-0.014,-0.0527,9.8065,0.1846,-0.0042,0.0599,-14,-34.56,-10.75,259.45,-81.72,-136.19
52.20906,-2.187778,100.64,9.87,3,22.65,24 / 25,12682310,2020-01-08 15:46:45:904,-0.8615,-0.1303,8.9702,-0.0064,-0.0358,9.8066,0.0568,-0.1382,0.069,-14.81,-34.19,-10.81,261.96,-81.44,-136.07
52.20906,-2.187778,100.64,9.87,3,22.65,24 / 25,12682409,2020-01-08 15:46:46:003,-0.3175,0.0832,10.0911,0.0021,-0.0344,9.8065,0.1595,-0.0432,0.03,-14.31,-34.56,-10.69,260.97,-81.34,-133.78
52.20906,-2.187778,100.64,9.87,3,22.65,24 / 25,12682510,2020-01-08 15:46:46:104,0.044,-2.3536,8.9788,-0.0109,-0.0101,9.8065,0.0708,-0.0051,0.0229,-14.5,-33.44,-9.44,265.38,-81.18,-134.07
52.20906,-2.187778,100.64,9.87,3,22.65,24 / 25,12682610,2020-01-08 15:46:46:204,-2.055,0.5718,10.0101,-0.0004,-0.0496,9.8065,0.1496,0.3043,-0.205,-14.37,-34.12,-10.12,263.06,-81.15,-133.71
52.20906,-2.187778,100.64,9.87,3,22.65,24 / 25,12682709,2020-01-08 15:46:46:303,1.3142,-5.1599,12.7665,-0.0487,-0.1168,9.8058,0.6893,0.0675,0.2016,-14.87,-34,-9.81,260.36,-80.57,-138.1
52.20906,-2.187778,100.64,9.87,3,22.65,24 / 25,12682810,2020-01-08 15:46:46:404,-11.6853,9.7123,11.8135,0.0718,-0.2032,9.8042,0.9509,1.5653,-1.1322,-14.12,-34.75,-8.56,262.2,-80.05,-133.75
52.20906,-2.187778,100.64,9.87,3,22.65,24 / 25,12682910,2020-01-08 15:46:46:504,2.0595,-2.4705,8.9547,-0.0027,0.0034,9.8066,-0.2821,-0.1799,0.2168,-14.25,-34.44,-8.5,259.47,-80.06,-139.64
52.20906,-2.187778,100.64,9.87,3,22.65,24 / 25,12683010,2020-01-08 15:46:46:604,-7.0556,8.6809,1.5473,0.2,-0.1685,9.8031,0.1965,1.0481,-1.25,-14.56,-34.44,-10.81,261.43,-80.38,-134.6
52.20906,-2.187778,100.64,9.87,3,22.65,24 / 25,12683110,2020-01-08 15:46:46:704,5.4014,-10.7681,5.6494,-0.1021,-0.1912,9.8042,-0.4344,-0.3694,0.3017,-14.19,-34.25,-10.69,272.01,-82.34,-124.93
52.20906,-2.187778,100.64,9.87,3,22.65,24 / 25,12683212,2020-01-08 15:46:46:806,-3.0365,-8.5155,5.8138,0.074,-0.1121,9.8057,-0.2112,0.6231,-0.3618,-13.19,-34,-11.56,266.7,-82.57,-126.13
52.20906,-2.187778,100.64,9.87,3,22.65,24 / 26,12683310,2020-01-08 15:46:46:904,7.4922,-5.4791,12.1428,-0.0118,0.1494,9.8054,0.4228,-1.0168,0.7073,-13.56,-34.75,-9.94,261.49,-81.93,-136.49
52.20906,-2.187778,100.64,9.87,3,22.65,24 / 26,12683409,2020-01-08 15:46:47:003,0.6159,3.8696,12.0365,0.0821,0.0142,9.8063,0.2783,0.0775,-0.0207,-12.62,-34.94,-8.87,250.64,-80.54,-144.59
52.20906,-2.187778,100.64,9.87,3,22.65,24 / 26,12683510,2020-01-08 15:46:47:104,-6.021,5.1478,9.7621,-0.1129,0.025,9.8059,-0.3551,-0.9283,0.5901,-13.12,-34.69,-9.56,248.81,-80.34,-144.15
52.20906,-2.187778,100.64,9.87,3,22.65,24 / 26,12683609,2020-01-08 15:46:47:203,-2.0843,1.687,10.0352,-0.0437,-0.0574,9.8064,-0.1611,-0.4124,0.2388,-13.62,-34.37,-9.25,257.84,-81.41,-142.01
52.20906,-2.187778,100.64,9.87,3,22.65,24 / 26,12683710,2020-01-08 15:46:47:304,-3.8134,2.3888,9.2213,-0.0567,0.068,9.8062,-0.0744,-0.4679,0.4193,-12.94,-35.12,-10.5,255.57,-81.56,-139.16
52.20906,-2.187778,100.64,9.87,3,22.65,24 / 26,12683810,2020-01-08 15:46:47:404,3.2938,-2.6719,9.8356,-0.0095,0.0448,9.8065,0.0357,-0.4051,0.3113,-13.5,-34.62,-10.5,253.08,-81.36,-141.48
52.20906,-2.187778,100.64,9.87,3,22.65,24 / 26,12683909,2020-01-08 15:46:47:503,-1.2331,2.5785,10.1158,-0.0044,0.0437,9.8065,0.008,-0.1948,0.0984,-13.87,-34.5,-10.5,253.61,-80.84,-143.28
52.20906,-2.187778,100.64,9.87,3,22.65,24 / 26,12684010,2020-01-08 15:46:47:604,3.3911,-2.5567,10.1569,-0.0356,0.0283,9.8065,-0.0804,-0.4979,0.3081,-13.56,-35.06,-10,252.9,-80.76,-143.37
52.20906,-2.187778,100.64,9.87,3,22.65,24 / 26,12684110,2020-01-08 15:46:47:704,-1.2195,1.3861,10.1049,-0.0098,-0.0032,9.8066,-0.0667,0.1055,-0.0813,-13.12,-35.31,-10.56,249.2,-80.68,-142.47
52.20906,-2.187778,100.64,9.87,3,22.65,24 / 26,12684210,2020-01-08 15:46:47:804,2.9052,-2.4295,10.6316,-0.0725,0.0063,9.8063,-0.0289,-0.3533,0.3161,-11.06,-35.12,-9.44,247.93,-80.95,-141.77
52.20906,-2.187778,100.64,9.87,3,22.65,24 / 25,12684310,2020-01-08 15:46:47:904,-2.1606,0.5604,9.1863,0.0063,0.0081,9.8066,-0.0357,0.3009,-0.0741,-11,-34.12,-7.31,253.81,-80.88,-140.24
52.20906,-2.187778,100.64,9.87,3,22.65,24 / 25,12684410,2020-01-08 15:46:48:004,-2.0513,1.6906,9.3652,-0.0231,0.0005,9.8066,-0.0071,-0.0598,-0.0314,-14.94,-33.62,-5.75,268.53,-80.94,-140.08
52.20906,-2.187778,100.64,9.87,3,22.65,24 / 25,12684510,2020-01-08 15:46:48:104,-3.8183,2.1939,9.1001,0.021,-0.0207,9.8066,-0.0717,0.4068,-0.29,-16.62,-34,-9.44,266.17,-80.99,-139.74
52.20906,-2.187778,100.64,9.87,3,22.65,24 / 25,12684610,2020-01-08 15:46:48:204,-3.5599,-0.4746,9.1479,-0.0263,0.0148,9.8066,-0.0644,0.2194,-0.0528,-15.62,-34.25,-11.12,259.62,-81.32,-140.74
52.20906,-2.187778,100.64,9.87,3,22.65,24 / 25,12684709,2020-01-08 15:46:48:303,-2.0167,-2.271,10.1038,0.0099,0.0041,9.8065,-0.0569,0.3869,-0.1208,-13.62,-34.69,-10.44,256.33,-81.53,-141.18
52.20906,-2.187778,100.64,9.87,3,22.65,24 / 25,12684810,2020-01-08 15:46:48:404,-4.5984,-2.1832,9.1057,0.0212,0.0078,9.8066,-0.1293,0.3778,-0.2179,-13.19,-35.19,-10.69,252.11,-81.69,-141.25
52.20906,-2.187778,100.64,9.87,3,22.65,24 / 25,12684910,2020-01-08 15:46:48:504,-1.9551,-2.5139,10.6995,-0.0072,-0.0026,9.8066,-0.004,0.546,-0.2079,-12.06,-34.87,-10.75,249.32,-82.15,-142.27
52.20906,-2.187778,100.64,9.87,3,22.65,24 / 25,12685010,2020-01-08 15:46:48:604,-6.6799,1.7502,8.6469,0.0461,-0.0001,9.8065,-0.0817,0.8064,-0.3489,-11.94,-34.94,-10.87,249.16,-82.39,-142.95
52.20906,-2.187778,100.64,9.87,3,22.65,24 / 25,12685110,2020-01-08 15:46:48:704,-2.1896,-2.5126,10.9048,0.0205,-0.05,9.8064,0.0597,0.2896,-0.141,-10.5,-34.87,-10.62,245.48,-82.68,-141.02
52.20906,-2.187778,100.64,9.87,3,22.65,24 / 25,12685210,2020-01-08 15:46:48:804,-8.8183,0.5423,9.3683,0.0327,-0.0261,9.8065,-0.0081,0.8677,-0.3037,-10.94,-34.62,-10.94,249.92,-82.95,-140.09
52.20906,-2.187778,100.64,9.87,3,22.65,24 / 24,12685309,2020-01-08 15:46:48:903,-5.3956,-3.1781,8.9676,-0.0124,-0.0345,9.8066,0.1825,0.1522,0.0101,-9.69,-34.81,-11,246.85,-83.24,-140.71
52.20906,-2.187778,100.64,9.87,3,22.65,24 / 24,12685410,2020-01-08 15:46:49:004,-5.5665,-0.8163,11.1588,0.0503,-0.006,9.8064,0.1564,0.7055,-0.2575,-9.19,-34.81,-10.5,245.21,-83.23,-140.67
52.20906,-2.187778,100.64,9.87,3,22.65,24 / 24,12685510,2020-01-08 15:46:49:104,-2.7932,-3.5111,9.6853,-0.0274,-0.0241,9.8065,0.117,0.3079,-0.0043,-8,-34.56,-9.94,240.63,-83.49,-142.43
52.20906,-2.187778,100.64,9.87,3,22.65,24 / 24,12685610,2020-01-08 15:46:49:204,-7.987,-1.6483,10.2377,0.0093,-0.0567,9.8064,0.1583,0.7837,-0.3017,-7.12,-35.25,-11,235.24,-83.72,-143.37
52.20906,-2.187778,100.64,9.87,3,22.65,24 / 24,12685710,2020-01-08 15:46:49:304,-8.3414,-1.5554,8.8674,-0.0463,-0.0013,9.8065,-0.0386,0.1266,0.2162,-6.44,-35.37,-10.69,229.14,-83.91,-146.63
52.20906,-2.187778,100.64,9.87,3,22.65,24 / 24,12685810,2020-01-08 15:46:49:404,-5.5562,-0.0247,8.9256,0.0017,-0.037,9.8065,0.0894,0.372,-0.0182,-4.56,-34.81,-11.19,226.44,-84.23,-145.94
52.20906,-2.187778,100.64,9.87,3,22.65,24 / 24,12685909,2020-01-08 15:46:49:503,-6.1789,0.0554,8.4096,-0.0339,-0.0398,9.8065,-0.0309,0.4687,-0.1214,-4.25,-34.5,-11.06,222.36,-84.32,-146.57
52.20906,-2.187778,100.64,9.87,3,22.65,24 / 24,12686010,2020-01-08 15:46:49:604,-5.2803,0.3267,9.8936,-0.0807,-0.0475,9.8062,0.1538,0.4119,-0.0536,-3.44,-34.56,-11.37,216.54,-85.16,-149.94
52.20906,-2.187778,100.64,9.87,3,22.65,24 / 24,12686111,2020-01-08 15:46:49:705,-9.4568,-2.8404,9.6051,-0.0023,0.0451,9.8065,-0.0733,0.838,-0.1972,-1.37,-34.5,-11.31,201.7,-85.07,-157.96
52.20906,-2.187778,100.64,9.87,3,22.65,24 / 24,12686209,2020-01-08 15:46:49:803,-1.9377,-1.7744,9.5814,-0.0191,0.0332,9.8066,-0.0233,0.3836,0.2375,-0.81,-35.62,-9.81,200.43,-84.84,-158.9
52.20906,-2.187778,100.64,9.87,3,22.65,24 / 24,12686310,2020-01-08 15:46:49:904,-8.579,-1.8733,10.3077,-0.0131,0.109,9.806,-0.1158,0.8754,-0.1033,0.44,-35.5,-9.69,198.29,-84.53,-155.78
52.20906,-2.187778,100.64,9.87,3,22.65,24 / 24,12686410,2020-01-08 15:46:50:004,-4.6351,-2.9332,7.7327,-0.0753,0.0239,9.8063,-0.1251,0.6333,0.1099,2,-35.12,-9.12,186,-83.87,-159.08
52.20906,-2.187778,100.64,9.87,3,22.65,24 / 24,12686510,2020-01-08 15:46:50:104,-7.4641,-3.7726,10.7226,0.0023,-0.0068,9.8066,-0.032,0.9436,-0.2195,2.81,-35.69,-8.44,179.82,-83.92,-159.7
52.20906,-2.187778,100.64,9.87,3,22.65,24 / 24,12686609,2020-01-08 15:46:50:203,-2.5505,-4.7286,9.7013,0.0127,-0.0101,9.8066,-0.0326,0.588,-0.0039,3.81,-35.69,-8.06,176.58,-84.25,-158.22
52.20906,-2.187778,100.64,9.87,3,22.65,24 / 24,12686710,2020-01-08 15:46:50:304,-1.9065,-3.4488,9.0944,0.0483,-0.0069,9.8065,0.0848,0.8539,-0.0622,4.75,-35.12,-7.19,173.61,-84.33,-153.39
52.20906,-2.187778,100.64,9.87,3,22.65,24 / 24,12686810,2020-01-08 15:46:50:404,-2.4186,-5.1991,9.8799,0.0013,0.0105,9.8066,0.0866,0.8312,-0.256,5.88,-35.5,-6.12,167.16,-84.15,-153.14
52.20906,-2.187778,100.64,9.87,3,22.65,24 / 24,12686910,2020-01-08 15:46:50:504,-1.5676,-3.7937,9.437,-0.0061,0.0072,9.8066,0.0483,0.5059,0.0416,5.94,-35.37,-5.56,163.44,-84.2,-158.31
52.20906,-2.187778,100.64,9.87,3,22.65,24 / 24,12687010,2020-01-08 15:46:50:604,-2.5928,-4.6693,10.1548,-0.0039,-0.0158,9.8066,0.0191,0.6805,-0.0718,7.88,-34.75,-3.81,146.22,-84.34,-162.62
52.20906,-2.187778,100.64,9.87,3,22.65,24 / 24,12687110,2020-01-08 15:46:50:704,-1.847,-4.889,9.8686,0.0036,-0.017,9.8065,-0.0101,0.6554,-0.082,8.69,-35.37,-3.25,139.21,-84.53,-162.39
52.20906,-2.187778,100.64,9.87,3,22.65,24 / 24,12687210,2020-01-08 15:46:50:804,-1.1487,-3.3436,9.335,0.0017,0.0272,9.8065,0.0536,0.6174,-0.0077,8.63,-34.31,-3.12,140.84,-84.49,-160.03
52.20906,-2.187778,100.64,9.87,3,22.65,23 / 24,12687311,2020-01-08 15:46:50:905,-1.2603,-2.5501,9.5934,-0.0082,0.0278,9.8066,0.0612,0.554,0.003,9.44,-34.19,-1.06,134.38,-84.29,-157.34
52.20906,-2.187778,100.64,9.87,3,22.65,23 / 24,12687410,2020-01-08 15:46:51:004,-1.6418,-3.0448,9.566,0.0067,0.0171,9.8066,0.0173,0.4135,-0.0043,10.25,-34.87,-0.56,134.29,-84.11,-156.13
52.20906,-2.187778,100.64,9.87,3,22.65,23 / 24,12687509,2020-01-08 15:46:51:103,0.6026,-0.7444,9.534,0.0061,0.0047,9.8065,-0.0398,0.3297,0.0593,9.56,-33.87,0.38,128.84,-84.21,-156.56
52.20906,-2.187778,100.64,9.87,3,22.65,23 / 24,12687610,2020-01-08 15:46:51:204,0.0135,-3.538,9.8511,0.0349,0.0177,9.8065,0.0337,0.3504,-0.02,11,-33.69,0.31,128.38,-84.48,-155
52.20906,-2.187778,100.64,9.87,3,22.65,23 / 24,12687710,2020-01-08 15:46:51:304,1.1506,0.1183,9.8624,0.0078,0.027,9.8066,-0.0369,0.1014,0.2118,11.5,-33.75,1.56,119.75,-84.52,-154.13
52.20906,-2.187778,100.64,9.87,3,22.65,23 / 24,12687810,2020-01-08 15:46:51:404,1.1308,-1.4896,9.6455,-0.0036,0.0662,9.8063,-0.0005,0.4591,0.0387,10,-33.75,2.13,125.01,-84.32,-149.27
52.20906,-2.187778,100.64,9.87,3,22.65,23 / 24,12687909,2020-01-08 15:46:51:503,-0.8019,-0.8938,9.8218,0,0.0111,9.8066,-0.002,0.2967,0.0188,9.81,-34.06,3.06,122.04,-84.31,-147.07
52.20906,-2.187778,100.64,9.87,3,22.65,23 / 24,12688010,2020-01-08 15:46:51:604,1.0751,0.9347,9.3797,-0.0092,-0.0009,9.8066,0.0652,0.3586,-0.1292,10.25,-34.69,3.56,119.24,-84.31,-145.24
52.20906,-2.187778,100.64,9.87,3,22.65,23 / 24,12688109,2020-01-08 15:46:51:703,0.4622,-1.1003,9.4937,0.0143,-0.0101,9.8066,-0.05,0.2941,-0.0045,10.69,-34.5,3.56,120.67,-84.17,-143.98
52.20906,-2.187778,100.64,9.87,3,22.65,23 / 24,12688210,2020-01-08 15:46:51:804,0.105,-1.8132,10.4081,0.02,0.0315,9.8065,0.0196,0.0608,0.0828,9.94,-34.5,4.56,117.8,-84.13,-141.54
52.209724,-2.18754,98.82,5.47,3,287.4,23 / 24,12688309,2020-01-08 15:46:51:903,-0.4335,0.8149,10.2581,-0.0165,0.009,9.8066,-0.0006,0.1035,0.0763,9.94,-34.19,4.38,124.43,-83.92,-139.68
52.209724,-2.18754,98.82,5.47,3,287.4,23 / 24,12688409,2020-01-08 15:46:52:003,0.2977,1.1278,10.2265,-0.0096,-0.0018,9.8066,0.119,-0.0304,0.0828,9.63,-34.37,4.31,124.25,-83.9,-139.97
52.209724,-2.18754,98.82,5.47,3,287.4,23 / 24,12688510,2020-01-08 15:46:52:104,-0.3053,-0.6827,11.8051,-0.0341,-0.0022,9.8065,0.1729,0.0208,-0.0324,10.19,-34.31,5.44,117.17,-83.89,-142.94
52.209724,-2.18754,98.82,5.47,3,287.4,23 / 24,12688610,2020-01-08 15:46:52:204,0.189,-1.1605,10.3156,-0.0339,-0.011,9.8066,-0.036,-0.0552,0.0974,10.06,-34.06,5.25,115.99,-83.86,-144.39
52.209724,-2.18754,98.82,5.47,3,287.4,23 / 24,12688710,2020-01-08 15:46:52:304,-0.8438,-0.2891,10.198,-0.0264,0.0512,9.8064,0.1077,-0.0334,0.1644,10.13,-33.87,4.88,116.97,-83.62,-143.95
52.209724,-2.18754,98.82,5.47,3,287.4,23 / 24,12688809,2020-01-08 15:46:52:403,-0.8315,2.1456,9.0935,-0.0439,-0.0213,9.8064,0.0271,-0.0973,0.1244,8.94,-34,5.06,116.66,-83.2,-144.71
52.209724,-2.18754,98.82,5.47,3,287.4,23 / 24,12688910,2020-01-08 15:46:52:504,-0.4922,0.1728,10.5903,-0.0089,-0.0309,9.8066,0.096,0.0072,-0.1172,8.94,-33.69,5.81,110.52,-83.13,-146.42
52.209724,-2.18754,98.82,5.47,3,287.4,23 / 24,12689010,2020-01-08 15:46:52:604,0.2178,-2.1838,9.8495,0.0052,-0.0371,9.8065,-0.0194,-0.1471,0.1062,10.56,-33.56,5.25,111.54,-83.48,-151.29
52.209724,-2.18754,98.82,5.47,3,287.4,23 / 24,12689110,2020-01-08 15:46:52:704,-1.284,-2.363,10.4028,-0.011,0.017,9.8066,0.0507,-0.1009,0.01,9.81,-32.94,5.5,102.91,-83.61,-154.04
52.209724,-2.18754,98.82,5.47,3,287.4,23 / 24,12689210,2020-01-08 15:46:52:804,-1.2343,-1.5627,8.7242,-0.0104,0.0134,9.8065,-0.0348,-0.173,0.2086,9.69,-34,5.31,108.5,-83.57,-153.78
52.209724,-2.18754,98.82,5.47,3,287.4,23 / 25,12689310,2020-01-08 15:46:52:904,-2.5249,0.9117,10.0145,-0.0186,0.0375,9.8065,0.0737,-0.1092,0.0815,10.19,-33.94,5.75,105.88,-83.49,-151.72
52.209724,-2.18754,98.82,5.47,3,287.4,23 / 25,12689410,2020-01-08 15:46:53:004,-1.427,0.0581,9.8506,-0.0164,-0.017,9.8066,-0.0533,-0.0287,-0.0681,9.94,-34.12,5.81,107.06,-83.3,-150.97
52.209724,-2.18754,98.82,5.47,3,287.4,23 / 25,12689510,2020-01-08 15:46:53:104,-0.9726,0.1638,10.4647,0.0161,-0.0243,9.8066,0.0251,-0.0598,-0.0001,9.81,-34.37,5.5,103.42,-83.65,-153.94
52.209724,-2.18754,98.82,5.47,3,287.4,23 / 25,12689610,2020-01-08 15:46:53:204,0.5771,-2.8607,9.5992,0.0071,0.0184,9.8065,-0.122,0.001,-0.0148,10.31,-34.87,5.63,102.93,-83.83,-154.45
52.209724,-2.18754,98.82,5.47,3,287.4,23 / 25,12689710,2020-01-08 15:46:53:304,-0.0135,3.2251,9.1458,0.0348,0.017,9.8065,-0.1496,-0.3394,0.2352,9.25,-35.19,4.81,108.33,-83.96,-152.49
52.209724,-2.18754,98.82,5.47,3,287.4,23 / 25,12689810,2020-01-08 15:46:53:404,0.6984,2.779,10.3953,0.0306,0.0834,9.8062,0.0648,0.4342,-0.2545,9.69,-34.94,5.06,114.41,-84.04,-146.22
52.209724,-2.18754,98.82,5.47,3,287.4,23 / 25,12689910,2020-01-08 15:46:53:504,-0.4814,4.3402,9.8278,0.01,-0.056,9.8065,-0.053,0.1058,-0.03,8.94,-34.75,4.69,113.96,-83.98,-145.97
52.209724,-2.18754,98.82,5.47,3,287.4,23 / 25,12690010,2020-01-08 15:46:53:604,-1.3403,-0.2892,13.9599,0.0008,-0.0633,9.8064,-0.055,0.1207,-0.1562,9.38,-34.94,4.69,108.63,-84.19,-151.34
52.209724,-2.18754,98.82,5.47,3,287.4,23 / 25,12690110,2020-01-08 15:46:53:704,0.8149,0.9579,7.2147,0.0185,0.0382,9.8065,-0.3195,-0.0663,0.2027,9.38,-34.69,5.81,104.09,-83.71,-152.37
52.209724,-2.18754,98.82,5.47,3,287.4,23 / 25,12690210,2020-01-08 15:46:53:804,-1.5227,-1.4297,10.0585,0.0347,0.0884,9.8062,0.065,-0.1158,0.1152,9.5,-35.12,6.06,103.63,-82.84,-156.79
52.209724,-2.18754,98.82,5.47,3,287.4,25 / 25,12690310,2020-01-08 15:46:53:904,-0.6683,0.0661,6.3202,-0.0035,0.0328,9.8066,-0.2392,0.0658,0.1385,8.94,-35.06,6.5,101.2,-82.23,-155.06
52.209724,-2.18754,98.82,5.47,3,287.4,25 / 25,12690410,2020-01-08 15:46:54:004,0.1249,-1.0144,9.9068,0.0634,-0.0125,9.8064,-0.0829,-0.5278,0.0759,9.44,-35.06,6.5,100.24,-82.19,-156.25
52.209724,-2.18754,98.82,5.47,3,287.4,25 / 25,12690510,2020-01-08 15:46:54:104,-1.7603,4.7894,9.066,0.1014,0.0799,9.8057,-0.4372,-0.2225,0.2943,9.88,-34.94,5.63,102.05,-82.9,-158.34
52.209724,-2.18754,98.82,5.47,3,287.4,25 / 25,12690610,2020-01-08 15:46:54:204,-0.9964,-3.4955,12.7682,0.1586,0.0514,9.8052,-0.2283,-0.3808,0.1486,9.31,-34.06,5.13,108.38,-84.99,-148.44
52.209724,-2.18754,98.82,5.47,3,287.4,25 / 25,12690710,2020-01-08 15:46:54:304,0.068,9.2954,11.5066,-0.0003,0.0228,9.8065,-0.3081,-1.0432,0.4911,9.44,-35.25,3.56,120.52,-85.4,-139.67
52.209724,-2.18754,98.82,5.47,3,287.4,25 / 25,12690810,2020-01-08 15:46:54:404,-0.2405,-4.317,9.3637,-0.04,0.1668,9.8051,0.3743,-0.0515,-0.0933,10.06,-35.12,4.13,125.53,-85,-135.92
52.209724,-2.18754,98.82,5.47,3,287.4,25 / 25,12690910,2020-01-08 15:46:54:504,1.2512,7.8409,6.4146,-0.1102,0.0009,9.8059,0.1055,-0.7272,0.5398,9.63,-35.19,4.88,110.19,-84.9,-148.38
52.209724,-2.18754,98.82,5.47,3,287.4,25 / 25,12691010,2020-01-08 15:46:54:604,-2.2362,-7.3407,10.0796,-0.0787,0.0213,9.8062,0.3862,0.2968,-0.5979,10.06,-35,5.94,101.63,-83.71,-156.23
52.209724,-2.18754,98.82,5.47,3,287.4,25 / 25,12691110,2020-01-08 15:46:54:704,-5.333,-2.6414,11.7731,-0.0644,-0.0618,9.8062,0.208,-0.589,0.5528,9.63,-34.81,5.81,102.51,-82.88,-157.89
52.209724,-2.18754,98.82,5.47,3,287.4,25 / 25,12691210,2020-01-08 15:46:54:804,0.8099,-4.3698,9.9182,-0.0205,0.1136,9.8059,-0.068,0.6276,-0.0011,9.19,-34.94,5.63,101.92,-82.81,-157.84
52.209724,-2.18754,98.82,5.47,3,287.4,24 / 25,12691310,2020-01-08 15:46:54:904,-0.9672,-1.0566,8.9792,0.0443,-0.054,9.8063,-0.1548,-0.0769,-0.2405,9.69,-34.94,5.63,98.18,-83.38,-160.97
52.209724,-2.18754,98.82,5.47,3,287.4,24 / 25,12691410,2020-01-08 15:46:55:004,-2.5869,6.3889,11.4254,0.0244,-0.0043,9.8066,0.1103,0.649,-0.5741,9.88,-35,6.13,101.14,-83.17,-158.46
52.209724,-2.18754,98.82,5.47,3,287.4,24 / 25,12691510,2020-01-08 15:46:55:104,-0.881,0.1506,8.8541,-0.0193,-0.0744,9.8063,0.0788,0.5836,-0.1653,9.69,-34.56,6.06,101.86,-82.76,-158.99
52.209724,-2.18754,98.82,5.47,3,287.4,24 / 25,12691610,2020-01-08 15:46:55:204,-1.529,6.2077,9.5362,-0.0081,-0.0736,9.8064,0.0007,0.4697,-0.2109,10.13,-34.94,5.63,98.45,-82.64,-163.05
52.209724,-2.18754,98.82,5.47,3,287.4,24 / 25,12691710,2020-01-08 15:46:55:304,-0.5056,-5.1269,9.0551,0.0515,-0.0645,9.8062,-0.087,0.7824,-0.5008,9.94,-34.31,5.88,101.15,-82.47,-160
52.209724,-2.18754,98.82,5.47,3,287.4,24 / 25,12691809,2020-01-08 15:46:55:403,-1.4624,4.4179,10.7608,0.0451,-0.0971,9.806,-0.0109,0.1382,-0.0509,9.75,-34.25,5.06,102.05,-83.04,-162.57
52.209724,-2.18754,98.82,5.47,3,287.4,24 / 25,12691909,2020-01-08 15:46:55:503,0.5148,-5.2174,9.0138,-0.01,-0.0117,9.8066,-0.046,0.6883,-0.3848,11.06,-34.75,5.38,104.3,-83.09,-161.03
52.209724,-2.18754,98.82,5.47,3,287.4,24 / 25,12692009,2020-01-08 15:46:55:603,-0.7209,-1.1661,8.4353,0.0336,-0.069,9.8063,0.2577,-0.3873,0.2248,9.56,-33.94,5.75,96.92,-83.28,-162.01
52.209724,-2.18754,98.82,5.47,3,287.4,24 / 25,12692110,2020-01-08 15:46:55:704,0.5236,-4.564,9.0272,-0.0878,-0.0008,9.8062,0.2141,0.3403,-0.2979,10.75,-34.06,5.56,98.68,-83.25,-161.16
52.209724,-2.18754,98.82,5.47,3,287.4,24 / 25,12692209,2020-01-08 15:46:55:803,0.8692,3.4894,7.4961,-0.0209,-0.0935,9.8061,0.1805,-0.4609,0.1612,9.81,-34.37,5.38,101.26,-83.08,-163.31
52.209724,-2.18754,98.82,5.47,3,287.4,25 / 25,12692310,2020-01-08 15:46:55:904,-0.7814,2.8191,10.6787,-0.0359,0.0311,9.8065,0.3335,0.1743,-0.0982,10.31,-34.56,5.75,97.68,-83.24,-161.96
52.209724,-2.18754,98.82,5.47,3,287.4,25 / 25,12692409,2020-01-08 15:46:56:003,0.3928,3.1864,9.3209,-0.0362,-0.0428,9.8064,-0.1282,-0.32,0.3558,10.19,-34.5,5.69,96.17,-83.09,-163.4
52.209724,-2.18754,98.82,5.47,3,287.4,25 / 25,12692510,2020-01-08 15:46:56:104,-0.5568,-0.9435,9.9843,0.0071,0.0309,9.8065,0.028,-0.0087,-0.1003,9.81,-34.12,5.56,98.2,-83.29,-160.61
52.209724,-2.18754,98.82,5.47,3,287.4,25 / 25,12692609,2020-01-08 15:46:56:203,1.1411,-1.6901,9.202,-0.0206,-0.012,9.8066,0.0352,-0.1407,0.1578,9.81,-35.12,5.19,103.35,-83.24,-161.15
52.209724,-2.18754,98.82,5.47,3,287.4,25 / 25,12692709,2020-01-08 15:46:56:303,1.0985,-1.2331,10.4019,-0.0039,0.0057,9.8066,0.01,-0.0839,-0.0533,9.5,-34.81,6.25,97.53,-83.31,-161.89
52.209724,-2.18754,98.82,5.47,3,287.4,25 / 25,12692810,2020-01-08 15:46:56:404,-1.193,-3.5907,10.5247,0.0164,0.0125,9.8066,0.0275,-0.0465,0.0106,10.5,-35.19,5.69,97.98,-83.34,-162.18
52.209724,-2.18754,98.82,5.47,3,287.4,25 / 25,12692910,2020-01-08 15:46:56:504,-0.0742,0.0677,9.1146,-0.0074,0.0097,9.8065,-0.1087,-0.2265,0.1736,9.88,-34.87,6.38,95.15,-83.23,-164.65
52.209724,-2.18754,98.82,5.47,3,287.4,25 / 25,12693010,2020-01-08 15:46:56:604,0.6324,-4.8828,10.1939,0.0194,0.0533,9.8064,0.0167,0.214,-0.063,9.88,-34.75,6.38,96.1,-83.25,-163.57
52.209724,-2.18754,98.82,5.47,3,287.4,25 / 25,12693110,2020-01-08 15:46:56:704,0.6336,-0.3058,10.7319,-0.002,-0.0062,9.8066,-0.0195,0.0002,0.0835,10.19,-34.31,6.56,89.47,-83.31,-164.63
52.209724,-2.18754,98.82,5.47,3,287.4,25 / 25,12693210,2020-01-08 15:46:56:804,0.2632,0.6509,10.4972,-0.0276,0.008,9.8065,-0.0741,0.3589,-0.072,10.06,-34.94,7,91.12,-83.28,-163.64
52.209724,-2.18754,98.82,5.47,3,287.4,23 / 26,12693311,2020-01-08 15:46:56:905,-0.1171,-2.2425,9.9081,0.0043,0.0203,9.8065,-0.0009,0.329,0.0314,10.25,-34.44,7.75,86.41,-83.13,-163.59
52.209724,-2.18754,98.82,5.47,3,287.4,23 / 26,12693410,2020-01-08 15:46:57:004,0.7,-0.1615,11.0041,-0.0006,-0.0035,9.8066,-0.0489,0.2165,0.0151,9.75,-34.5,7.94,87.09,-82.89,-163.57
52.209724,-2.18754,98.82,5.47,3,287.4,23 / 26,12693510,2020-01-08 15:46:57:104,1.5761,-1.0614,8.9926,0.0266,0.0063,9.8066,-0.1462,0.2637,-0.0724,9.69,-35.06,7.56,87.89,-82.78,-163.72
52.209724,-2.18754,98.82,5.47,3,287.4,23 / 26,12693610,2020-01-08 15:46:57:204,-0.0672,0.3034,10.3545,0.0297,0.0039,9.8065,0.0469,0.1496,-0.0257,10.38,-34.31,8.19,87.24,-82.99,-163.15
52.209724,-2.18754,98.82,5.47,3,287.4,23 / 26,12693710,2020-01-08 15:46:57:304,0.515,-1.6483,10.0257,-0.0054,0.0069,9.8066,-0.0165,0.2538,-0.0487,9.94,-34.69,8.63,83.41,-82.81,-163.69
52.209724,-2.18754,98.82,5.47,3,287.4,23 / 26,12693810,2020-01-08 15:46:57:404,0.314,-1.3507,9.6565,-0.0114,-0.0137,9.8066,-0.0379,0.111,0.0875,10.69,-35.06,8.38,88.38,-82.73,-164.76
52.209724,-2.18754,98.82,5.47,3,287.4,23 / 26,12693910,2020-01-08 15:46:57:504,0.5951,-0.2706,9.1681,0.0061,0.0094,9.8065,-0.0132,0.1033,0.0014,10.63,-33.5,9,83.37,-82.64,-164.72
52.209724,-2.18754,98.82,5.47,3,287.4,23 / 26,12694010,2020-01-08 15:46:57:604,0.5834,0.3848,8.8659,0.0109,0.0088,9.8066,-0.0838,0.0227,0.1649,11.38,-34.25,8.81,83.66,-82.78,-164.62
52.209724,-2.18754,98.82,5.47,3,287.4,23 / 26,12694110,2020-01-08 15:46:57:704,1.0566,-0.7089,8.8338,0.0206,0.0251,9.8066,-0.0874,0.0578,-0.0243,11.25,-33.25,10,77.47,-82.93,-165.94
52.209724,-2.18754,98.82,5.47,3,287.4,23 / 26,12694210,2020-01-08 15:46:57:804,1.5059,-1.9866,10.4426,0.0132,0.0244,9.8065,-0.0412,-0.06,0.0249,11,-33,10.19,78.71,-83.18,-164.19
52.209724,-2.18754,98.82,5.47,3,287.4,24 / 25,12694310,2020-01-08 15:46:57:904,0.4004,0.5161,10.3477,-0.0006,0.0076,9.8066,-0.0104,-0.0287,0.1305,11,-32.75,10.63,74.44,-83.39,-164.35
52.209724,-2.18754,98.82,5.47,3,287.4,24 / 25,12694410,2020-01-08 15:46:58:004,1.9656,-1.5951,10.2784,-0.0041,0.004,9.8066,0.0119,0.0635,0.0488,10.75,-32.75,11.19,72.51,-83.34,-166.26
52.209724,-2.18754,98.82,5.47,3,287.4,24 / 25,12694510,2020-01-08 15:46:58:104,0.9221,-0.109,9.1657,-0.0029,0.0068,9.8066,-0.0133,-0.1079,0.1424,10.5,-33.31,10.81,72.68,-83.14,-166.54
52.209724,-2.18754,98.82,5.47,3,287.4,24 / 25,12694610,2020-01-08 15:46:58:204,1.4147,0.3503,10.0799,-0.0216,0.0342,9.8065,-0.1523,0.2618,-0.0073,10.75,-32.94,10.81,74.48,-82.99,-165.17
52.209724,-2.18754,98.82,5.47,3,287.4,24 / 25,12694710,2020-01-08 15:46:58:304,1.6675,-0.347,9.2606,0.0269,0.0194,9.8066,-0.1466,0.2214,-0.0114,10.88,-33.37,11.06,73.89,-83.41,-164.83
52.209724,-2.18754,98.82,5.47,3,287.4,24 / 25,12694810,2020-01-08 15:46:58:404,0.9501,-0.841,10.8277,0.0189,0.0219,9.8066,0.017,0.0747,-0.0954,11,-33.12,11.38,74.02,-83.4,-164.73
52.209724,-2.18754,98.82,5.47,3,287.4,24 / 25,12694910,2020-01-08 15:46:58:504,1.1529,1.505,9.5362,-0.0142,0.0008,9.8066,-0.0772,0.0273,0.163,11.19,-32.87,12.56,67.86,-83.14,-164.97
52.209724,-2.18754,98.82,5.47,3,287.4,24 / 25,12695011,2020-01-08 15:46:58:605,1.4445,-1.5195,10.6728,-0.029,0.0181,9.8066,0.0491,0.2607,-0.0705,10.69,-33,13.13,68.57,-82.79,-165
52.209724,-2.18754,98.82,5.47,3,287.4,24 / 25,12695111,2020-01-08 15:46:58:705,1.4408,-1.6908,10.4173,0.007,-0.0192,9.8066,-0.0353,0.0102,0.0195,10.31,-32.31,13.38,64.9,-82.58,-166.13
52.209724,-2.18754,98.82,5.47,3,287.4,24 / 25,12695209,2020-01-08 15:46:58:803,2.1165,-2.0164,10.1384,-0.0206,0.0068,9.8066,0.1024,0.3533,-0.2096,10.06,-32.94,14.31,62.81,-82.42,-166.04
52.209724,-2.18754,98.82,5.47,3,287.4,24 / 24,12695310,2020-01-08 15:46:58:904,0.5865,-0.4074,9.559,0.0006,-0.036,9.8065,0.0304,0.1656,0.0115,10.38,-32.81,13.56,61.15,-82.21,-167.86
52.209724,-2.18754,98.82,5.47,3,287.4,24 / 24,12695410,2020-01-08 15:46:59:004,-1.1792,1.9434,9.6918,-0.0051,0.001,9.8066,0.008,0.4128,-0.1834,9.63,-32.12,14.31,61.98,-82.2,-166.75
52.209724,-2.18754,98.82,5.47,3,287.4,24 / 24,12695510,2020-01-08 15:46:59:104,-0.2935,0.5422,10.1149,0.029,-0.0051,9.8066,-0.0644,0.2899,-0.1066,9.56,-32.06,14.19,62.57,-82.13,-166.35
52.209724,-2.18754,98.82,5.47,3,287.4,24 / 24,12695610,2020-01-08 15:46:59:204,-0.2878,1.647,10.742,0.0345,0.0054,9.8065,-0.032,0.3679,-0.2383,9.69,-32.69,13.5,62.39,-82.39,-166.46
52.209724,-2.18754,98.82,5.47,3,287.4,24 / 24,12695712,2020-01-08 15:46:59:306,1.4447,-1.2274,9.689,0.0188,-0.0339,9.8065,0.0176,0.2753,-0.1197,9.81,-31.94,14.38,61.44,-82.44,-166.81
52.209724,-2.18754,98.82,5.47,3,287.4,24 / 24,12695810,2020-01-08 15:46:59:404,0.2342,0.6787,10.033,-0.0059,-0.021,9.8066,0.08,0.0295,-0.0146,10.31,-32.5,14.81,56.53,-82.26,-168.98
52.209724,-2.18754,98.82,5.47,3,287.4,24 / 24,12695910,2020-01-08 15:46:59:504,0.8015,0.1693,9.5077,-0.0148,-0.0113,9.8066,0.0176,0.1144,-0.0317,10.56,-32.62,14.69,59.37,-81.96,-169.55
52.209724,-2.18754,98.82,5.47,3,287.4,24 / 24,12696009,2020-01-08 15:46:59:603,1.5071,1.0108,9.4538,0.0174,-0.0057,9.8065,0.041,-0.0427,0.0407,10.56,-33.19,15.25,58.43,-82.03,-170.26
52.209724,-2.18754,98.82,5.47,3,287.4,24 / 24,12696109,2020-01-08 15:46:59:703,1.4872,-0.6118,9.8422,-0.022,-0.0252,9.8066,0.0808,0.0499,-0.058,10.56,-33.12,15.38,56.59,-82.13,-171.69
52.209724,-2.18754,98.82,5.47,3,287.4,24 / 24,12696211,2020-01-08 15:46:59:805,0.7292,0.9836,9.3243,-0.0111,-0.0172,9.8066,0.1584,0.0146,0.0189,9.75,-33.62,16.13,51.38,-81.91,-172.4
52.209724,-2.18754,98.82,5.47,3,287.4,23 / 24,12696310,2020-01-08 15:46:59:904,-0.5735,0.1463,10.603,-0.0281,-0.0221,9.8065,0.0996,-0.0427,0.0115,9.94,-34.12,15.69,52.03,-81.83,-171.99
52.209724,-2.18754,98.82,5.47,3,287.4,23 / 24,12696412,2020-01-08 15:47:00:006,1.0104,-0.899,10.1587,-0.0218,-0.0007,9.8066,0.0995,0.1343,-0.1191,9.5,-34.06,15.5,53.82,-81.65,-170.75
52.209724,-2.18754,98.82,5.47,3,287.4,23 / 24,12696510,2020-01-08 15:47:00:104,0.1178,0.076,10.2924,0.0065,-0.0356,9.8065,0.0286,0.0169,-0.0487,9.38,-33.87,16,50.65,-81.7,-171
52.209724,-2.18754,98.82,5.47,3,287.4,23 / 24,12696609,2020-01-08 15:47:00:203,-1.9207,2.2345,9.5728,0.0091,0.0096,9.8066,-0.0358,0.009,0.0352,9.81,-34,15.94,52.78,-81.79,-171.41
52.209724,-2.18754,98.82,5.47,3,287.4,23 / 24,12696710,2020-01-08 15:47:00:304,-0.889,1.928,10.2637,-0.0192,0.0383,9.8066,0.0897,0.3299,-0.2125,9.81,-33.69,15.25,55.89,-81.86,-170.93
52.209724,-2.18754,98.82,5.47,3,287.4,23 / 24,12696810,2020-01-08 15:47:00:404,0.799,0.1619,9.8038,-0.0355,0.0201,9.8065,0.0201,0.2589,-0.1802,9.13,-33.5,16.25,48.33,-81.76,-172.49
52.209724,-2.18754,98.82,5.47,3,287.4,23 / 24,12696910,2020-01-08 15:47:00:504,1.1122,0.8951,10.1523,-0.0219,-0.0039,9.8066,0.0763,0.1031,-0.0171,9.44,-33.81,15.25,53.26,-81.52,-171.37
52.209724,-2.18754,98.82,5.47,3,287.4,23 / 24,12697009,2020-01-08 15:47:00:603,-1.274,0.8209,10.4,-0.018,-0.023,9.8065,-0.0224,-0.0243,0.0681,9.44,-33.62,15.94,51.24,-81.31,-171.14
52.209724,-2.18754,98.82,5.47,3,287.4,23 / 24,12697110,2020-01-08 15:47:00:704,0.5159,0.9866,8.93,-0.0279,-0.0026,9.8066,-0.0433,0.0552,-0.0996,9.38,-34.06,15.94,52.21,-81.03,-170.78
52.209724,-2.18754,98.82,5.47,3,287.4,23 / 24,12697210,2020-01-08 15:47:00:804,-0.3357,1.3856,10.746,-0.0089,0.0056,9.8066,0.1221,-0.0603,-0.0555,9.25,-33.75,15.38,54.56,-80.92,-171.34
52.209724,-2.18754,98.82,5.47,3,287.4,23 / 24,12697309,2020-01-08 15:47:00:903,-1.1834,-0.4527,10.9392,-0.0061,-0.0006,9.8066,0.0704,-0.0902,-0.0258,9.38,-33.75,15.56,51.34,-80.8,-171.86
52.209667,-2.188443,96.86,6.89,3,250.7,23 / 24,12697410,2020-01-08 15:47:01:004,-1.5391,0.3709,9.1559,-0.0088,-0.0095,9.8066,-0.0614,-0.0884,0.0408,10,-34.56,14.94,57.91,-80.65,-171.77
52.209667,-2.188443,96.86,6.89,3,250.7,23 / 24,12697510,2020-01-08 15:47:01:104,-1.7236,2.2866,10.5029,-0.001,-0.0004,9.8066,0.0562,-0.112,-0.0129,9,-33.5,14.31,57.08,-80.55,-172.03
52.209667,-2.188443,96.86,6.89,3,250.7,23 / 24,12697610,2020-01-08 15:47:01:204,-0.3688,1.2859,10.25,-0.0158,-0.0068,9.8066,0.0048,-0.0648,-0.0861,10.13,-33.62,14.75,56.54,-80.51,-172.69
52.209667,-2.188443,96.86,6.89,3,250.7,23 / 24,12697710,2020-01-08 15:47:01:304,-2.4453,2.4984,10.1848,0.0182,-0.0072,9.8065,0.1008,-0.1633,0.1215,10.56,-33.87,14,60.38,-80.47,-174.24
52.209667,-2.188443,96.86,6.89,3,250.7,23 / 24,12697809,2020-01-08 15:47:01:403,0.0466,-2.5918,9.4998,-0.0279,0.0327,9.8065,-0.0273,0.155,-0.2907,10.88,-33.62,14.31,61.59,-80.32,-173.52
52.209667,-2.188443,96.86,6.89,3,250.7,23 / 24,12697910,2020-01-08 15:47:01:504,-0.0633,1.1808,9.1392,0.0171,0.0138,9.8066,0.0481,-0.5026,0.0839,11.13,-34.06,13.75,59.19,-80.45,-175.28
52.209667,-2.188443,96.86,6.89,3,250.7,23 / 24,12698010,2020-01-08 15:47:01:604,-2.9459,2.6134,10.3281,0.0159,0.0167,9.8066,0.0177,-0.0151,-0.0351,11.06,-32.69,13.75,57.66,-80.64,-175.75
52.209667,-2.188443,96.86,6.89,3,250.7,23 / 24,12698110,2020-01-08 15:47:01:704,-3.0338,3.3882,10.4524,0.0399,-0.0117,9.8066,-0.0155,-0.5895,0.1926,11.25,-32.94,13.5,56.69,-80.67,-176.5
52.209667,-2.188443,96.86,6.89,3,250.7,23 / 24,12698210,2020-01-08 15:47:01:804,-0.663,2.8737,9.2871,-0.0003,-0.0048,9.8066,-0.1051,-0.2464,0.1084,11.13,-33.81,12.5,58.53,-80.98,-177.66
52.209667,-2.188443,96.86,6.89,3,250.7,25 / 25,12698310,2020-01-08 15:47:01:904,-1.3884,-1.7285,10.1882,0.005,-0.0421,9.8065,-0.0448,-0.5524,0.1729,12,-33.19,12.31,63.98,-81.05,-177.23
52.209667,-2.188443,96.86,6.89,3,250.7,25 / 25,12698410,2020-01-08 15:47:02:004,-1.4976,-0.0344,10.2269,0.0225,-0.033,9.8065,0.0315,-0.4204,0.2569,10.81,-33.37,11.88,59.52,-81.06,-179.2
52.209667,-2.188443,96.86,6.89,3,250.7,25 / 25,12698509,2020-01-08 15:47:02:103,1.2033,-1.0199,9.1391,0.0406,-0.0446,9.8064,0.017,-0.4816,0.2827,10.81,-33.44,11.63,60.69,-81.01,-178.31
52.209667,-2.188443,96.86,6.89,3,250.7,25 / 25,12698610,2020-01-08 15:47:02:204,-2.274,3.2028,10.3257,0.0197,0.0023,9.8065,0.0531,-0.5062,0.1148,11.5,-33.81,11.44,65.74,-81.16,-179.19
52.209667,-2.188443,96.86,6.89,3,250.7,25 / 25,12698709,2020-01-08 15:47:02:303,1.1155,-2.9151,9.0398,0.0028,0.0321,9.8066,0.1135,-0.3336,-0.1539,11.44,-33.75,10.06,69.11,-81.12,-178.32
52.209667,-2.188443,96.86,6.89,3,250.7,25 / 25,12698810,2020-01-08 15:47:02:404,-2.8761,6.4029,10.6865,-0.0228,0.0291,9.8066,0.0608,-0.5827,0.6098,11.81,-33.31,9.81,69.7,-81.24,-178.47
52.209667,-2.188443,96.86,6.89,3,250.7,25 / 25,12698910,2020-01-08 15:47:02:504,1.0646,-1.8386,9.3955,-0.0187,0.0499,9.8064,0.0536,-0.3172,0.3363,11.25,-33.81,9.63,67.68,-81.3,-179.14
52.209667,-2.188443,96.86,6.89,3,250.7,25 / 25,12699010,2020-01-08 15:47:02:604,-1.9071,0.3955,10.497,-0.036,-0.0121,9.8065,0.1038,-0.5829,0.0339,11.75,-33.25,9,71,-81.17,178.82
52.209667,-2.188443,96.86,6.89,3,250.7,25 / 25,12699110,2020-01-08 15:47:02:704,-0.9904,0.0488,9.1572,-0.0413,0.0354,9.8064,0.0095,-0.3004,0.2563,11.63,-33.75,9.19,71.8,-81.19,179
52.209667,-2.188443,96.86,6.89,3,250.7,25 / 25,12699210,2020-01-08 15:47:02:804,-0.7364,3.1303,9.9225,-0.0184,0.0246,9.8065,0.0228,-0.4565,0.0811,11.75,-34.12,8.13,73.52,-81.36,176.95
52.209667,-2.188443,96.86,6.89,3,250.7,25 / 25,12699310,2020-01-08 15:47:02:904,-0.3353,-1.2403,9.2031,0.0513,0.0258,9.8064,0.0957,-0.1628,-0.2153,11.13,-34.12,8.19,72.3,-81.5,177.3
52.209667,-2.188443,96.86,6.89,3,250.7,25 / 25,12699410,2020-01-08 15:47:03:004,-0.7235,4.8633,10.0751,0.0342,-0.0384,9.8064,0.045,-0.4343,0.3319,11.38,-34.44,8.19,69.25,-81.81,175.45
52.209667,-2.188443,96.86,6.89,3,250.7,25 / 25,12699510,2020-01-08 15:47:03:104,-1.0402,0.4587,10.5849,-0.0139,-0.0132,9.8066,0.0559,0.0533,-0.0656,10.88,-33.69,7.69,71.17,-81.64,176.68
52.209667,-2.188443,96.86,6.89,3,250.7,25 / 25,12699610,2020-01-08 15:47:03:204,1.4976,5.0283,8.0186,-0.0319,-0.0608,9.8064,-0.2482,-0.4858,0.2429,11.31,-33.81,7.81,70.5,-81.55,175.87
52.209667,-2.188443,96.86,6.89,3,250.7,25 / 25,12699710,2020-01-08 15:47:03:304,2.1637,-3.0054,10.808,-0.0025,0.0007,9.8066,0.1148,-0.0334,0.0186,11,-35.12,6.69,76.87,-81.77,177.01
52.209667,-2.188443,96.86,6.89,3,250.7,25 / 25,12699810,2020-01-08 15:47:03:404,1.7581,1.3833,10.5678,-0.0143,-0.0561,9.8064,-0.0414,-0.4338,0.2278,11,-34.81,7.13,77.92,-81.62,177.53
52.209667,-2.188443,96.86,6.89,3,250.7,25 / 25,12699910,2020-01-08 15:47:03:504,0.7027,-3.0835,10.616,-0.0486,0.0235,9.8064,0.0429,0.1252,-0.1914,11.19,-34.37,6.81,78.53,-81.51,178.46
52.209667,-2.188443,96.86,6.89,3,250.7,25 / 25,12700010,2020-01-08 15:47:03:604,0.9748,2.6053,9.1856,-0.0615,-0.0666,9.8062,-0.0104,-0.1616,0.2186,10.63,-34.31,7.38,80.83,-80.82,178.61
52.209667,-2.188443,96.86,6.89,3,250.7,25 / 25,12700110,2020-01-08 15:47:03:704,1.0049,2.4107,9.3895,-0.0045,0.0285,9.8065,0.1693,0.275,-0.2343,10.69,-33.81,7.31,82.87,-80.53,179.68
52.209667,-2.188443,96.86,6.89,3,250.7,25 / 25,12700212,2020-01-08 15:47:03:806,1.666,3.4155,9.6281,-0.029,-0.0204,9.8065,0.0555,-0.033,0.0408,10.31,-34.31,7.31,83.37,-80.21,179.77
52.209667,-2.188443,96.86,6.89,3,250.7,25 / 25,12700310,2020-01-08 15:47:03:904,2.2727,1.5307,9.5697,0.0085,0.0178,9.8066,0.2007,0.4139,-0.1237,10.19,-34.5,8.38,78.47,-80.19,-179.76
52.209667,-2.188443,96.86,6.89,3,250.7,25 / 25,12700409,2020-01-08 15:47:04:003,1.2319,-3.8502,10.4164,-0.0104,0.0262,9.8066,0.0871,0.2163,-0.2627,10,-34.69,8.38,81.22,-79.93,-178.91
52.209667,-2.188443,96.86,6.89,3,250.7,25 / 25,12700510,2020-01-08 15:47:04:104,3.6373,0.11,9.6089,-0.0251,0.0697,9.8064,-0.0322,0.2995,-0.3122,9.38,-34.56,9.25,76.66,-79.67,-177.72
52.209667,-2.188443,96.86,6.89,3,250.7,25 / 25,12700610,2020-01-08 15:47:04:204,1.5434,-1.2143,10.4444,-0.0046,0.0099,9.8066,0.1415,0.3346,-0.0479,9.31,-34.69,9.44,76.1,-79.64,-178.3
52.209667,-2.188443,96.86,6.89,3,250.7,25 / 25,12700711,2020-01-08 15:47:04:305,0.2194,1.5441,9.6427,-0.0197,0.0054,9.8066,0.0429,0.0253,0.037,10.75,-34.56,9.06,80.29,-79.35,-177.72
52.209667,-2.188443,96.86,6.89,3,250.7,25 / 25,12700809,2020-01-08 15:47:04:403,1.0022,-2.3586,11.2644,0.0062,0.0421,9.8065,0.0843,0.2496,-0.1101,9.94,-33.62,10.06,74.79,-79.11,-176.94
52.209667,-2.188443,96.86,6.89,3,250.7,25 / 25,12700910,2020-01-08 15:47:04:504,0.4405,2.3758,10.4537,-0.0206,-0.0302,9.8065,-0.094,-0.2273,0.2555,10.44,-34.62,8.88,81.6,-78.99,-176.59
52.209667,-2.188443,96.86,6.89,3,250.7,25 / 25,12701010,2020-01-08 15:47:04:604,0.899,3.9086,10.4213,-0.0358,0.0335,9.8065,-0.0869,0.1386,-0.1255,9.94,-34.12,8.88,81.68,-78.86,-175.99
52.209667,-2.188443,96.86,6.89,3,250.7,25 / 25,12701109,2020-01-08 15:47:04:703,-0.632,0.1037,11.4003,-0.0186,0.0208,9.8065,0.1219,-0.0818,-0.0848,10.81,-34.75,9.69,79.48,-78.88,-175.47
52.209667,-2.188443,96.86,6.89,3,250.7,25 / 25,12701210,2020-01-08 15:47:04:804,1.5819,1.5701,9.8705,-0.0137,-0.0079,9.8066,0.0167,-0.0187,0.0503,9.94,-34.37,9.06,81.83,-78.85,-175.88
52.209667,-2.188443,96.86,6.89,3,250.7,24 / 25,12701310,2020-01-08 15:47:04:904,2.394,1.5547,8.9404,0.049,0.0134,9.8064,0.0772,0.119,-0.0306,10.44,-34.37,8.88,82.58,-78.83,-175.23
52.209667,-2.188443,96.86,6.89,3,250.7,24 / 25,12701409,2020-01-08 15:47:05:003,1.4192,2.6007,8.9831,-0.01,0.0008,9.8066,0.0588,-0.074,-0.1062,10.44,-34.56,8.5,83.25,-78.98,-175.08
52.209667,-2.188443,96.86,6.89,3,250.7,24 / 25,12701510,2020-01-08 15:47:05:104,0.6439,0.4152,9.5787,0.0173,0.0447,9.8065,0.0889,0.1345,-0.1907,10.38,-35,8.69,82.12,-78.93,-176.31
52.209667,-2.188443,96.86,6.89,3,250.7,24 / 25,12701610,2020-01-08 15:47:05:204,-0.7703,-0.8203,11.0823,0.0008,-0.0053,9.8066,0.1666,-0.0182,0.0214,9.88,-33.94,8.38,87.2,-78.94,-175.41
52.209667,-2.188443,96.86,6.89,3,250.7,24 / 25,12701709,2020-01-08 15:47:05:303,0.6036,0.3716,9.6813,0.0369,0.0397,9.8064,0.1693,0.2357,-0.0964,9.44,-34.87,8.75,82.78,-79.05,-174.21
52.209667,-2.188443,96.86,6.89,3,250.7,24 / 25,12701810,2020-01-08 15:47:05:404,-0.0308,2.0193,11.6328,0.0586,0.0529,9.8063,0.23,0.0635,-0.2451,9.63,-35.25,9,84.3,-79.06,-173.84
52.209667,-2.188443,96.86,6.89,3,250.7,24 / 25,12701910,2020-01-08 15:47:05:504,0.2878,3.053,9.306,-0.0006,0.0279,9.8066,-0.0544,0.1999,-0.1713,9.94,-35,8.63,82.97,-79.04,-175.16
52.209667,-2.188443,96.86,6.89,3,250.7,24 / 25,12702010,2020-01-08 15:47:05:604,1.0177,-1.1272,9.3106,0.0135,0.0206,9.8066,0.0065,0.2623,-0.1389,10.13,-34.69,8.56,83.18,-79.14,-174.66
52.209667,-2.188443,96.86,6.89,3,250.7,24 / 25,12702110,2020-01-08 15:47:05:704,2.2147,3.1697,9.6052,0.0053,0.0315,9.8065,-0.0521,-0.0517,-0.0179,9.69,-35.44,8.13,87.85,-79.22,-174.85
52.209667,-2.188443,96.86,6.89,3,250.7,24 / 25,12702211,2020-01-08 15:47:05:805,2.2519,-0.9816,9.6642,-0.0121,0.026,9.8066,-0.0077,0.2594,-0.1467,10.31,-34.69,7.94,88.73,-79.27,-173.81
52.209667,-2.188443,96.86,6.89,3,250.7,25 / 26,12702310,2020-01-08 15:47:05:904,0.8591,0.335,9.753,0.0116,-0.023,9.8065,-0.0445,-0.1928,-0.0121,9.38,-34.62,8.19,87.03,-79.3,-174.64
52.209667,-2.188443,96.86,6.89,3,250.7,25 / 26,12702410,2020-01-08 15:47:06:004,1.0938,-2.9614,14.1663,0.01,-0.0182,9.8066,0.2623,0.1627,-0.1566,9.88,-34.44,7.81,83.79,-79.4,-177.26
52.209667,-2.188443,96.86,6.89,3,250.7,25 / 26,12702510,2020-01-08 15:47:06:104,3.1691,0.7862,9.0552,-0.1191,-0.056,9.8057,-0.3324,-0.4685,0.5035,10.81,-34.06,8.19,84.59,-79.09,-178.14
52.209667,-2.188443,96.86,6.89,3,250.7,25 / 26,12702609,2020-01-08 15:47:06:203,0.2625,-0.1457,6.8152,-0.065,0.0357,9.8064,-0.1129,0.0455,0.1556,9.94,-34.44,9.06,85,-77.67,-176.51
52.209667,-2.188443,96.86,6.89,3,250.7,25 / 26,12702709,2020-01-08 15:47:06:303,-0.3711,-3.7199,8.848,-0.0626,-0.0439,9.8063,-0.2234,-0.6396,0.5087,9.75,-34.5,9.94,83.8,-76.84,-175.32
52.209667,-2.188443,96.86,6.89,3,250.7,25 / 26,12702810,2020-01-08 15:47:06:404,0.9296,-0.0329,8.796,-0.01,-0.0016,9.8066,-0.1139,-0.3826,0.2161,9.81,-34.37,9.13,89.98,-77.03,-173.61
52.209667,-2.188443,96.86,6.89,3,250.7,25 / 26,12702910,2020-01-08 15:47:06:504,-0.1103,-3.5534,11.6549,0.015,-0.0968,9.8061,-0.3101,-0.4857,0.2275,9.75,-34.81,9.31,90.09,-77.39,-173.51
52.209667,-2.188443,96.86,6.89,3,250.7,25 / 26,12703010,2020-01-08 15:47:06:604,1.3038,2.8099,9.7921,0.073,-0.0684,9.8061,-0.4179,-0.4118,0.2407,9.94,-35,8.31,87.5,-78.68,-177.03
52.209667,-2.188443,96.86,6.89,3,250.7,25 / 26,12703109,2020-01-08 15:47:06:703,0.757,-1.4639,7.9099,0.1177,-0.0097,9.8059,-0.3078,-0.061,0.0474,10.06,-34.69,6,91.56,-80.83,-176.42
52.209667,-2.188443,96.86,6.89,3,250.7,25 / 26,12703210,2020-01-08 15:47:06:804,4.0301,1.2084,10.2595,0.0629,-0.0223,9.8064,-0.3219,-0.1599,0.2198,9.94,-35.62,5.44,95.4,-81.68,-175.94
52.209667,-2.188443,96.86,6.89,3,250.7,24 / 25,12703310,2020-01-08 15:47:06:904,0.9185,-0.8595,12.8301,-0.0109,0.0227,9.8066,0.1938,0.0075,0.0475,9.94,-34.69,5.06,95.36,-82,-174
52.209667,-2.188443,96.86,6.89,3,250.7,24 / 25,12703410,2020-01-08 15:47:07:004,1.0789,2.9746,10.4886,-0.065,0.0045,9.8064,0.0882,-0.1723,0.075,9.13,-34.5,5.88,92.57,-81.5,-171.69
52.209667,-2.188443,96.86,6.89,3,250.7,24 / 25,12703510,2020-01-08 15:47:07:104,1.379,0.5914,9.2401,-0.0119,-0.0206,9.8065,0.0618,0.0739,-0.0195,9.94,-34.75,6.06,94.6,-81.18,-172.02
52.209667,-2.188443,96.86,6.89,3,250.7,24 / 25,12703609,2020-01-08 15:47:07:203,0.8866,0.1632,8.5187,-0.0131,-0.0437,9.8065,0.0654,-0.1007,0.0032,10.31,-34.62,6.81,88.26,-80.83,-174.34
52.209667,-2.188443,96.86,6.89,3,250.7,24 / 25,12703710,2020-01-08 15:47:07:304,0.6797,-1.0429,8.8051,-0.068,-0.0354,9.8063,0.1528,-0.1624,-0.048,10.25,-34.25,7.63,81.88,-79.96,-177.32
52.209667,-2.188443,96.86,6.89,3,250.7,24 / 25,12703810,2020-01-08 15:47:07:404,-0.5672,1.9463,10.5688,-0.0029,-0.0364,9.8065,0.1509,-0.1613,0.1684,10.13,-34.56,7.56,82.78,-79.55,-178.69
52.209667,-2.188443,96.86,6.89,3,250.7,24 / 25,12703910,2020-01-08 15:47:07:504,0.5486,-1.1492,9.9322,0.0225,-0.0059,9.8066,-0.1199,-0.0975,0.1922,10.56,-34.69,8,84.68,-79.54,-177.61
52.209667,-2.188443,96.86,6.89,3,250.7,24 / 25,12704010,2020-01-08 15:47:07:604,1.0012,2.883,11.0061,0.0395,0.0233,9.8065,-0.0758,-0.2004,0.1892,10.13,-34.62,7.13,90.11,-79.98,-175.32
52.209667,-2.188443,96.86,6.89,3,250.7,24 / 25,12704110,2020-01-08 15:47:07:704,1.1454,-0.8999,10.7665,-0.0102,-0.0228,9.8066,-0.1218,-0.1128,0.1369,10,-34.94,6.94,91.37,-80.2,-173.29
52.209667,-2.188443,96.86,6.89,3,250.7,24 / 25,12704209,2020-01-08 15:47:07:803,0.7851,0.5278,9.7732,0.0033,-0.0326,9.8065,-0.0294,-0.158,0.0883,10.25,-34.75,6.31,95.96,-80.24,-173.89
52.209667,-2.188443,96.86,6.89,3,250.7,24 / 24,12704310,2020-01-08 15:47:07:904,0.5227,-0.9154,9.181,-0.0165,-0.0207,9.8066,-0.0514,0.0139,-0.0515,10.88,-34.56,7.25,89.91,-80.16,-175.36
52.209667,-2.188443,96.86,6.89,3,250.7,24 / 24,12704410,2020-01-08 15:47:08:004,0.6103,-0.1925,8.9445,-0.0115,-0.0175,9.8065,0.0136,-0.0153,0.0744,10.13,-34.5,7.06,87.97,-80.11,-176.11
52.209667,-2.188443,96.86,6.89,3,250.7,24 / 24,12704510,2020-01-08 15:47:08:104,1.0659,0.0197,10.2049,-0.0061,0.0066,9.8066,0.0092,-0.0091,0.0162,10.13,-34.75,7.38,89.96,-79.98,-175.5
52.209667,-2.188443,96.86,6.89,3,250.7,24 / 24,12704609,2020-01-08 15:47:08:203,1.3355,0.8266,10.1554,-0.0171,0.0046,9.8066,0.0271,-0.0513,0.0704,10.63,-34.44,6.81,90.7,-79.83,-174.71
52.209667,-2.188443,96.86,6.89,3,250.7,24 / 24,12704710,2020-01-08 15:47:08:304,1.472,0.5361,9.9816,0.012,-0.0007,9.8066,-0.0206,0.04,0.0508,10.25,-34.19,7.38,91.52,-79.81,-173.49
52.209667,-2.188443,96.86,6.89,3,250.7,24 / 24,12704809,2020-01-08 15:47:08:403,-0.7456,0.3701,9.6079,-0.0038,0.0007,9.8066,-0.0127,0.0101,-0.0387,10.38,-34.69,8.31,87.29,-79.94,-173.08
52.209667,-2.188443,96.86,6.89,3,250.7,24 / 24,12704910,2020-01-08 15:47:08:504,0.8135,-0.0527,9.6731,0.0044,0.0006,9.8066,-0.0309,0.0374,-0.0291,9.94,-34.44,7.56,85.98,-79.93,-173.46
52.209667,-2.188443,96.86,6.89,3,250.7,24 / 24,12705010,2020-01-08 15:47:08:604,1.2061,-0.1057,9.6796,0.0187,0.0029,9.8066,0.0166,0.0165,-0.0207,9.88,-34.31,7.88,85.53,-80.12,-173.33
52.209667,-2.188443,96.86,6.89,3,250.7,24 / 24,12705109,2020-01-08 15:47:08:703,-0.0101,-0.8615,9.5582,-0.0056,0.0092,9.8066,0.0462,0.0926,-0.069,10.25,-34.12,7.44,90.9,-80.07,-173.26
52.209667,-2.188443,96.86,6.89,3,250.7,24 / 24,12705210,2020-01-08 15:47:08:804,0.5089,0.6379,10.6247,0.0025,0.0108,9.8065,0.1158,-0.0217,0.0121,9.88,-34.37,8.13,86.87,-79.91,-172.67
