GPS LATITUDE (degrees), GPS LONGITUDE (degrees), GPS ALTITUDE (m), GPS SPEED (Kmh), GPS ACCURACY (m), GPS ORIENTATION (Â°),GPS SATELLITES IN RANGE, TIME SINCE START (ms), DATE (YYYY-MO-DD HH-MI-SS_SSS), ACCELEROMETER X (m/s²) , ACCELEROMETER Y (m/s²), ACCELEROMETER Z (m/s²), GRAVITY X (m/s²), GRAVITY Y (m/s²), GRAVITY Z (m/s²), GYROSCOPE Yaw (rad/s), GYROSCOPE Pitch (rad/s), GYROSCOPE Roll (rad/s), MAGNETIC FIELD X (Î¼T), MAGNETIC FIELD Y (Î¼T), MAGNETIC FIELD Z (Î¼T), ORIENTATION (Yaw) (Â°), ORIENTATION (Pitch) (Â°), ORIENTATION (Roll ) (Â°)
52.211346,-2.186876,97.21,0,3,86.76,22 / 24,12779310,2020-01-08 15:48:22:904,0.9892,-0.0839,9.9356,0.0072,-0.0001,9.8066,0.0128,-0.0609,-0.0099,-24.06,-31.31,9.88,346.35,-85.15,-124.86
52.211346,-2.186876,97.21,0,3,86.76,22 / 24,12779409,2020-01-08 15:48:23:003,0.5965,-0.3788,9.7906,0.0076,-0.005,9.8066,-0.0037,-0.1067,0.0362,-23.44,-31.75,9.88,346.51,-85.07,-125.48
52.211346,-2.186876,97.21,0,3,86.76,22 / 24,12779510,2020-01-08 15:48:23:104,0.5049,-0.4207,9.8224,0.0053,-0.0037,9.8066,0.0016,-0.1161,-0.0179,-23.44,-31.37,9.75,346.22,-85.03,-125.77
52.211346,-2.186876,97.21,0,3,86.76,22 / 24,12779610,2020-01-08 15:48:23:204,1.3581,-1.0264,9.937,0.0098,-0.0011,9.8066,-0.0063,-0.1857,-0.0031,-23.44,-31.81,9.5,345.1,-84.92,-126.68
52.211346,-2.186876,97.21,0,3,86.76,22 / 24,12779710,2020-01-08 15:48:23:304,2.2615,-1.0602,9.8281,0.0149,-0.0036,9.8066,0.0259,-0.1458,-0.005,-22.94,-32.06,9.31,340.69,-84.81,-128.38
52.211346,-2.186876,97.21,0,3,86.76,22 / 24,12779810,2020-01-08 15:48:23:404,0.3576,-0.9693,9.8204,0.0092,0.0115,9.8066,-0.0256,-0.2246,0.0099,-22.87,-32.56,9.44,338.9,-84.8,-129.89
52.211346,-2.186876,97.21,0,3,86.76,22 / 24,12779910,2020-01-08 15:48:23:504,0.7931,-0.1388,9.5783,0.013,-0.0057,9.8066,0.009,-0.1705,-0.0136,-22.44,-32.69,10.13,340.88,-84.81,-131.17
52.211346,-2.186876,97.21,0,3,86.76,22 / 24,12780010,2020-01-08 15:48:23:604,2.1302,-1.2719,9.8713,0.0105,0.0049,9.8066,-0.0311,-0.3053,0.0149,-23,-32.87,10.88,339.47,-84.65,-133.58
52.211346,-2.186876,97.21,0,3,86.76,22 / 24,12780109,2020-01-08 15:48:23:703,0.3075,-0.0091,10.1689,-0.0048,0.0131,9.8066,-0.0348,-0.2568,-0.0249,-21.94,-32.94,10.56,341.13,-84.83,-133.12
52.211346,-2.186876,97.21,0,3,86.76,22 / 24,12780210,2020-01-08 15:48:23:804,1.5177,-0.2896,9.8353,0.021,0.0069,9.8065,0.0339,-0.2624,-0.002,-22.62,-32.62,12.06,340.47,-84.87,-134.83
52.211346,-2.186876,97.21,0,3,86.76,25 / 25,12780310,2020-01-08 15:48:23:904,3.5282,-0.6798,9.7497,0.016,-0.0092,9.8065,0.025,-0.2464,0.0213,-22.06,-32.12,11.44,336.03,-84.77,-137.68
52.211346,-2.186876,97.21,0,3,86.76,25 / 25,12780410,2020-01-08 15:48:24:004,0.8558,-0.0148,9.3238,0.0116,-0.0057,9.8066,-0.0249,-0.2153,0.0248,-22.44,-32.37,12.19,336.25,-84.56,-139.47
52.211346,-2.186876,97.21,0,3,86.76,25 / 25,12780509,2020-01-08 15:48:24:103,1.7997,-0.9458,9.6304,-0.0016,-0.0036,9.8066,-0.0013,-0.2027,0.031,-22.19,-32.06,13.38,338.9,-84.57,-139.15
52.211346,-2.186876,97.21,0,3,86.76,25 / 25,12780610,2020-01-08 15:48:24:204,0.703,-0.0446,9.8216,-0.0024,0.0165,9.8066,-0.0338,-0.1551,-0.0083,-22,-31.12,13.5,340.77,-84.74,-139.57
52.211346,-2.186876,97.21,0,3,86.76,25 / 25,12780709,2020-01-08 15:48:24:303,2.0405,0.406,10.439,0.0112,0.0318,9.8065,-0.026,-0.0918,-0.0486,-20.75,-32,14.25,338.79,-85.14,-142.61
52.211346,-2.186876,97.21,0,3,86.76,25 / 25,12780810,2020-01-08 15:48:24:404,2.3198,1.9208,9.6144,0.0035,0.0064,9.8066,-0.0364,-0.0386,0.0277,-20.69,-31.62,14.19,337.07,-85.37,-144.26
52.211346,-2.186876,97.21,0,3,86.76,25 / 25,12780910,2020-01-08 15:48:24:504,2.5381,-0.0432,9.974,-0.0038,-0.002,9.8066,0.0256,0.0606,-0.0477,-20.69,-32.56,13.75,336.47,-85.65,-144.89
52.211346,-2.186876,97.21,0,3,86.76,25 / 25,12781010,2020-01-08 15:48:24:604,2.2805,0.2176,9.7727,-0.0004,0.0024,9.8066,0.029,-0.0504,0.0201,-20.81,-31.81,12.5,334.6,-85.67,-144.69
52.211346,-2.186876,97.21,0,3,86.76,25 / 25,12781110,2020-01-08 15:48:24:704,0.9509,-0.6667,9.1578,0.0021,0.0038,9.8066,-0.0407,-0.0066,0.0294,-21,-31.81,12.69,333.02,-85.71,-146.16
52.211346,-2.186876,97.21,0,3,86.76,25 / 25,12781210,2020-01-08 15:48:24:804,2.7135,1.765,9.87,-0.014,-0.0054,9.8066,-0.0237,0.1529,-0.0475,-20.56,-31.87,11.69,328.07,-85.81,-148.67
52.211346,-2.186876,97.21,0,3,86.76,23 / 24,12781310,2020-01-08 15:48:24:904,0.947,0.2093,9.4378,-0.0111,-0.0066,9.8066,-0.0299,0.0633,0.1161,-20.81,-32.19,10.5,323.64,-86,-150.73
52.211346,-2.186876,97.21,0,3,86.76,23 / 24,12781410,2020-01-08 15:48:25:004,1.8227,1.6845,10.1048,-0.0171,-0.0147,9.8066,0.035,0.3292,-0.0819,-21.75,-32.62,9.25,319.57,-86.12,-149.12
52.211346,-2.186876,97.21,0,3,86.76,23 / 24,12781510,2020-01-08 15:48:25:104,2.1895,1.3092,10.017,0.0076,0.0324,9.8065,-0.0409,0.1332,0.0341,-22.25,-32,9.63,325.51,-86.04,-145.91
52.211346,-2.186876,97.21,0,3,86.76,23 / 24,12781610,2020-01-08 15:48:25:204,2.7797,2.0648,9.7624,-0.0128,-0.0085,9.8066,0.0184,0.3843,-0.124,-22.87,-32.56,9.06,320.62,-86.22,-147.48
52.211346,-2.186876,97.21,0,3,86.76,23 / 24,12781711,2020-01-08 15:48:25:305,1.4423,0.9267,9.615,0.0085,0.0367,9.8066,-0.0175,0.1997,-0.0604,-22.87,-32.5,8.19,312.17,-86.46,-153.5
52.211346,-2.186876,97.21,0,3,86.76,23 / 24,12781809,2020-01-08 15:48:25:403,1.3998,-0.8182,10.2424,-0.0051,0.0177,9.8066,0.0145,0.4115,-0.174,-23.19,-33.69,8.63,312.83,-86.6,-155.05
52.211346,-2.186876,97.21,0,3,86.76,23 / 24,12781910,2020-01-08 15:48:25:504,2.3812,1.682,9.5331,0.0175,0.027,9.8066,0.0289,0.3518,-0.0774,-23.81,-33.12,7.94,308.75,-86.69,-156.26
52.211346,-2.186876,97.21,0,3,86.76,23 / 24,12782010,2020-01-08 15:48:25:604,0.9661,0.1001,9.5205,0.0102,0.0139,9.8066,-0.0046,0.1484,-0.0149,-23.87,-33,8.81,306.63,-86.69,-160.45
52.211346,-2.186876,97.21,0,3,86.76,23 / 24,12782110,2020-01-08 15:48:25:704,1.6528,-0.3594,9.5321,-0.0078,-0.0083,9.8066,-0.0051,0.1998,0.0349,-24.12,-33.12,8.25,306.78,-86.59,-158.04
52.211346,-2.186876,97.21,0,3,86.76,23 / 24,12782210,2020-01-08 15:48:25:804,2.0073,-0.994,10.1535,-0.0026,-0.0225,9.8066,-0.0772,0.1559,-0.0148,-23.94,-33.31,9.13,312.17,-86.47,-154.96
52.211346,-2.186876,97.21,0,3,86.76,23 / 24,12782310,2020-01-08 15:48:25:904,1.3281,-0.3108,9.0216,-0.02,-0.0045,9.8066,-0.0268,0.0827,0.0162,-23.37,-33.44,9.06,314.1,-86.46,-153.82
52.211346,-2.186876,97.21,0,3,86.76,23 / 24,12782409,2020-01-08 15:48:26:003,1.6266,0.3718,9.3659,-0.0132,0.0122,9.8066,-0.1151,0.0813,-0.0485,-23.37,-33.75,9.38,312.75,-86.5,-155.03
52.211346,-2.186876,97.21,0,3,86.76,23 / 24,12782510,2020-01-08 15:48:26:104,1.5015,-1.4354,10.0158,-0.0201,0.006,9.8066,-0.0331,-0.0683,0.08,-22.25,-33.06,9.19,308.65,-86.54,-159.79
52.211346,-2.186876,97.21,0,3,86.76,23 / 24,12782610,2020-01-08 15:48:26:204,3.2572,0.4834,9.6573,-0.0116,0.0063,9.8066,0.0504,0.1183,-0.1005,-21.75,-33.94,8.31,302.07,-86.62,-163.71
52.211346,-2.186876,97.21,0,3,86.76,23 / 24,12782710,2020-01-08 15:48:26:304,2.9443,2.2927,7.9867,-0.0038,-0.0111,9.8065,-0.0573,0.1429,-0.0418,-22.12,-33.31,7.94,301.88,-86.63,-164.02
52.211346,-2.186876,97.21,0,3,86.76,23 / 24,12782810,2020-01-08 15:48:26:404,1.5507,0.1488,8.8297,0.0013,-0.0081,9.8066,-0.1047,0.077,0.0329,-21.37,-33.5,8.19,304.67,-86.5,-161.89
52.211346,-2.186876,97.21,0,3,86.76,23 / 24,12782910,2020-01-08 15:48:26:504,-0.3949,-2.2625,12.099,0.0147,-0.0322,9.8065,-0.0053,0.2088,-0.1422,-21.56,-33.62,8.13,307.36,-86.58,-158.62
52.211346,-2.186876,97.21,0,3,86.76,23 / 24,12783010,2020-01-08 15:48:26:604,-0.4064,0.9127,6.0912,0.0787,-0.0239,9.8062,-0.2712,0.198,-0.0956,-21.87,-33.81,7.75,307.19,-86.44,-158.61
52.211346,-2.186876,97.21,0,3,86.76,23 / 24,12783110,2020-01-08 15:48:26:704,-0.4236,-0.3333,9.7049,-0.0636,0.0134,9.8063,0.2283,0.0768,-0.0189,-21.25,-33.12,7.31,304.46,-86.63,-159.77
52.211346,-2.186876,97.21,0,3,86.76,23 / 24,12783210,2020-01-08 15:48:26:804,1.249,1.9139,11.6521,-0.019,-0.0239,9.8065,0.1158,0.3397,-0.2244,-21.19,-33.69,6.75,307.59,-86.89,-157.01
52.211346,-2.186876,97.21,0,3,86.76,24 / 25,12783310,2020-01-08 15:48:26:904,-1.4376,-1.9601,10.1721,-0.0788,0.0237,9.8063,0.1797,-0.1647,0.113,-22.25,-33.31,7.06,309.86,-87.21,-154.7
52.211346,-2.186876,97.21,0,3,86.76,24 / 25,12783410,2020-01-08 15:48:27:004,2.7409,3.2606,11.6899,-0.059,-0.0477,9.8064,0.2551,0.3292,-0.1946,-21.87,-33.62,6.19,311.38,-87.09,-150.58
52.211346,-2.186876,97.21,0,3,86.76,24 / 25,12783509,2020-01-08 15:48:27:103,1.6451,1.2066,8.5758,-0.0182,0.0158,9.8066,-0.0184,-0.2064,0.2128,-22.5,-33.56,6.19,310.57,-86.94,-151.18
52.211346,-2.186876,97.21,0,3,86.76,24 / 25,12783610,2020-01-08 15:48:27:204,1.9844,1.9447,12.2308,-0.0878,-0.0273,9.8062,0.2591,0.0443,-0.1635,-22.81,-33.5,6.94,316.48,-87.13,-147.7
52.211346,-2.186876,97.21,0,3,86.76,24 / 25,12783710,2020-01-08 15:48:27:304,0.4722,0.66,8.4315,0.0345,0.0509,9.8064,-0.219,-0.2376,0.2142,-23.19,-33.06,6.75,313.24,-87.06,-150.71
52.211346,-2.186876,97.21,0,3,86.76,24 / 25,12783809,2020-01-08 15:48:27:403,-0.4339,-0.9531,8.6803,-0.0319,0.0137,9.8065,0.0564,0.0734,0.0005,-22.69,-33.56,7.63,310.92,-87.22,-155.3
52.211346,-2.186876,97.21,0,3,86.76,24 / 25,12783910,2020-01-08 15:48:27:504,-0.8338,-2.5116,9.0708,0.0438,0.0282,9.8065,-0.1451,-0.3433,0.2427,-22.25,-33,8.31,307.26,-87.16,-159.5
52.211346,-2.186876,97.21,0,3,86.76,24 / 25,12784010,2020-01-08 15:48:27:604,1.4833,-0.0813,10.0523,-0.0336,-0.0109,9.8065,0.0535,0.0321,0.1373,-21.75,-33.37,7.44,310.3,-87.18,-154.24
52.211346,-2.186876,97.21,0,3,86.76,24 / 25,12784110,2020-01-08 15:48:27:704,1.5646,5.6851,12.3262,0.0747,0.0761,9.806,0.0124,-0.4003,0.4795,-21.87,-33.69,6.94,311.49,-86.9,-152.7
52.211346,-2.186876,97.21,0,3,86.76,24 / 25,12784211,2020-01-08 15:48:27:805,-0.6286,2.6859,6.9177,0.0747,-0.115,9.8057,-0.1491,-0.0714,0.017,-22,-33.75,7.56,311.27,-86.11,-154.4
52.211346,-2.186876,97.21,0,3,86.76,22 / 25,12784310,2020-01-08 15:48:27:904,1.7719,1.2379,9.4394,-0.0088,-0.0208,9.8066,0.1773,-0.2192,0.074,-22,-33,7.5,314.74,-85.67,-150.82
52.211346,-2.186876,97.21,0,3,86.76,22 / 25,12784410,2020-01-08 15:48:28:004,0.41,-1.3479,9.4791,0.0181,0.0145,9.8065,-0.0564,-0.034,0.1098,-22.37,-33.31,7.19,315.33,-85.36,-147.56
52.211346,-2.186876,97.21,0,3,86.76,22 / 25,12784510,2020-01-08 15:48:28:104,2.8909,0.4659,10.5625,-0.0706,0.0112,9.8063,0.0319,0.1265,-0.1205,-22.69,-33.44,7.44,319.81,-85.77,-143.28
52.211346,-2.186876,97.21,0,3,86.76,22 / 25,12784609,2020-01-08 15:48:28:203,-0.7413,2.1581,8.2023,-0.011,0.0282,9.8066,-0.2727,0.1982,-0.2252,-22.19,-33.5,6.31,319.6,-86.42,-142.24
52.211346,-2.186876,97.21,0,3,86.76,22 / 25,12784710,2020-01-08 15:48:28:304,-1.254,-2.1045,10.7514,-0.0702,-0.0123,9.8063,0.0726,0.2539,-0.1426,-22.19,-33.5,5.69,322.72,-87.38,-140.21
52.211346,-2.186876,97.21,0,3,86.76,22 / 25,12784810,2020-01-08 15:48:28:404,-0.7705,5.6758,7.4211,0.0343,-0.0919,9.8061,-0.0931,0.7308,-0.3418,-22,-33.87,5.38,327.19,-87.48,-133.53
52.211346,-2.186876,97.21,0,3,86.76,22 / 25,12784910,2020-01-08 15:48:28:504,-2.9989,-7.4281,8.9447,-0.0455,-0.0586,9.8063,0.3026,-0.0681,-0.0106,-22.06,-34.06,5.75,326.67,-87.43,-136.46
52.211346,-2.186876,97.21,0,3,86.76,22 / 25,12785010,2020-01-08 15:48:28:604,0.8392,1.0495,10.4476,-0.0007,-0.1046,9.806,0.3788,0.624,-0.5331,-21.87,-33.25,6.13,324.32,-86.83,-138.21
52.211346,-2.186876,97.21,0,3,86.76,22 / 25,12785110,2020-01-08 15:48:28:704,0.9175,-0.4832,9.1222,0.0334,-0.0138,9.8066,-0.0155,0.3899,-0.2667,-20.81,-33.31,6.63,306.05,-86.53,-158.15
52.211346,-2.186876,97.21,0,3,86.76,22 / 25,12785211,2020-01-08 15:48:28:805,1.7852,6.3729,9.6561,-0.0355,-0.0782,9.8062,-0.0549,0.5475,-0.4843,-21.37,-33.31,5.75,297.44,-86.66,-163.98
52.211346,-2.186876,97.21,0,3,86.76,22 / 25,12785310,2020-01-08 15:48:28:904,-1.7109,-4.1802,10.0467,-0.035,-0.0868,9.8061,0.0632,0.4831,-0.1548,-21.19,-32.56,6.19,294.83,-86.83,-166.73
52.211346,-2.186876,97.21,0,3,86.76,22 / 25,12785410,2020-01-08 15:48:29:004,0.9657,0.1052,10.3979,-0.03,-0.0887,9.8062,0.1818,0.4895,-0.3934,-21.19,-32.5,5.69,308.29,-86.64,-153.74
52.211346,-2.186876,97.21,0,3,86.76,22 / 25,12785510,2020-01-08 15:48:29:104,-1.333,-6.1946,7.9879,-0.0138,-0.0889,9.8062,-0.0414,0.396,-0.3052,-21.44,-32.56,6.19,302.28,-86.61,-159.28
52.211346,-2.186876,97.21,0,3,86.76,22 / 25,12785610,2020-01-08 15:48:29:204,1.1006,3.1587,8.8201,-0.048,-0.0707,9.8063,0.0533,0.9299,-0.4372,-21.56,-33.37,6.69,309,-86.4,-154.59
52.211346,-2.186876,97.21,0,3,86.76,22 / 25,12785710,2020-01-08 15:48:29:304,-1.01,-4.9815,9.9227,0.013,0.0177,9.8066,-0.0729,-0.2434,0.1595,-21.69,-33.19,6.31,298.05,-86.38,-162.53
52.211346,-2.186876,97.21,0,3,86.76,22 / 25,12785809,2020-01-08 15:48:29:403,2.7937,3.4183,10.3978,-0.0216,-0.09,9.8061,0.0279,0.3757,-0.1838,-21.5,-32.44,5.25,300.62,-86.37,-158.09
52.211346,-2.186876,97.21,0,3,86.76,22 / 25,12785910,2020-01-08 15:48:29:504,1.1395,5.4005,8.3613,-0.0129,0.0499,9.8064,0.1585,-0.6567,0.4137,-22,-32.69,6,304.62,-86.26,-156.12
52.211346,-2.186876,97.21,0,3,86.76,22 / 25,12786011,2020-01-08 15:48:29:605,0.7331,0.5615,9.2866,-0.0087,-0.0097,9.8066,0.0492,-0.2076,0.0611,-21.56,-32.94,6.13,304.89,-86.1,-155.67
52.211346,-2.186876,97.21,0,3,86.76,22 / 25,12786110,2020-01-08 15:48:29:704,0.8909,1.5357,9.0838,-0.012,0.0363,9.8065,0.0833,-0.3843,0.1499,-22.44,-32.12,6.5,307.13,-85.97,-155.99
52.211346,-2.186876,97.21,0,3,86.76,22 / 25,12786210,2020-01-08 15:48:29:804,-0.515,-4.088,10.8492,-0.0162,0.0359,9.8065,0.0923,-0.3816,0.2732,-21.06,-32.12,6.5,306.36,-86.12,-157.49
52.211346,-2.186876,97.21,0,3,86.76,23 / 25,12786310,2020-01-08 15:48:29:904,0.4409,0.9028,8.3004,0,0.0462,9.8065,-0.1063,-0.0635,0.0734,-21.56,-31.94,5.69,302,-86.17,-158.63
52.211346,-2.186876,97.21,0,3,86.76,23 / 25,12786410,2020-01-08 15:48:30:004,1.2737,-3.1569,10.337,-0.0397,0.0235,9.8065,0.0509,-0.4496,0.1375,-22.12,-31.62,5.25,300.28,-86.37,-158.02
52.211346,-2.186876,97.21,0,3,86.76,23 / 25,12786510,2020-01-08 15:48:30:104,2.1155,4.6337,9.0727,-0.0162,0.0381,9.8065,-0.0628,-0.3376,0.1433,-21.75,-31.94,4.81,301.94,-86.33,-156.39
52.211346,-2.186876,97.21,0,3,86.76,23 / 25,12786610,2020-01-08 15:48:30:204,0.5384,-4.4142,11.5721,-0.0347,0.1113,9.8059,0.098,-0.7474,0.547,-23.12,-31.25,5.88,304.69,-86.62,-156.26
52.211346,-2.186876,97.21,0,3,86.76,23 / 25,12786709,2020-01-08 15:48:30:303,3.0328,4.2235,10.1906,0.0394,0.0209,9.8065,-0.0951,0.0214,-0.0372,-22.25,-32,5.56,310.69,-86.52,-150.81
52.211346,-2.186876,97.21,0,3,86.76,23 / 25,12786810,2020-01-08 15:48:30:404,-0.0705,-1.9694,9.0454,0.0181,0.0944,9.8061,-0.015,-0.729,0.4533,-22,-32.12,6.44,302.87,-86.61,-158.34
52.211346,-2.186876,97.21,0,3,86.76,23 / 25,12786910,2020-01-08 15:48:30:504,2.1267,4.8568,9.2676,0.0121,0.048,9.8064,-0.0311,0.067,0.1515,-22.69,-33.12,6.81,307.5,-86.42,-155.47
52.211346,-2.186876,97.21,0,3,86.76,23 / 25,12787010,2020-01-08 15:48:30:604,-0.8345,-2.8189,9.0259,0.0267,0.0741,9.8063,-0.1084,-0.4465,0.2131,-22.56,-33.56,6.56,309.84,-86.26,-152.96
52.211346,-2.186876,97.21,0,3,86.76,23 / 25,12787110,2020-01-08 15:48:30:704,0.3418,-0.6632,10.6752,0.0078,-0.0145,9.8066,0.0276,0.0506,-0.2257,-22.12,-33.5,6.38,308.13,-86.29,-152.84
52.211346,-2.186876,97.21,0,3,86.76,23 / 25,12787210,2020-01-08 15:48:30:804,-0.2022,-2.3578,9.0644,0.064,0.0565,9.8063,-0.0324,-0.2354,0.3772,-21.81,-33.87,6.75,306.18,-86.15,-156.83
52.211376,-2.186297,96.71,7.85,3,82.68,22 / 25,12787311,2020-01-08 15:48:30:905,1.8765,1.9179,10.7748,0.0022,-0.007,9.8066,0.0752,0.065,-0.1738,-22.31,-33.37,6.38,305.11,-85.97,-155.29
52.211376,-2.186297,96.71,7.85,3,82.68,22 / 25,12787410,2020-01-08 15:48:31:004,-0.8056,-4.8821,10.1431,-0.0065,0.038,9.8065,-0.0232,-0.5471,0.293,-21.81,-33.69,6.5,302.6,-86.09,-160.13
52.211376,-2.186297,96.71,7.85,3,82.68,22 / 25,12787510,2020-01-08 15:48:31:104,-0.6287,-0.4967,7.7605,-0.0511,0.012,9.8064,0.0706,0.5425,-0.1273,-22,-33.62,6.31,302.16,-86.07,-158.05
52.211376,-2.186297,96.71,7.85,3,82.68,22 / 25,12787610,2020-01-08 15:48:31:204,0.8525,-3.1613,12.0964,-0.1057,0.0291,9.806,0.3015,0.0173,-0.2057,-22,-33.5,6,305.76,-86.55,-155.4
52.211376,-2.186297,96.71,7.85,3,82.68,22 / 25,12787710,2020-01-08 15:48:31:304,-0.5722,-3.6254,8.5911,-0.0129,-0.0856,9.8062,-0.0771,0.5439,-0.3004,-21.62,-33.69,6.38,309.13,-86.14,-151.58
52.211376,-2.186297,96.71,7.85,3,82.68,22 / 25,12787810,2020-01-08 15:48:31:404,1.9649,2.5457,9.9606,-0.0241,-0.0381,9.8065,0.2199,0.3245,-0.2924,-21.44,-33.44,6.94,309.52,-86.14,-154.41
52.211376,-2.186297,96.71,7.85,3,82.68,22 / 25,12787909,2020-01-08 15:48:31:503,0.0283,1.2322,8.4375,-0.0289,-0.0241,9.8065,-0.0228,0.0926,-0.1366,-21.44,-33.25,7,302.51,-85.88,-160.66
52.211376,-2.186297,96.71,7.85,3,82.68,22 / 25,12788010,2020-01-08 15:48:31:604,0.1455,0.5427,10.8395,-0.046,0.0019,9.8065,0.0984,0.0745,-0.11,-22.37,-33.44,6.19,301.63,-86.14,-158.8
52.211376,-2.186297,96.71,7.85,3,82.68,22 / 25,12788109,2020-01-08 15:48:31:703,0.3731,0.8745,10.6566,0.0221,0.0103,9.8066,-0.0681,-0.1374,0.1278,-21.75,-33.69,6.56,302.78,-86.3,-160.22
52.211376,-2.186297,96.71,7.85,3,82.68,22 / 25,12788210,2020-01-08 15:48:31:804,-1.1072,1.9443,9.0055,0.0309,0.0108,9.8065,-0.1703,-0.2764,0.15,-21.62,-33.69,5.75,297.97,-86.2,-162.22
52.211376,-2.186297,96.71,7.85,3,82.68,22 / 26,12788310,2020-01-08 15:48:31:904,0.0687,8.3653,8.7883,0.0001,0.0756,9.8063,0.1303,-0.433,0.1964,-21.5,-34.19,7.19,298.14,-86.47,-165.45
52.211376,-2.186297,96.71,7.85,3,82.68,22 / 26,12788410,2020-01-08 15:48:32:004,-0.2145,-1.4802,10.3142,0.0055,0.0965,9.8061,0.0633,-0.6858,0.3811,-21.25,-33.62,7,299.39,-86.24,-163.95
52.211376,-2.186297,96.71,7.85,3,82.68,22 / 26,12788510,2020-01-08 15:48:32:104,-0.4257,2.9556,9.2953,0.0053,-0.0342,9.8065,-0.0367,0.2452,-0.2268,-21.44,-34.37,7.19,300.92,-86.17,-162.4
52.211376,-2.186297,96.71,7.85,3,82.68,22 / 26,12788610,2020-01-08 15:48:32:204,-0.3252,-0.395,8.5842,0.0188,0.0463,9.8064,-0.0958,-0.0434,0.0814,-21.37,-33.87,6.63,298.77,-86.07,-164.3
52.211376,-2.186297,96.71,7.85,3,82.68,22 / 26,12788710,2020-01-08 15:48:32:304,0.0836,1.7766,9.3765,-0.0323,0.0077,9.8065,0.152,-0.1823,-0.1093,-21.44,-34,6.31,295.66,-86.13,-164.8
52.211376,-2.186297,96.71,7.85,3,82.68,22 / 26,12788810,2020-01-08 15:48:32:404,-0.6972,-2.5301,10.4596,0.0134,0.0705,9.8063,0.1574,-0.3799,0.268,-20.94,-34.25,6.75,295.2,-86.4,-168.18
52.211376,-2.186297,96.71,7.85,3,82.68,22 / 26,12788910,2020-01-08 15:48:32:504,0.7926,3.9448,8.1761,0.005,0.0363,9.8065,-0.1479,-0.2762,0.1284,-21.31,-34.06,6.56,297.13,-86.35,-166.26
52.211376,-2.186297,96.71,7.85,3,82.68,22 / 26,12789009,2020-01-08 15:48:32:603,-1.6394,-7.363,9.4872,0.0084,0.095,9.8061,0.0218,-0.8961,0.5503,-21.81,-33.56,6.75,293.78,-86.34,-168.89
52.211376,-2.186297,96.71,7.85,3,82.68,22 / 26,12789109,2020-01-08 15:48:32:703,1.8622,5.932,10.2137,0.0386,0.0049,9.8065,-0.0829,0.4053,-0.0936,-21.56,-34.06,6.31,296.32,-86.07,-163.62
52.211376,-2.186297,96.71,7.85,3,82.68,22 / 26,12789210,2020-01-08 15:48:32:804,-0.2722,2.2348,7.965,0.0058,0.0669,9.8064,-0.1959,-0.4056,0.2303,-22.12,-33.19,7.31,297.89,-86.08,-164.75
52.211376,-2.186297,96.71,7.85,3,82.68,24 / 27,12789310,2020-01-08 15:48:32:904,1.2519,1.0466,9.3889,0.0486,-0.0113,9.8064,-0.1527,-0.0071,0.1402,-21.12,-34,7.19,305.81,-86.34,-158
52.211376,-2.186297,96.71,7.85,3,82.68,24 / 27,12789410,2020-01-08 15:48:33:004,-3.0887,-4.35,7.8498,0.0712,0.0376,9.8063,-0.2974,-0.5038,0.3295,-22,-33.5,6.81,305.72,-86.04,-157.26
52.211376,-2.186297,96.71,7.85,3,82.68,24 / 27,12789510,2020-01-08 15:48:33:104,0.965,0.7432,11.3065,0.0302,-0.0168,9.8066,-0.0166,0.18,-0.2636,-21.81,-33.44,6.56,308.82,-85.99,-154.28
52.211376,-2.186297,96.71,7.85,3,82.68,24 / 27,12789610,2020-01-08 15:48:33:204,-2.444,-7.1434,9.9182,0.0681,0.1096,9.8058,-0.0653,-0.4972,0.3573,-22.56,-33.69,6.88,303.11,-86.02,-159.03
52.211376,-2.186297,96.71,7.85,3,82.68,24 / 27,12789709,2020-01-08 15:48:33:303,2.0598,2.8508,11.0231,0.0002,-0.0621,9.8063,0.0823,0.488,-0.4684,-22.5,-33.62,7.25,304.55,-85.9,-158.04
52.211376,-2.186297,96.71,7.85,3,82.68,24 / 27,12789810,2020-01-08 15:48:33:404,1.1962,1.3826,11.3497,0.0264,0.0972,9.806,0.1206,-0.454,0.2887,-21.5,-33.75,7.38,309.53,-85.71,-153.74
52.211376,-2.186297,96.71,7.85,3,82.68,24 / 27,12789910,2020-01-08 15:48:33:504,2.1183,5.1438,9.3984,-0.025,-0.0171,9.8065,0.0698,0.4439,-0.2229,-21.69,-32.69,7.13,304.23,-85.88,-158.47
52.211376,-2.186297,96.71,7.85,3,82.68,24 / 27,12790010,2020-01-08 15:48:33:604,-2.9916,-3.2702,9.3353,-0.0118,0.0406,9.8065,-0.0622,-0.472,0.1393,-21.19,-33.62,7.63,306.16,-86,-159.73
52.211376,-2.186297,96.71,7.85,3,82.68,24 / 27,12790109,2020-01-08 15:48:33:703,-1.0862,-2.1699,10.6044,0.0017,-0.0631,9.8064,-0.061,0.4757,-0.3887,-22.19,-33.44,7.31,301.97,-86.09,-160.87
52.211376,-2.186297,96.71,7.85,3,82.68,24 / 27,12790210,2020-01-08 15:48:33:804,-2.0295,-6.5215,8.096,0.0662,0.0909,9.806,-0.2094,-0.1895,0.108,-21.56,-33.81,7.25,298.07,-86,-164.31
52.211376,-2.186297,96.71,7.85,3,82.68,24 / 27,12790310,2020-01-08 15:48:33:904,1.0072,2.8178,11.7642,-0.0578,-0.1,9.8059,0.3897,0.6171,-0.7171,-21.19,-33.81,7,295.8,-85.91,-166.91
52.211376,-2.186297,96.71,7.85,3,82.68,25 / 27,12790409,2020-01-08 15:48:34:003,3.3113,5.4647,12.0407,0.0528,0.0653,9.8062,0.0502,-0.1972,0.1171,-21,-33.81,7.06,295.13,-85.84,-167.44
52.211376,-2.186297,96.71,7.85,3,82.68,25 / 27,12790510,2020-01-08 15:48:34:104,2.7916,7.4889,10.0415,-0.1315,-0.0617,9.8055,0.3257,0.7089,-0.55,-21.25,-34.25,6.31,305.62,-86.14,-155.37
52.211376,-2.186297,96.71,7.85,3,82.68,25 / 27,12790610,2020-01-08 15:48:34:204,0.4061,0.4009,10.8067,-0.0071,0.0484,9.8065,0.137,0.0217,0.0031,-21.75,-33.06,6.25,297.62,-86.09,-162.56
52.211376,-2.186297,96.71,7.85,3,82.68,25 / 27,12790710,2020-01-08 15:48:34:304,-2.4746,-5.7167,9.4001,-0.0458,-0.0676,9.8063,0.1504,0.8054,-0.3568,-20.44,-33.56,6.19,296.26,-85.94,-164.44
52.211376,-2.186297,96.71,7.85,3,82.68,25 / 27,12790810,2020-01-08 15:48:34:404,1.1935,1.1654,10.723,-0.0273,-0.0703,9.8063,0.0426,0.506,-0.5076,-21.37,-33.44,5.88,300.56,-85.91,-159.99
52.211376,-2.186297,96.71,7.85,3,82.68,25 / 27,12790910,2020-01-08 15:48:34:504,0.1372,-2.1912,8.4307,0.0215,-0.0507,9.8065,-0.2365,-0.0892,-0.0518,-21.12,-33.5,5.5,293.44,-86.02,-166.92
52.211376,-2.186297,96.71,7.85,3,82.68,25 / 27,12791010,2020-01-08 15:48:34:604,-0.0363,-2.6292,10.1291,-0.0575,0.0326,9.8063,0.2311,0.1344,0.1283,-21.75,-33.81,5.31,292.36,-86.14,-165
52.211376,-2.186297,96.71,7.85,3,82.68,25 / 27,12791109,2020-01-08 15:48:34:703,-1.0587,-3.9366,9.8006,0.0316,0.0487,9.8064,-0.1093,0.0342,0.2397,-23.12,-34,4.56,287.84,-85.98,-168.84
52.211376,-2.186297,96.71,7.85,3,82.68,25 / 27,12791210,2020-01-08 15:48:34:804,1.3178,4.3399,9.2223,-0.0046,-0.1028,9.8061,-0.0758,0.388,-0.3835,-23,-33.5,4.75,291.17,-85.93,-165.71
52.211376,-2.186297,96.71,7.85,3,82.68,25 / 27,12791310,2020-01-08 15:48:34:904,0.0842,-0.8665,8.1489,-0.0134,-0.011,9.8066,0.0709,-0.2146,0.1343,-24.19,-33.56,6.06,287.86,-85.89,-170.75
52.211376,-2.186297,96.71,7.85,3,82.68,27 / 27,12791410,2020-01-08 15:48:35:004,1.4741,4.3709,10.3816,-0.0639,-0.0615,9.8062,0.243,0.4158,-0.2156,-23.75,-33.06,6.19,290.54,-85.87,-168.27
52.211376,-2.186297,96.71,7.85,3,82.68,27 / 27,12791510,2020-01-08 15:48:35:104,-0.8642,-4.0034,8.5374,0.0239,0.0299,9.8065,-0.3128,-0.5209,0.41,-24.44,-32.87,7.38,289.78,-85.71,-171.08
52.211376,-2.186297,96.71,7.85,3,82.68,27 / 27,12791610,2020-01-08 15:48:35:204,-2.7087,-4.2482,8.0434,-0.0385,-0.0615,9.8063,-0.1369,0.1028,-0.0034,-23.31,-32.56,7.94,293.94,-85.81,-169.98
52.211376,-2.186297,96.71,7.85,3,82.68,27 / 27,12791709,2020-01-08 15:48:35:303,2.5225,4.3785,11.6896,0.0913,0.0738,9.8059,-0.2847,-0.4289,0.5153,-22.37,-32.06,8,287.73,-85.72,-176.61
52.211376,-2.186297,96.71,7.85,3,82.68,27 / 27,12791810,2020-01-08 15:48:35:404,3.0738,5.9469,10.3167,0.0092,-0.0174,9.8066,-0.1624,0.1809,-0.0937,-21.25,-33.81,7.69,293.99,-86.02,-171.3
52.211376,-2.186297,96.71,7.85,3,82.68,27 / 27,12791910,2020-01-08 15:48:35:504,-1.6929,-4.1955,9.071,0.0703,0.0484,9.8063,-0.4351,-0.0618,0.4738,-20.37,-33.69,7.25,293.88,-86.35,-170.01
52.211376,-2.186297,96.71,7.85,3,82.68,27 / 27,12792010,2020-01-08 15:48:35:604,2.2066,4.6775,9.8129,-0.0595,-0.1228,9.8057,-0.1023,0.3873,-0.4235,-20.81,-33.94,6.63,296.16,-86.35,-167.18
52.211376,-2.186297,96.71,7.85,3,82.68,27 / 27,12792110,2020-01-08 15:48:35:704,0.5087,-1.3591,11.4238,0.0691,-0.0516,9.8062,-0.0458,0.0715,-0.029,-20.37,-34.19,6.13,287.69,-86.41,-173.4
52.211376,-2.186297,96.71,7.85,3,82.68,27 / 27,12792211,2020-01-08 15:48:35:805,1.315,1.4542,11.5005,-0.0145,-0.0668,9.8064,0.3107,0.3352,-0.3592,-20.81,-33.87,6.81,293.01,-86.04,-169.76
52.211376,-2.186297,96.71,7.85,3,82.68,27 / 27,12792311,2020-01-08 15:48:35:905,-0.9616,2.2942,8.204,-0.0586,-0.1126,9.8058,-0.0172,0.3516,-0.3424,-20.75,-34.25,6,294.2,-85.86,-165.8
52.211376,-2.186297,96.71,7.85,3,82.68,27 / 27,12792411,2020-01-08 15:48:36:005,0.9416,0.1926,10.2146,-0.0562,-0.0249,9.8064,0.1201,0.0824,0.0763,-21.75,-33.94,5.88,292.55,-85.88,-166.95
52.211376,-2.186297,96.71,7.85,3,82.68,27 / 27,12792510,2020-01-08 15:48:36:104,-0.8173,-2.9792,9.7985,-0.008,-0.0517,9.8065,0.0659,0.4961,-0.2531,-22.19,-33.5,6,297.84,-85.76,-161.92
52.211376,-2.186297,96.71,7.85,3,82.68,27 / 27,12792610,2020-01-08 15:48:36:204,0.247,-1.3646,10.3508,-0.0162,-0.0274,9.8066,0.0424,0.3078,-0.2381,-21.56,-33.87,5.06,300.38,-85.78,-156.86
52.211376,-2.186297,96.71,7.85,3,82.68,27 / 27,12792710,2020-01-08 15:48:36:304,-0.3445,2.1187,10.297,-0.0024,-0.0502,9.8064,0.0456,0.1119,-0.2369,-22.37,-33.87,5.31,301,-85.81,-156.3
52.211376,-2.186297,96.71,7.85,3,82.68,27 / 27,12792810,2020-01-08 15:48:36:404,0.0112,-2.6815,11.7221,0.0429,-0.0822,9.8062,-0.2746,0.2839,-0.3203,-22.75,-33.87,5.13,299.32,-86.08,-157.93
52.211376,-2.186297,96.71,7.85,3,82.68,27 / 27,12792910,2020-01-08 15:48:36:504,-0.6367,-1.8375,8.9604,0.0342,0.0456,9.8065,-0.2716,-0.0363,0.2046,-22.5,-33.37,4.56,297.71,-85.78,-159.55
52.211376,-2.186297,96.71,7.85,3,82.68,27 / 27,12793010,2020-01-08 15:48:36:604,1.2311,4.2057,11.1612,-0.0042,0.0086,9.8066,-0.0282,0.0411,-0.1016,-22,-33.94,3.94,297.68,-86.01,-157.17
52.211376,-2.186297,96.71,7.85,3,82.68,27 / 27,12793109,2020-01-08 15:48:36:703,1.5163,0.4388,9.7561,-0.0048,0.065,9.8064,-0.0111,-0.1527,0.2843,-22.12,-33.69,4,297.11,-86.38,-158.25
52.211376,-2.186297,96.71,7.85,3,82.68,27 / 27,12793210,2020-01-08 15:48:36:804,0.8294,4.1537,10.4877,0.0027,-0.0123,9.8065,0.0374,0.1602,-0.1217,-22.44,-33.81,3.69,303.05,-86.11,-152.22
52.211376,-2.186297,96.71,7.85,3,82.68,27 / 27,12793310,2020-01-08 15:48:36:904,1.4664,-5.8926,10.3118,0.0317,0.0544,9.8064,0.0456,-0.4437,0.3728,-21.5,-33.56,3.88,301.02,-86.09,-154.37
52.211376,-2.186297,96.71,7.85,3,82.68,27 / 27,12793410,2020-01-08 15:48:37:004,1.8343,1.3767,9.7784,-0.0162,0.034,9.8066,-0.0862,0.3748,-0.1609,-22.06,-33.94,3.88,301.49,-86.04,-153.61
52.211376,-2.186297,96.71,7.85,3,82.68,27 / 27,12793509,2020-01-08 15:48:37:103,-0.4983,-4.4644,11.5245,-0.0098,0.0315,9.8066,-0.1021,-0.447,0.2535,-21.69,-33.87,3.38,296.05,-86.21,-156.45
52.211376,-2.186297,96.71,7.85,3,82.68,27 / 27,12793610,2020-01-08 15:48:37:204,0.6335,2.6728,10.484,0.0357,-0.0569,9.8063,-0.0352,0.3212,-0.1206,-21.37,-34.31,4.06,303.86,-85.83,-151.34
52.211376,-2.186297,96.71,7.85,3,82.68,27 / 27,12793709,2020-01-08 15:48:37:303,1.2502,1.3931,10.358,0.0305,0.05,9.8064,0.0663,0.0478,0.0596,-21.44,-34.06,4.38,302.61,-85.76,-152.4
52.211376,-2.186297,96.71,7.85,3,82.68,27 / 27,12793810,2020-01-08 15:48:37:404,-0.128,3.7495,10.2348,0.0432,-0.0192,9.8065,-0.1358,0.1303,-0.1961,-21,-34,3.5,302.19,-85.75,-152.79
52.211376,-2.186297,96.71,7.85,3,82.68,27 / 27,12793910,2020-01-08 15:48:37:504,-0.6876,-2.8858,9.2266,0.0531,0.0393,9.8063,-0.1538,-0.1018,0.1499,-22.12,-33.5,4.06,298.97,-85.66,-155.64
52.211376,-2.186297,96.71,7.85,3,82.68,27 / 27,12794010,2020-01-08 15:48:37:604,1.2509,1.7712,10.183,-0.0042,-0.0222,9.8066,-0.0146,0.2979,-0.1318,-21,-33.87,4.06,301.63,-85.61,-153.11
52.211376,-2.186297,96.71,7.85,3,82.68,27 / 27,12794110,2020-01-08 15:48:37:704,0.3335,3.0245,10.6616,0.0063,0.0222,9.8065,-0.0444,0.124,-0.0369,-22.06,-34,3.25,298.89,-85.7,-153.03
52.211376,-2.186297,96.71,7.85,3,82.68,27 / 27,12794211,2020-01-08 15:48:37:805,-1.3855,-1.6517,8.5682,-0.0446,-0.0669,9.8062,0.115,0.3182,-0.3294,-21.5,-34,3.75,301.28,-85.82,-153.74
52.211376,-2.186297,96.71,7.85,3,82.68,26 / 27,12794310,2020-01-08 15:48:37:904,-0.684,0.6057,8.8719,-0.0039,-0.0602,9.8064,0.0153,0.4259,-0.2436,-21.19,-33.81,2.94,303.64,-85.88,-148.91
52.211376,-2.186297,96.71,7.85,3,82.68,26 / 27,12794410,2020-01-08 15:48:38:004,-2.4513,-1.8417,9.619,-0.006,-0.0437,9.8065,0.1706,0.1788,-0.1153,-21.44,-33.69,3.75,308.64,-85.75,-146.77
52.211376,-2.186297,96.71,7.85,3,82.68,26 / 27,12794510,2020-01-08 15:48:38:104,3.8178,2.575,10.8521,0.005,-0.0428,9.8065,0.1116,0.333,-0.1985,-21.44,-33.69,4.13,307,-85.49,-147.95
52.211376,-2.186297,96.71,7.85,3,82.68,26 / 27,12794610,2020-01-08 15:48:38:204,-0.5661,-2.0302,10.1814,-0.0344,-0.0547,9.8064,0.0889,-0.0138,-0.1496,-22.06,-33,4.31,306.45,-85.55,-148.48
52.211376,-2.186297,96.71,7.85,3,82.68,26 / 27,12794710,2020-01-08 15:48:38:304,-0.6816,-1.1504,10.5091,-0.0351,-0.0378,9.8064,0.1295,-0.0378,0.0435,-21.37,-33.69,4.13,311.31,-85.5,-144
52.211376,-2.186297,96.71,7.85,3,82.68,26 / 27,12794809,2020-01-08 15:48:38:403,-0.7152,0.6359,10.1056,-0.0547,-0.0058,9.8064,0.0442,-0.2335,0.133,-23.12,-33.19,3.38,313.01,-85.58,-139.73
52.211376,-2.186297,96.71,7.85,3,82.68,26 / 27,12794910,2020-01-08 15:48:38:504,-0.301,-1.6723,11.7588,-0.056,-0.0456,9.8063,-0.1362,-0.839,0.0941,-21.87,-33.75,3.94,320.88,-85.38,-134.9
52.211376,-2.186297,96.71,7.85,3,82.68,26 / 27,12795010,2020-01-08 15:48:38:604,-2.3655,-12.0173,10.4437,0.0283,-0.0899,9.8061,-0.1291,-1.1546,0.9717,-22.75,-32.37,4.31,318.91,-85.37,-136.69
52.211376,-2.186297,96.71,7.85,3,82.68,26 / 27,12795110,2020-01-08 15:48:38:704,1.7257,4.3774,7.7991,-0.0241,-0.1553,9.8054,0.2327,-0.2393,0.2305,-22.06,-32.12,4.88,320.64,-85,-137.55
52.211376,-2.186297,96.71,7.85,3,82.68,26 / 27,12795210,2020-01-08 15:48:38:804,1.773,-4.4845,10.6127,0.0027,-0.0061,9.8066,-0.0655,-0.5825,0.2754,-21.81,-32.81,6,312.15,-84.88,-147.48
52.211376,-2.186297,96.71,7.85,3,82.68,26 / 26,12795310,2020-01-08 15:48:38:904,0.6547,-0.5265,10.8043,-0.0127,-0.032,9.8066,-0.2352,0.2255,-0.0455,-22.62,-32.31,6.44,308.94,-84.73,-150.02
52.211376,-2.186297,96.71,7.85,3,82.68,26 / 26,12795409,2020-01-08 15:48:39:003,0.0528,0.9605,8.5013,-0.0621,-0.0069,9.8064,-0.209,0.2206,-0.0118,-22.75,-32.12,6.44,309.98,-84.9,-149.25
52.211376,-2.186297,96.71,7.85,3,82.68,26 / 26,12795510,2020-01-08 15:48:39:104,1.4068,-3.5218,10.4313,-0.0353,0.0366,9.8065,-0.0262,-0.1401,0.0913,-23.87,-32.06,6,313.38,-85.2,-146.03
52.211376,-2.186297,96.71,7.85,3,82.68,26 / 26,12795610,2020-01-08 15:48:39:204,0.426,0.9858,9.4826,-0.0159,-0.0072,9.8066,-0.0764,0.0986,-0.1264,-23.19,-32.81,5.19,310.24,-85.27,-146.85
52.211376,-2.186297,96.71,7.85,3,82.68,26 / 26,12795709,2020-01-08 15:48:39:303,0.0142,0.8431,8.9192,0.0058,0.0381,9.8065,0.0386,-0.1881,0.0747,-22.94,-33.19,5.94,311.25,-85.44,-148.51
52.211376,-2.186297,96.71,7.85,3,82.68,26 / 26,12795810,2020-01-08 15:48:39:404,1.0801,1.163,10.0856,0.0106,-0.0062,9.8066,0.1153,0.0158,-0.0878,-22.75,-33.5,5.38,308.7,-85.41,-148.45
52.211376,-2.186297,96.71,7.85,3,82.68,26 / 26,12795910,2020-01-08 15:48:39:504,-0.5782,-0.2365,9.7162,0.0044,0.0256,9.8066,0.0911,-0.0384,-0.0733,-22.5,-33.62,5.38,308.87,-85.57,-148.65
52.211376,-2.186297,96.71,7.85,3,82.68,26 / 26,12796011,2020-01-08 15:48:39:605,0.6725,0.5265,10.3356,0.0309,0.0135,9.8066,0.0774,-0.0542,0.0039,-22.62,-33.75,5.44,312.61,-85.63,-144.91
52.211376,-2.186297,96.71,7.85,3,82.68,26 / 26,12796110,2020-01-08 15:48:39:704,0.8432,0.4225,9.404,0.0206,-0.0022,9.8066,0.1154,0.1445,-0.0663,-21.5,-33.87,5.94,314.52,-85.52,-146.36
52.211376,-2.186297,96.71,7.85,3,82.68,26 / 26,12796210,2020-01-08 15:48:39:804,1.0664,1.54,11.1392,0.0021,0.0274,9.8065,0.1291,0.1148,-0.1453,-21.81,-34,5.63,314.8,-85.7,-145.83
52.211464,-2.185273,96.1,8.24,3,80.75,26 / 26,12796310,2020-01-08 15:48:39:904,-0.6984,-1.0431,10.7924,0.0178,0.0293,9.8065,-0.1411,0.1344,-0.0325,-22.19,-33.25,5.69,313.18,-86.01,-147.79
52.211464,-2.185273,96.1,8.24,3,80.75,26 / 26,12796409,2020-01-08 15:48:40:003,0.5148,1.631,9.8457,-0.0023,0.0087,9.8066,0.0083,-0.0484,-0.0383,-22.44,-33,5.31,310.36,-85.96,-147.86
52.211464,-2.185273,96.1,8.24,3,80.75,26 / 26,12796510,2020-01-08 15:48:40:104,-0.8008,-1.0041,9.9052,0.0267,0.0373,9.8064,-0.0197,-0.1312,0.194,-21.5,-33.37,6,310.96,-85.94,-150.27
52.211464,-2.185273,96.1,8.24,3,80.75,26 / 26,12796610,2020-01-08 15:48:40:204,1.7908,1.0279,10.7537,0.0185,-0.0144,9.8066,-0.0143,0.0653,-0.0153,-22.5,-33.12,5.13,309.11,-85.71,-148.74
52.211464,-2.185273,96.1,8.24,3,80.75,26 / 26,12796710,2020-01-08 15:48:40:304,-0.4119,0.4333,9.5918,0.0303,0.0067,9.8065,-0.0824,-0.167,0.132,-22.25,-33.37,6,311.96,-85.51,-148.37
52.211464,-2.185273,96.1,8.24,3,80.75,26 / 26,12796810,2020-01-08 15:48:40:404,0.4968,0.7307,10.544,-0.0257,0.0019,9.8065,0.1149,0.0003,0.048,-22.5,-33.37,5.69,316.59,-85.54,-144.14
52.211464,-2.185273,96.1,8.24,3,80.75,26 / 26,12796910,2020-01-08 15:48:40:504,-1.4343,-0.6874,10.2606,-0.0097,0.0013,9.8066,0.0568,-0.1174,0.0281,-22.62,-33.69,6.25,317.08,-85.41,-142.97
52.211464,-2.185273,96.1,8.24,3,80.75,26 / 26,12797010,2020-01-08 15:48:40:604,-1.418,-2.1427,9.4856,-0.0377,-0.0366,9.8064,0.0352,0.0617,-0.1089,-22.87,-33.25,5.63,316.98,-85.28,-143.07
52.211464,-2.185273,96.1,8.24,3,80.75,26 / 26,12797110,2020-01-08 15:48:40:704,-1.4212,-3.3903,10.0991,-0.0062,-0.0037,9.8066,0.0751,-0.1604,0.0324,-23.44,-33.37,6.88,323.72,-85.24,-139.25
52.211464,-2.185273,96.1,8.24,3,80.75,26 / 26,12797211,2020-01-08 15:48:40:805,-0.8041,-1.7913,9.3354,-0.0097,-0.0438,9.8064,0.0346,0.2738,-0.1637,-23.5,-32.94,6.44,321.24,-85.19,-139.09
52.211464,-2.185273,96.1,8.24,3,80.75,26 / 26,12797310,2020-01-08 15:48:40:904,1.2007,3.61,10.1156,-0.0203,-0.005,9.8066,0.0696,0.1319,-0.2531,-23.44,-32.81,7,325.37,-85.12,-137.65
52.211464,-2.185273,96.1,8.24,3,80.75,26 / 26,12797410,2020-01-08 15:48:41:004,-0.9672,0.1046,9.6139,-0.017,-0.062,9.8063,0.0247,0.2823,-0.3257,-23.12,-33.19,7.38,323.92,-85.11,-138.96
52.211464,-2.185273,96.1,8.24,3,80.75,26 / 26,12797510,2020-01-08 15:48:41:104,1.0573,3.6234,9.6778,0.0032,-0.0375,9.8065,0.0373,0.3615,-0.2182,-23.69,-33.19,6.13,317.23,-85.22,-142.37
52.211464,-2.185273,96.1,8.24,3,80.75,26 / 26,12797609,2020-01-08 15:48:41:203,0.2332,0.1432,9.6716,-0.0025,-0.0086,9.8066,-0.0468,-0.1301,0.1193,-23.19,-32.69,7.44,319,-85.23,-143.53
52.211464,-2.185273,96.1,8.24,3,80.75,26 / 26,12797710,2020-01-08 15:48:41:304,0.1233,2.6965,9.7128,-0.0239,-0.0429,9.8064,0.0003,0.2181,-0.1327,-23.62,-33.19,7.25,323.17,-85.21,-139.2
52.211464,-2.185273,96.1,8.24,3,80.75,26 / 26,12797810,2020-01-08 15:48:41:404,-1.1084,-2.205,10.1982,-0.0009,0.0067,9.8065,0.0242,-0.0663,0.0894,-24.06,-32.44,7.31,323.6,-85.32,-139.01
52.211464,-2.185273,96.1,8.24,3,80.75,26 / 26,12797910,2020-01-08 15:48:41:504,0.6747,0.1844,10.4932,-0.0087,-0.0465,9.8065,0.0317,0.1822,-0.1677,-24.19,-32.81,6.75,323.86,-85.23,-138.59
52.211464,-2.185273,96.1,8.24,3,80.75,26 / 26,12798010,2020-01-08 15:48:41:604,-0.9416,-0.966,9.533,-0.0199,-0.0034,9.8066,0.0198,-0.0671,0.0018,-23.87,-32.25,5.94,321.93,-85.36,-138.3
52.211464,-2.185273,96.1,8.24,3,80.75,26 / 26,12798110,2020-01-08 15:48:41:704,-0.2509,1.3024,10.4373,-0.0261,-0.0218,9.8065,0.1116,0.1295,-0.1221,-24.37,-32.44,6.25,322.42,-85.37,-137.87
52.211464,-2.185273,96.1,8.24,3,80.75,26 / 26,12798209,2020-01-08 15:48:41:803,0.0564,0.9034,9.4737,-0.0056,0.0131,9.8066,0.0035,-0.0788,0.0635,-24.06,-32.19,5.69,320.48,-85.36,-139.64
52.211464,-2.185273,96.1,8.24,3,80.75,26 / 27,12798310,2020-01-08 15:48:41:904,0.6726,0.912,10.7159,-0.0242,-0.0025,9.8066,0.0532,-0.006,-0.0182,-22.56,-32.87,5.88,321.06,-85.43,-139.48
52.211464,-2.185273,96.1,8.24,3,80.75,26 / 27,12798410,2020-01-08 15:48:42:004,-0.3338,0.2808,9.4151,0.0095,0.0075,9.8066,-0.0275,0.0367,0.0218,-23.5,-32.94,6.69,322.82,-85.4,-140.2
52.211464,-2.185273,96.1,8.24,3,80.75,26 / 27,12798510,2020-01-08 15:48:42:104,0.6513,1.291,9.7514,0.0035,-0.0163,9.8065,0.0547,0.1061,-0.1065,-22.44,-32.87,6.56,322.36,-85.34,-141.13
52.211464,-2.185273,96.1,8.24,3,80.75,26 / 27,12798609,2020-01-08 15:48:42:203,0.1248,-0.6211,10.0738,-0.004,-0.0286,9.8066,-0.0092,-0.0534,0.022,-23.75,-32.5,7.44,320.98,-85.22,-141.33
52.211464,-2.185273,96.1,8.24,3,80.75,26 / 27,12798710,2020-01-08 15:48:42:304,0.832,2.7324,10.8096,-0.0154,-0.0259,9.8066,-0.015,0.1474,0.066,-22.62,-33,6.69,322.91,-85.17,-139.92
52.211464,-2.185273,96.1,8.24,3,80.75,26 / 27,12798810,2020-01-08 15:48:42:404,0.1655,0.4055,9.7311,0.0307,0.0523,9.8064,-0.1085,-0.41,0.3608,-22.94,-33.19,6.94,325.08,-85.02,-137.84
52.211464,-2.185273,96.1,8.24,3,80.75,26 / 27,12798910,2020-01-08 15:48:42:504,-0.7367,-2.0674,9.44,-0.007,0.0039,9.8066,-0.0064,-0.254,0.1001,-23.69,-32.69,7,323.52,-85.06,-138.76
52.211464,-2.185273,96.1,8.24,3,80.75,26 / 27,12799010,2020-01-08 15:48:42:604,-0.1161,0.5764,8.9516,0.0162,0.0254,9.8066,-0.0931,-0.2488,0.1206,-23.44,-33.69,6.38,323.21,-85.06,-137.07
52.211464,-2.185273,96.1,8.24,3,80.75,26 / 27,12799110,2020-01-08 15:48:42:704,-0.6981,-1.9433,10.1856,-0.0175,0.0482,9.8065,0.0063,-0.2841,0.2609,-23.87,-32.69,6.5,325.3,-85.23,-137.28
52.211464,-2.185273,96.1,8.24,3,80.75,26 / 27,12799210,2020-01-08 15:48:42:804,0.3892,2.9353,9.6242,0.0014,0.0432,9.8065,-0.0177,-0.179,0.201,-23.37,-32.87,6.75,326.6,-85.23,-136.63
52.211464,-2.185273,96.1,8.24,3,80.75,26 / 27,12799310,2020-01-08 15:48:42:904,1.0254,1.6693,10.3333,0.0051,0.0197,9.8066,0.0992,0.0374,0.0066,-24.06,-32.94,6.19,324.3,-85.11,-135.83
52.211464,-2.185273,96.1,8.24,3,80.75,26 / 27,12799410,2020-01-08 15:48:43:004,-0.885,-0.9269,8.5571,-0.0055,0.0122,9.8065,0.1155,-0.0462,0.1107,-23.31,-32.81,6.5,327.06,-84.83,-135.9
52.211464,-2.185273,96.1,8.24,3,80.75,26 / 27,12799510,2020-01-08 15:48:43:104,-0.1902,0.154,10.4148,-0.0306,-0.0297,9.8065,0.0959,0.0678,-0.1773,-23.75,-32.62,6.63,326.97,-84.76,-135.41
52.211464,-2.185273,96.1,8.24,3,80.75,26 / 27,12799609,2020-01-08 15:48:43:203,0.7867,1.4712,9.3285,-0.044,-0.0128,9.8065,0.0472,-0.0093,-0.0924,-23.19,-32.69,6.25,322.48,-84.91,-137.73
52.211464,-2.185273,96.1,8.24,3,80.75,26 / 27,12799710,2020-01-08 15:48:43:304,0.3576,0.4366,10.5624,-0.056,0.0007,9.8065,0.0631,0.0088,0.0756,-23.44,-32.19,5.94,327.94,-85.1,-133.08
52.211464,-2.185273,96.1,8.24,3,80.75,26 / 27,12799810,2020-01-08 15:48:43:404,-0.6601,-0.2336,10.6139,0.0024,0.0002,9.8066,-0.0071,-0.0647,0.0106,-23.75,-31,6.5,332.7,-84.93,-130.58
52.211464,-2.185273,96.1,8.24,3,80.75,26 / 27,12799910,2020-01-08 15:48:43:504,0.6493,-0.6635,10.0843,-0.0086,0.0276,9.8065,0.1926,-0.1258,0.0275,-24.06,-31.44,6.63,331.24,-85.07,-131.99
52.211464,-2.185273,96.1,8.24,3,80.75,26 / 27,12800010,2020-01-08 15:48:43:604,-1.9485,-0.3547,9.653,-0.0113,-0.0261,9.8065,0.2369,0.1382,-0.0585,-25.12,-31.06,6.88,327.71,-84.82,-134.52
52.211464,-2.185273,96.1,8.24,3,80.75,26 / 27,12800109,2020-01-08 15:48:43:703,1.1242,6.4047,10.4593,-0.0343,0.0171,9.8065,0.2674,0.1294,-0.5017,-24.94,-31.62,6.69,324.28,-84.68,-137.41
52.211464,-2.185273,96.1,8.24,3,80.75,26 / 27,12800210,2020-01-08 15:48:43:804,-1.6373,3.5608,6.739,0.0426,-0.1081,9.806,-0.2373,0.5827,-0.6179,-24.75,-32.25,5.88,310.69,-85.04,-148.02
52.211464,-2.185273,96.1,8.24,3,80.75,26 / 26,12800311,2020-01-08 15:48:43:905,1.7398,3.984,9.0155,-0.0151,-0.0151,9.8065,0.0372,0.4323,-0.0587,-24.12,-32.44,5.81,310.49,-84.9,-148.41
52.211464,-2.185273,96.1,8.24,3,80.75,26 / 26,12800410,2020-01-08 15:48:44:004,0.8676,-0.7941,6.8796,-0.0618,-0.0219,9.8063,-0.1004,0.0151,0.2747,-24.37,-33,5.13,315.27,-84.89,-141.53
52.211464,-2.185273,96.1,8.24,3,80.75,26 / 26,12800510,2020-01-08 15:48:44:104,-1.3568,3.9612,7.8185,-0.053,-0.1043,9.8059,-0.2992,0.3369,-0.2046,-24.75,-33.81,5.31,325.28,-84.76,-131.94
52.211464,-2.185273,96.1,8.24,3,80.75,26 / 26,12800610,2020-01-08 15:48:44:204,-0.415,0.7192,11.3637,-0.0983,0.0132,9.8061,0.2754,-0.4544,-0.0216,-25.37,-32.69,4.81,332.16,-85.18,-126.15
52.211464,-2.185273,96.1,8.24,3,80.75,26 / 26,12800710,2020-01-08 15:48:44:304,0.5088,-1.6516,12.2646,-0.0241,0.0378,9.8065,0.313,-0.1973,0.2076,-24.94,-33.19,5.31,335.75,-85.52,-123.11
52.211464,-2.185273,96.1,8.24,3,80.75,26 / 26,12800810,2020-01-08 15:48:44:404,2.2572,0.9705,8.9833,0.1419,-0.0443,9.8055,0.0138,0.0926,0.0176,-24.62,-33.5,6.44,324.03,-84.21,-134.95
52.211464,-2.185273,96.1,8.24,3,80.75,26 / 26,12800909,2020-01-08 15:48:44:503,1.0558,-1.0118,8.2452,0.0889,-0.0259,9.8061,-0.1062,0.0494,0.1586,-25,-33.5,7.13,323.66,-83.67,-137.04
52.211464,-2.185273,96.1,8.24,3,80.75,26 / 26,12801010,2020-01-08 15:48:44:604,2.2621,-0.3871,9.5913,-0.0211,0.0084,9.8065,-0.1662,-0.0993,0.1567,-25.25,-32.56,7.25,326.58,-83.42,-134.27
52.211464,-2.185273,96.1,8.24,3,80.75,26 / 26,12801110,2020-01-08 15:48:44:704,-1.1111,-1.5767,8.9892,-0.0576,-0.0032,9.8065,-0.155,0.0485,-0.0348,-25.81,-33.37,6.5,331.39,-83.68,-129.82
52.211464,-2.185273,96.1,8.24,3,80.75,26 / 26,12801210,2020-01-08 15:48:44:804,0.7891,-1.1585,9.8781,0.0415,0.0013,9.8066,-0.0594,0.0461,-0.0561,-25.25,-32.81,6.81,335.97,-84.16,-126.54
52.211464,-2.185273,96.1,8.24,3,80.75,26 / 27,12801310,2020-01-08 15:48:44:904,0.8766,-0.4683,8.966,0.0264,-0.0091,9.8065,-0.1161,-0.1165,0.0393,-24.81,-33.12,7.88,333.52,-84.22,-130.87
52.211464,-2.185273,96.1,8.24,3,80.75,26 / 27,12801411,2020-01-08 15:48:45:005,4.1804,1.8713,10.2859,0.0628,0.0309,9.8063,0.0206,-0.2222,0.2364,-25.25,-32.25,7.69,331.77,-83.92,-132.33
52.211464,-2.185273,96.1,8.24,3,80.75,26 / 27,12801509,2020-01-08 15:48:45:103,-0.5199,-3.9844,10.9729,-0.026,-0.0252,9.8065,-0.1256,0.2751,-0.1947,-24.56,-33.12,7.63,328.65,-83.68,-134.8
52.211464,-2.185273,96.1,8.24,3,80.75,26 / 27,12801610,2020-01-08 15:48:45:204,0.6645,2.4192,9.4464,0.017,-0.0289,9.8065,-0.3274,0.4674,-0.1334,-24.25,-32.5,7.75,330.2,-83.75,-134.16
52.211464,-2.185273,96.1,8.24,3,80.75,26 / 27,12801710,2020-01-08 15:48:45:304,0.9652,-2.0082,11.4752,0.0099,0.0141,9.8066,0.1017,-0.1842,0.0869,-23.37,-33.25,7.56,333.74,-84.07,-131.76
52.211464,-2.185273,96.1,8.24,3,80.75,26 / 27,12801810,2020-01-08 15:48:45:404,0.9023,-0.4095,10.6448,0.0448,-0.0522,9.8064,-0.0485,0.1262,-0.155,-24.19,-32.62,7.44,328.65,-83.83,-133.22
52.211464,-2.185273,96.1,8.24,3,80.75,26 / 27,12801910,2020-01-08 15:48:45:504,1.3303,-2.3448,10.5867,-0.0138,0.0315,9.8065,0.1706,-0.4498,0.2023,-23.81,-31.87,7.75,331.05,-84.17,-133.68
52.211464,-2.185273,96.1,8.24,3,80.75,26 / 27,12802010,2020-01-08 15:48:45:604,0.3507,-0.8445,11.0049,-0.0123,0.0035,9.8066,0.1048,-0.0873,0.1534,-24.69,-31.75,7.13,327.6,-83.83,-133.82
52.211464,-2.185273,96.1,8.24,3,80.75,26 / 27,12802110,2020-01-08 15:48:45:704,-0.628,4.4175,8.2708,-0.0169,0.0524,9.8065,0.1124,-0.4896,0.3277,-23.62,-33.06,7.06,328.91,-83.59,-132.82
52.211464,-2.185273,96.1,8.24,3,80.75,26 / 27,12802210,2020-01-08 15:48:45:804,0.2474,0.3983,10.5779,-0.0384,0.0367,9.8064,0.1881,-0.5346,0.2741,-24.25,-32.87,6.31,325.67,-83.68,-133.44
52.211464,-2.185273,96.1,8.24,3,80.75,27 / 27,12802310,2020-01-08 15:48:45:904,1.4388,7.0671,8.0145,-0.0227,0.0753,9.8063,0.0366,-0.2408,0.1556,-24,-33.06,6.31,326.46,-83.51,-132.62
52.211464,-2.185273,96.1,8.24,3,80.75,27 / 27,12802410,2020-01-08 15:48:46:004,-0.0977,-2.3973,9.4611,-0.009,0.0748,9.8063,0.0623,-0.7298,0.3931,-24.69,-32.69,7,327.44,-83.82,-133.82
52.211464,-2.185273,96.1,8.24,3,80.75,27 / 27,12802510,2020-01-08 15:48:46:104,1.6118,7.3146,7.8751,0.019,0.0118,9.8066,-0.1771,0.4023,-0.235,-24.56,-32.94,6.5,326.5,-83.67,-134.53
52.211464,-2.185273,96.1,8.24,3,80.75,27 / 27,12802610,2020-01-08 15:48:46:204,0.2956,-1.5646,9.4517,0.0045,0.1113,9.806,-0.0824,-0.2514,0.1722,-24.19,-32.75,7.25,325.71,-84.04,-135.97
52.211464,-2.185273,96.1,8.24,3,80.75,27 / 27,12802710,2020-01-08 15:48:46:304,-0.544,-3.6343,11.1614,0.0253,-0.0679,9.8064,-0.0265,0.7766,-0.5242,-24.12,-32.69,7,324.89,-84.21,-136.83
52.211464,-2.185273,96.1,8.24,3,80.75,27 / 27,12802810,2020-01-08 15:48:46:404,-1.6335,-3.4244,8.987,0.0471,0.0122,9.8065,-0.1618,0.313,-0.1372,-23.75,-32.44,6.94,322.71,-84.11,-138.83
52.211464,-2.185273,96.1,8.24,3,80.75,27 / 27,12802910,2020-01-08 15:48:46:504,0.2879,-1.7185,11.1114,-0.0143,-0.0795,9.8063,0.0609,0.7388,-0.428,-22.81,-32.56,6.63,323.32,-84.41,-138.89
52.211464,-2.185273,96.1,8.24,3,80.75,27 / 27,12803009,2020-01-08 15:48:46:603,0.9883,6.8924,9.5543,0.0332,-0.0342,9.8064,-0.1395,0.8969,-0.3304,-22.62,-32.69,6.44,321.13,-84.17,-138.27
52.211464,-2.185273,96.1,8.24,3,80.75,27 / 27,12803110,2020-01-08 15:48:46:704,-0.4712,0.2079,9.6647,-0.0047,-0.0022,9.8066,-0.0054,0.1424,0.0032,-23.25,-33.25,5.56,320.64,-84.43,-138.94
52.211464,-2.185273,96.1,8.24,3,80.75,27 / 27,12803210,2020-01-08 15:48:46:804,0.2598,4.0533,8.6968,0.0122,-0.042,9.8065,-0.075,0.2934,-0.2614,-23.25,-32.87,5.25,316.78,-84.47,-140.04
52.211464,-2.185273,96.1,8.24,3,80.75,27 / 27,12803310,2020-01-08 15:48:46:904,-0.662,3.6032,9.2118,0.0074,-0.019,9.8066,0.0809,0.3171,-0.0398,-23.12,-33.06,5,314.54,-84.59,-142.18
52.211464,-2.185273,96.1,8.24,3,80.75,27 / 27,12803410,2020-01-08 15:48:47:004,-1.502,5.4065,11.4462,-0.0258,0.0045,9.8066,0.041,0.4535,0.0092,-23.56,-33.31,4.38,312.94,-84.44,-140.86
52.211464,-2.185273,96.1,8.24,3,80.75,27 / 27,12803510,2020-01-08 15:48:47:104,-1.2217,-0.8568,9.7833,-0.05,-0.0845,9.8061,0.1582,0.7151,-0.1724,-23.87,-33.37,3.88,320.72,-84.24,-133.65
52.211464,-2.185273,96.1,8.24,3,80.75,27 / 27,12803610,2020-01-08 15:48:47:204,1.3987,11.5378,9.702,-0.0344,-0.1459,9.8055,0.2305,1.3586,-0.6586,-23.31,-33.12,3.19,317.66,-84.04,-133.9
52.211464,-2.185273,96.1,8.24,3,80.75,27 / 27,12803709,2020-01-08 15:48:47:303,-1.2544,-0.8047,9.8038,-0.0167,-0.0464,9.8064,0.0591,0.1998,0.0005,-23.94,-32.87,3.19,315.06,-84.26,-136.37
52.211464,-2.185273,96.1,8.24,3,80.75,27 / 27,12803810,2020-01-08 15:48:47:404,-1.5839,0.9012,9.5946,-0.0161,-0.0664,9.8063,0.0856,-0.4406,0.3081,-23.94,-33.75,3.25,311.96,-84.5,-139.27
52.211464,-2.185273,96.1,8.24,3,80.75,27 / 27,12803910,2020-01-08 15:48:47:504,-1.6741,-3.8054,11.0067,-0.0314,0.0538,9.8064,0.1837,-0.2234,0.3747,-23.87,-33.81,2.88,315.15,-84.08,-135.93
52.211464,-2.185273,96.1,8.24,3,80.75,27 / 27,12804009,2020-01-08 15:48:47:603,2.2063,5.0612,12.0379,-0.0321,-0.0366,9.8065,0.3674,0.4332,-0.1973,-23,-34.25,2,311.93,-83.85,-136.11
52.211464,-2.185273,96.1,8.24,3,80.75,27 / 27,12804110,2020-01-08 15:48:47:704,-0.8471,7.6645,7.5231,-0.0554,0.0735,9.8062,0.1116,-0.2004,0.46,-22.94,-33.87,1.44,305.72,-83.75,-139.08
52.211464,-2.185273,96.1,8.24,3,80.75,27 / 27,12804210,2020-01-08 15:48:47:804,0.5194,7.9606,11.894,-0.0489,-0.067,9.8062,0.1696,0.3078,-0.178,-22.75,-33.5,0.25,303.49,-83.97,-139.11
52.211464,-2.185273,96.1,8.24,3,80.75,27 / 27,12804310,2020-01-08 15:48:47:904,-0.7169,4.7852,10.3666,0.0479,0.0882,9.8061,-0.2555,-0.4028,0.3984,-22.31,-33.87,0.06,301.27,-83.96,-140.56
52.211464,-2.185273,96.1,8.24,3,80.75,27 / 27,12804410,2020-01-08 15:48:48:004,-2.1342,-4.7486,7.8372,0.0282,0.0481,9.8064,-0.1788,0.0826,0.3655,-22.12,-34.25,-0.44,296.87,-83.85,-144.47
52.211464,-2.185273,96.1,8.24,3,80.75,27 / 27,12804509,2020-01-08 15:48:48:103,0.3466,4.6205,10.1184,0.0224,0.1177,9.8059,-0.0584,-0.0946,0.2508,-22.06,-33.56,-1.12,288.93,-83.75,-149.17
52.211464,-2.185273,96.1,8.24,3,80.75,27 / 27,12804610,2020-01-08 15:48:48:204,-1.0177,-2.2953,9.0602,-0.0011,0.077,9.8063,-0.2085,-0.2711,0.396,-20.81,-34.06,-2.06,286.03,-83.82,-148.79
52.211464,-2.185273,96.1,8.24,3,80.75,27 / 27,12804710,2020-01-08 15:48:48:304,-3.3497,8.069,11.0195,0.0076,0.0552,9.8065,-0.1096,0.1066,0.1001,-20.5,-33.69,-2.81,285.55,-83.79,-145.69
52.211464,-2.185273,96.1,8.24,3,80.75,27 / 27,12804809,2020-01-08 15:48:48:403,-1.2123,-2.427,9.6277,-0.008,0.1167,9.8059,-0.0375,-0.3891,0.5617,-20.44,-34.12,-3.19,283.29,-83.87,-147.98
52.211464,-2.185273,96.1,8.24,3,80.75,27 / 27,12804911,2020-01-08 15:48:48:505,-4.1373,8.2571,8.8748,-0.0371,0.0237,9.8065,0.1488,0.9028,-0.2079,-19.37,-34.69,-3.62,280.99,-83.7,-145.8
52.211464,-2.185273,96.1,8.24,3,80.75,27 / 27,12805010,2020-01-08 15:48:48:604,-2.9984,8.4105,8.4803,-0.034,0.0634,9.8063,-0.0863,0.0108,0.0062,-19.37,-34.37,-3.87,278.34,-84.05,-149.33
52.211464,-2.185273,96.1,8.24,3,80.75,27 / 27,12805110,2020-01-08 15:48:48:704,-3.8623,9.8059,10.9954,0.0546,-0.0905,9.806,0.1241,1.1118,-0.6879,-18.31,-34.75,-5.31,276.74,-83.76,-145.96
52.211464,-2.185273,96.1,8.24,3,80.75,27 / 27,12805211,2020-01-08 15:48:48:805,-0.984,2.5926,9.3552,0.0003,0.0848,9.8063,-0.0313,0.4805,0.1225,-17.81,-34.06,-4.75,272.95,-84.02,-150.53
52.21157,-2.1842,95.24,8.06,3,38.14,26 / 27,12805310,2020-01-08 15:48:48:904,-0.6111,-0.1422,9.1206,-0.0114,-0.0262,9.8065,0.122,0.9714,-0.227,-17.19,-34.62,-5.87,268.91,-83.93,-149.74
52.21157,-2.1842,95.24,8.06,3,38.14,26 / 27,12805410,2020-01-08 15:48:49:004,-1.4607,3.144,9.4933,0.037,-0.0233,9.8065,-0.0925,0.7793,-0.4086,-16.87,-35,-5.81,269.67,-84.06,-149.23
52.21157,-2.1842,95.24,8.06,3,38.14,26 / 27,12805510,2020-01-08 15:48:49:104,-2.0198,0.9858,10.2604,0.0286,-0.0159,9.8066,-0.0115,0.4366,-0.1893,-16.12,-35.37,-6.75,263.3,-84.31,-151.66
52.21157,-2.1842,95.24,8.06,3,38.14,26 / 27,12805610,2020-01-08 15:48:49:204,-3.4673,1.6221,9.4649,0.0023,0.0263,9.8065,-0.101,0.7165,-0.0359,-15.81,-35.25,-8.12,259.87,-84.23,-152.38
52.21157,-2.1842,95.24,8.06,3,38.14,26 / 27,12805710,2020-01-08 15:48:49:304,-0.6633,3.0563,11.375,0.0189,0.0078,9.8065,0.0885,0.5503,-0.1378,-15,-35.69,-8.12,257.33,-84.21,-152.57
52.21157,-2.1842,95.24,8.06,3,38.14,26 / 27,12805810,2020-01-08 15:48:49:404,-2.4447,1.659,8.8233,0.0451,0.0167,9.8065,-0.1186,0.3918,-0.2498,-14.12,-35.19,-8.25,253.12,-84.17,-154.98
52.21157,-2.1842,95.24,8.06,3,38.14,26 / 27,12805909,2020-01-08 15:48:49:503,-1.6962,1.1051,9.8492,0.0127,-0.0231,9.8066,0.0158,0.558,-0.1878,-12.62,-35.31,-8.44,248.55,-84.49,-158.07
52.21157,-2.1842,95.24,8.06,3,38.14,26 / 27,12806010,2020-01-08 15:48:49:604,-3.4873,3.6172,10.6638,-0.0234,-0.007,9.8066,0.1782,0.5624,-0.0132,-12.44,-35.62,-8.94,245.17,-84.61,-156.22
52.21157,-2.1842,95.24,8.06,3,38.14,26 / 27,12806110,2020-01-08 15:48:49:704,-2.614,-1.0358,8.6073,0.0037,0.0197,9.8066,-0.0144,0.3357,0.0797,-11.94,-35.5,-9.19,244.6,-84.35,-156.61
52.21157,-2.1842,95.24,8.06,3,38.14,26 / 27,12806209,2020-01-08 15:48:49:803,-2.2231,0.7999,9.8308,-0.0137,-0.047,9.8065,0.0921,0.2927,-0.1176,-11.5,-35.75,-9,241.1,-84.35,-157.07
52.21157,-2.1842,95.24,8.06,3,38.14,26 / 27,12806310,2020-01-08 15:48:49:904,-4.7774,0.677,9.4274,0.0024,0.0132,9.8066,-0.038,0.3685,-0.0716,-10.25,-35.75,-9.19,236.44,-84.39,-159.07
52.21157,-2.1842,95.24,8.06,3,38.14,26 / 27,12806410,2020-01-08 15:48:50:004,-1.5248,1.1373,10.2872,-0.0021,0.022,9.8066,0.094,0.2844,0.0166,-9.56,-36.69,-9.37,235.5,-84.25,-159.46
52.21157,-2.1842,95.24,8.06,3,38.14,26 / 27,12806510,2020-01-08 15:48:50:104,-1.3392,2.2937,9.9446,0.0145,0.0039,9.8066,-0.0215,0.4006,-0.0756,-9.94,-35.62,-9.06,235.15,-84.06,-159.82
52.21157,-2.1842,95.24,8.06,3,38.14,26 / 27,12806610,2020-01-08 15:48:50:204,-1.8343,3.1684,10.7805,-0.0166,0.0141,9.8066,0.0667,0.6247,-0.0553,-8.25,-36.31,-10.25,225.85,-83.87,-160.49
52.21157,-2.1842,95.24,8.06,3,38.14,26 / 27,12806710,2020-01-08 15:48:50:304,0.5658,-3.3401,8.7103,0.0147,0.0091,9.8065,-0.0085,0.3815,0.0644,-8.69,-35.75,-9.19,229.99,-83.67,-161.31
52.21157,-2.1842,95.24,8.06,3,38.14,26 / 27,12806810,2020-01-08 15:48:50:404,-0.3973,2.7712,10.6817,0.0492,-0.1293,9.8056,0.435,0.9253,-0.2797,-7.94,-36.06,-8.81,230,-83.65,-157.08
52.21157,-2.1842,95.24,8.06,3,38.14,26 / 27,12806909,2020-01-08 15:48:50:503,3.1357,-3.0234,7.1647,-0.0201,0.066,9.8063,-0.3298,-0.1421,0.3569,-7.62,-36.81,-9.94,224.48,-83.14,-160.34
52.21157,-2.1842,95.24,8.06,3,38.14,26 / 27,12807010,2020-01-08 15:48:50:604,-1.5015,-0.1658,8.3168,0.0441,-0.023,9.8064,-0.1886,0.193,-0.1481,-7.31,-36.37,-9.37,224.46,-83.17,-158.31
52.21157,-2.1842,95.24,8.06,3,38.14,26 / 27,12807110,2020-01-08 15:48:50:704,-3.0637,1.8787,11.9006,0.0012,0.0472,9.8065,-0.1003,-0.0203,0.0354,-6.69,-36.44,-9.87,223.11,-83.31,-158.46
52.21157,-2.1842,95.24,8.06,3,38.14,26 / 27,12807210,2020-01-08 15:48:50:804,2.9151,-1.6919,9.2928,-0.0327,0.0788,9.8062,-0.2199,-0.2695,0.3144,-6.87,-36.06,-9.94,222.03,-83.14,-159.48
52.21157,-2.1842,95.24,8.06,3,38.14,27 / 27,12807310,2020-01-08 15:48:50:904,-2.2567,1.1273,10.1715,0.0001,0.0263,9.8066,-0.0906,0.2458,-0.0557,-5.94,-36.69,-9.19,221.39,-83.15,-156.81
52.21157,-2.1842,95.24,8.06,3,38.14,27 / 27,12807410,2020-01-08 15:48:51:004,0.1017,-0.1061,8.2171,-0.0266,0.0353,9.8065,-0.2287,0.1117,0.1108,-6.62,-36.06,-9.75,223.16,-83.02,-157.8
52.21157,-2.1842,95.24,8.06,3,38.14,27 / 27,12807510,2020-01-08 15:48:51:104,0.32,-0.4307,11.6379,-0.0104,0.0189,9.8065,-0.0251,0.0433,-0.0553,-5.37,-36.69,-9.37,216.3,-83.09,-158.08
52.21157,-2.1842,95.24,8.06,3,38.14,27 / 27,12807610,2020-01-08 15:48:51:204,1.6939,-1.1593,9.4009,-0.0199,0.0406,9.8065,-0.0222,-0.2273,0.0813,-6.5,-36.44,-8.69,219.03,-83.21,-160.46
52.21157,-2.1842,95.24,8.06,3,38.14,27 / 27,12807710,2020-01-08 15:48:51:304,-4.5204,3.5525,8.7942,-0.0348,-0.007,9.8066,0.0286,-0.0184,0.0181,-4.94,-36.56,-9.06,214.18,-83.12,-161.03
52.21157,-2.1842,95.24,8.06,3,38.14,27 / 27,12807810,2020-01-08 15:48:51:404,1.8454,-2.3105,8.8014,-0.053,0.0364,9.8064,-0.0496,-0.278,0.146,-6.44,-36.25,-8.81,217.21,-83.18,-162.81
52.21157,-2.1842,95.24,8.06,3,38.14,27 / 27,12807910,2020-01-08 15:48:51:504,1.6599,0.9496,10.261,0.0312,-0.0157,9.8065,0.0211,0.2561,-0.1924,-4.75,-36.44,-9.5,212.56,-83.17,-163.71
52.21157,-2.1842,95.24,8.06,3,38.14,27 / 27,12808010,2020-01-08 15:48:51:604,0.3265,-1.6792,8.055,-0.0097,0.0397,9.8065,-0.2398,0.1064,0.1407,-6.19,-36.12,-9.19,217.37,-83.23,-162.7
52.21157,-2.1842,95.24,8.06,3,38.14,27 / 27,12808109,2020-01-08 15:48:51:703,0.8076,-1.7048,10.5039,0.0001,0.018,9.8065,-0.0919,0.2496,0.011,-5.56,-35.87,-9.87,218.2,-83.22,-159.89
52.21157,-2.1842,95.24,8.06,3,38.14,27 / 27,12808209,2020-01-08 15:48:51:803,-2.9122,0.4528,8.5585,0.0004,-0.0031,9.8066,-0.0528,0.4617,-0.2876,-5.37,-36.19,-9,215.49,-83.33,-160.08
52.21157,-2.1842,95.24,8.06,3,38.14,27 / 27,12808310,2020-01-08 15:48:51:904,2.8417,1.7605,8.8981,0.0376,0.0754,9.8062,-0.1481,0.0195,-0.0981,-4.87,-36.75,-9.44,212.56,-83.47,-163.93
52.21157,-2.1842,95.24,8.06,3,38.14,27 / 27,12808410,2020-01-08 15:48:52:004,-0.8862,0.4755,8.0504,0.0274,0.0542,9.8064,-0.2801,0.3197,0.0985,-4.81,-36.56,-9.19,210.09,-82.9,-166.25
52.21157,-2.1842,95.24,8.06,3,38.14,27 / 27,12808510,2020-01-08 15:48:52:104,-6.2501,0.4965,7.6253,-0.1315,0.0068,9.8057,0.1801,-0.6083,0.6608,-5.25,-36.25,-9.81,211.12,-82.98,-163.89
52.21157,-2.1842,95.24,8.06,3,38.14,27 / 27,12808610,2020-01-08 15:48:52:204,-1.2783,-2.2896,8.2114,0.0349,0.0079,9.8066,0.0738,-0.701,0.0616,-5.31,-36,-9.56,209.55,-82.93,-165.91
52.21157,-2.1842,95.24,8.06,3,38.14,27 / 27,12808709,2020-01-08 15:48:52:303,-7.768,0.2663,5.9333,-0.052,-0.0748,9.8062,0.1317,-0.2146,-0.0404,-5,-35.94,-10.19,209.29,-83.57,-167.26
52.21157,-2.1842,95.24,8.06,3,38.14,27 / 27,12808810,2020-01-08 15:48:52:404,2.3519,-1.2515,9.4181,-0.1017,-0.0532,9.8059,0.1383,-0.3826,0.3862,-5.62,-36.44,-10.12,212.58,-83.48,-167.66
52.21157,-2.1842,95.24,8.06,3,38.14,27 / 27,12808909,2020-01-08 15:48:52:503,-3.917,2.5472,8.8194,0.0312,0.1055,9.806,-0.369,0.467,-0.2161,-5.81,-36.62,-9.81,214.36,-83.63,-165.3
52.21157,-2.1842,95.24,8.06,3,38.14,27 / 27,12809009,2020-01-08 15:48:52:603,0.5903,-3.4048,6.3015,-0.0282,0.1075,9.8059,-0.5391,-0.275,0.1054,-5.37,-36.12,-9.69,207.02,-83.1,-169.57
52.21157,-2.1842,95.24,8.06,3,38.14,27 / 27,12809110,2020-01-08 15:48:52:704,2.2839,-1.7382,10.1286,0.0311,0.0145,9.8065,0.1108,0.4115,-0.242,-5.12,-36,-9.75,208.37,-83.29,-168.04
52.21157,-2.1842,95.24,8.06,3,38.14,27 / 27,12809210,2020-01-08 15:48:52:804,-0.847,-0.9891,8.4769,-0.0095,0.0572,9.8064,-0.0752,0.3546,0.013,-4.75,-36.12,-9.56,208.5,-82.87,-167.24
52.21157,-2.1842,95.24,8.06,3,38.14,27 / 27,12809310,2020-01-08 15:48:52:904,3.2146,-2.2649,11.1482,0.0396,-0.0015,9.8065,0.0091,0.1206,-0.0213,-6.44,-35.44,-9.19,214.55,-82.74,-165.92
52.21157,-2.1842,95.24,8.06,3,38.14,27 / 27,12809410,2020-01-08 15:48:53:004,-2.4302,-0.3729,7.844,0.0627,-0.0088,9.8064,-0.2251,0.4157,-0.2304,-5.19,-36.31,-9.37,211.23,-82.84,-164.93
52.21157,-2.1842,95.24,8.06,3,38.14,27 / 27,12809510,2020-01-08 15:48:53:104,2.349,-2.5349,10.9006,-0.0055,0.0173,9.8066,-0.0676,-0.1008,0.132,-6.37,-36.44,-9.44,215.79,-82.95,-164.25
52.21157,-2.1842,95.24,8.06,3,38.14,27 / 27,12809610,2020-01-08 15:48:53:204,-2.277,0.9838,8.9718,0.0491,0.0425,9.8064,-0.0745,0.2982,-0.181,-6.12,-36.69,-9.37,215.64,-82.81,-163.76
52.21157,-2.1842,95.24,8.06,3,38.14,27 / 27,12809710,2020-01-08 15:48:53:304,-2.0464,-0.043,8.3802,-0.011,-0.0234,9.8066,0.1877,-0.4474,0.0236,-5.94,-36,-9.37,215.44,-82.97,-164.76
52.21157,-2.1842,95.24,8.06,3,38.14,27 / 27,12809810,2020-01-08 15:48:53:404,2.5628,0.7822,11.9066,-0.0569,-0.0289,9.8064,0.2087,-0.3588,0.213,-6.12,-36,-8.69,213.89,-82.99,-166.88
52.21157,-2.1842,95.24,8.06,3,38.14,27 / 27,12809911,2020-01-08 15:48:53:505,-1.4668,-0.2124,8.4451,-0.0264,0.0121,9.8065,-0.1091,-0.0974,0.1233,-4.81,-36.06,-9.37,210.5,-82.91,-166.06
52.21157,-2.1842,95.24,8.06,3,38.14,27 / 27,12810010,2020-01-08 15:48:53:604,2.7084,-2.5443,9.9893,-0.027,-0.0227,9.8066,0.0534,-0.5885,0.2522,-6.19,-35.94,-9.25,214.29,-83.07,-166.48
52.21157,-2.1842,95.24,8.06,3,38.14,27 / 27,12810110,2020-01-08 15:48:53:704,-1.6075,0.8915,11.2247,-0.0105,0.0094,9.8066,0.0353,0.0525,-0.0147,-5.25,-35.5,-9.62,210.28,-83.08,-165.48
52.21157,-2.1842,95.24,8.06,3,38.14,27 / 27,12810211,2020-01-08 15:48:53:805,1.5129,0.1527,10.1675,-0.0272,0.0159,9.8065,0.1415,-0.0993,0.1428,-6,-36.25,-9.81,213.61,-83.01,-165.52
52.21157,-2.1842,95.24,8.06,3,38.14,26 / 27,12810310,2020-01-08 15:48:53:904,2.054,-2.7949,7.8774,0.0047,-0.0499,9.8065,0.2335,0.0724,-0.1752,-6.19,-35.56,-10.06,212.7,-82.75,-166.3
52.21157,-2.1842,95.24,8.06,3,38.14,26 / 27,12810410,2020-01-08 15:48:54:004,-2.611,-0.754,10.3471,0.0071,-0.0172,9.8066,-0.0432,0.149,-0.0109,-5.31,-35.87,-9.37,209.1,-82.81,-167.84
52.21157,-2.1842,95.24,8.06,3,38.14,26 / 27,12810509,2020-01-08 15:48:54:103,-1.877,0.3878,10.3163,-0.0329,-0.0159,9.8065,0.1411,-0.3812,0.2614,-4.94,-34.81,-10,208.74,-82.9,-167.27
52.21157,-2.1842,95.24,8.06,3,38.14,26 / 27,12810610,2020-01-08 15:48:54:204,3.8274,-1.3697,11.9028,0.0086,0.0202,9.8066,0.0563,-0.2572,0.059,-5.12,-35.12,-9.87,209.66,-82.89,-166.01
52.21157,-2.1842,95.24,8.06,3,38.14,26 / 27,12810710,2020-01-08 15:48:54:304,0.2098,-0.5583,8.2202,-0.0154,0.0077,9.8066,-0.0575,0.0569,-0.0557,-5.06,-34.69,-9.37,209.54,-83.02,-167.93
52.21157,-2.1842,95.24,8.06,3,38.14,26 / 27,12810810,2020-01-08 15:48:54:404,-2.3164,3.4233,10.3872,-0.0635,-0.0287,9.8063,0.1462,0.1223,-0.0572,-4.25,-35.37,-8.44,204.39,-83.2,-171.28
52.21157,-2.1842,95.24,8.06,3,38.14,26 / 27,12810910,2020-01-08 15:48:54:504,-0.9502,-1.8886,7.2623,-0.0327,-0.0609,9.8063,0.224,-0.1065,0.0974,-6.06,-35.37,-8.81,211.28,-82.83,-170.49
52.21157,-2.1842,95.24,8.06,3,38.14,26 / 27,12811010,2020-01-08 15:48:54:604,0.1953,0.2339,11.2843,0.0253,-0.081,9.8062,0.2685,0.0259,-0.184,-6.25,-34.75,-9.44,212.96,-83.18,-168.82
52.21157,-2.1842,95.24,8.06,3,38.14,26 / 27,12811110,2020-01-08 15:48:54:704,3.3548,-2.909,10.3929,0.0312,0.0237,9.8065,-0.1754,0.4964,-0.2505,-6.94,-34.81,-9.37,215.7,-83.14,-169.99
52.21157,-2.1842,95.24,8.06,3,38.14,26 / 27,12811210,2020-01-08 15:48:54:804,-2.8102,-0.4128,7.7189,0.0288,0.0201,9.8066,0.0309,0.6788,-0.4072,-6.81,-35.81,-8.81,212.15,-82.57,-173.36
52.21157,-2.1842,95.24,8.06,3,38.14,27 / 27,12811310,2020-01-08 15:48:54:904,2.8263,-0.3452,8.7012,0.0302,0.1062,9.8059,-0.0849,0.0388,0.0709,-5.56,-35.81,-9.19,204.61,-81.54,-177.53
