GPS LATITUDE (degrees), GPS LONGITUDE (degrees), GPS ALTITUDE (m), GPS SPEED (Kmh), GPS ACCURACY (m), GPS ORIENTATION (Â°),GPS SATELLITES IN RANGE, TIME SINCE START (ms), DATE (YYYY-MO-DD HH-MI-SS_SSS), ACCELEROMETER X (m/s²) , ACCELEROMETER Y (m/s²), ACCELEROMETER Z (m/s²), GRAVITY X (m/s²), GRAVITY Y (m/s²), GRAVITY Z (m/s²), GYROSCOPE Yaw (rad/s), GYROSCOPE Pitch (rad/s), GYROSCOPE Roll (rad/s), MAGNETIC FIELD X (Î¼T), MAGNETIC FIELD Y (Î¼T), MAGNETIC FIELD Z (Î¼T), ORIENTATION (Yaw) (Â°), ORIENTATION (Pitch) (Â°), ORIENTATION (Roll ) (Â°)
52.20372,-2.191775,122.76,4.82,2,138.98,24 / 24,14011910,2020-01-08 16:08:55:504,-1.162,-0.4942,12.5316,0.0243,-0.0803,9.8063,-0.0962,0.0571,-0.099,-13.12,-31.94,23.19,0.27,-80.26,-150.31
52.20372,-2.191775,122.76,4.82,2,138.98,24 / 24,14012010,2020-01-08 16:08:55:604,0.8423,2.9356,6.3126,0.0673,-0.097,9.8059,-0.3021,0.2233,0.0251,-13.56,-31.75,22.63,355.83,-79.74,-151.89
52.20372,-2.191775,122.76,4.82,2,138.98,24 / 24,14012110,2020-01-08 16:08:55:704,0.4584,0.51,11.1696,-0.0193,0.0608,9.8064,0.2643,-0.2112,0.1082,-13.44,-32.44,23.19,0.15,-80.18,-150.41
52.20372,-2.191775,122.76,4.82,2,138.98,24 / 24,14012210,2020-01-08 16:08:55:804,1.1963,-2.5402,13.9268,0.0061,-0.0368,9.8066,0.1,0.0534,-0.0123,-13.06,-32.5,23.06,0.34,-79.94,-150.26
52.20372,-2.191775,122.76,4.82,2,138.98,24 / 24,14012310,2020-01-08 16:08:55:904,-0.1316,0.7906,9.5419,-0.0503,0.0608,9.8062,0.2251,-0.0827,-0.0084,-14.12,-31.5,23.31,358.19,-79.99,-150.09
52.20372,-2.191775,122.76,4.82,2,138.98,24 / 24,14012410,2020-01-08 16:08:56:004,-0.478,0.3432,8.8081,-0.0218,0.0404,9.8065,0.0598,-0.0606,0.0404,-14.37,-31.25,23.25,358.98,-80.18,-149.47
52.20372,-2.191775,122.76,4.82,2,138.98,24 / 24,14012510,2020-01-08 16:08:56:104,-0.4933,0.3246,10.0887,-0.0107,-0.0117,9.8066,0.0362,0.1532,-0.0751,-14.69,-29.94,22.63,356.65,-79.93,-149.55
52.20372,-2.191775,122.76,4.82,2,138.98,24 / 24,14012610,2020-01-08 16:08:56:204,-1.248,0.2444,9.4344,0.0243,-0.0298,9.8065,-0.1043,-0.0758,0.0231,-13.25,-30.69,22.81,1.2,-79.96,-149.58
52.20372,-2.191775,122.76,4.82,2,138.98,24 / 24,14012710,2020-01-08 16:08:56:304,1.5875,1.2873,9.4148,-0.0021,0.0233,9.8066,0.0486,-0.0429,0.0585,-12.75,-30.81,22.69,1.8,-80.08,-149.12
52.20372,-2.191775,122.76,4.82,2,138.98,24 / 24,14012809,2020-01-08 16:08:56:403,-0.9292,0.9426,8.5638,-0.0077,0.0412,9.8065,0.0627,-0.1458,0.1491,-13.81,-30.69,23,0.76,-80.32,-148.07
52.20372,-2.191775,122.76,4.82,2,138.98,24 / 24,14012910,2020-01-08 16:08:56:504,3.0836,0.681,12.0041,0.0173,-0.0717,9.8064,0.0387,0.3871,-0.2195,-13.69,-31.44,23,359.91,-80.06,-148.74
52.20372,-2.191775,122.76,4.82,2,138.98,24 / 24,14013010,2020-01-08 16:08:56:604,1.2931,1.8183,8.1044,0.0497,-0.0759,9.8062,-0.1949,0.2607,-0.1318,-13.56,-31.56,22.75,357.38,-79.58,-150.68
52.20372,-2.191775,122.76,4.82,2,138.98,24 / 24,14013110,2020-01-08 16:08:56:704,-1.8193,0.4925,9.1039,-0.0224,0.0008,9.8065,0.1062,0.3942,-0.0666,-14.06,-32,22.56,358.07,-79.86,-150.17
52.20372,-2.191775,122.76,4.82,2,138.98,24 / 24,14013210,2020-01-08 16:08:56:804,-0.5541,1.9474,9.9656,-0.0215,-0.0744,9.8063,-0.0936,0.594,-0.3336,-14.19,-32.5,22.94,358.61,-79.54,-149.74
52.20372,-2.191775,122.76,4.82,2,138.98,23 / 24,14013310,2020-01-08 16:08:56:904,1.1039,-0.4417,10.0109,-0.0379,-0.05,9.8064,-0.1387,0.1008,-0.228,-14.37,-31.75,22.75,357.8,-79.68,-150.37
52.20372,-2.191775,122.76,4.82,2,138.98,23 / 24,14013410,2020-01-08 16:08:57:004,0.4496,-0.1925,9.6555,0.0358,-0.0544,9.8064,-0.2525,0.468,-0.0183,-15.44,-31.5,22.94,356.36,-79.59,-149.73
52.20372,-2.191775,122.76,4.82,2,138.98,23 / 24,14013510,2020-01-08 16:08:57:104,0.4079,1.0582,10.6446,0.0121,0.0261,9.8065,0.1199,-0.1804,0.0714,-14.81,-31.87,22.75,357.15,-79.75,-149.1
52.20372,-2.191775,122.76,4.82,2,138.98,23 / 24,14013610,2020-01-08 16:08:57:204,-1.4629,0.6263,9.9815,0.0214,-0.0014,9.8066,0.1078,-0.1029,0.138,-15.62,-32,22.19,352.1,-79.54,-150.06
52.20372,-2.191775,122.76,4.82,2,138.98,23 / 24,14013710,2020-01-08 16:08:57:304,2.663,0.9508,8.6008,-0.0109,0.0368,9.8065,0.0607,0.0724,0.0301,-15.5,-31.75,21.81,354.45,-79.19,-149.92
52.20372,-2.191775,122.76,4.82,2,138.98,23 / 24,14013810,2020-01-08 16:08:57:404,-1.9473,-1.024,6.2822,0.0172,-0.0042,9.8065,-0.1062,-0.2757,0.1976,-15.62,-32.37,21.63,354.03,-79.36,-148.54
52.20372,-2.191775,122.76,4.82,2,138.98,23 / 24,14013909,2020-01-08 16:08:57:503,1.9035,-1.7251,10.5253,-0.1218,0.111,9.8052,0.7989,-0.03,-0.1876,-15.75,-31.37,21.44,356.71,-79.88,-145.26
52.20372,-2.191775,122.76,4.82,2,138.98,23 / 24,14014010,2020-01-08 16:08:57:604,4.5597,1.3691,15.2221,-0.0285,0.0206,9.8066,0.5013,0.2017,-0.3115,-14.56,-31.56,21.38,355.36,-79.5,-147.98
52.20372,-2.191775,122.76,4.82,2,138.98,23 / 24,14014109,2020-01-08 16:08:57:703,2.2707,1.4462,6.8342,-0.1006,-0.0115,9.8061,0.2132,0.7696,-0.4656,-14.94,-31.5,21.69,353.02,-79.39,-151.08
52.20372,-2.191775,122.76,4.82,2,138.98,23 / 24,14014210,2020-01-08 16:08:57:804,9.9564,-1.9252,11.9785,-0.0978,0.0045,9.8061,0.204,0.7879,-0.3375,-15.87,-31.75,22.5,350.23,-79.04,-152.66
52.20372,-2.191775,122.76,4.82,2,138.98,24 / 24,14014309,2020-01-08 16:08:57:903,-4.2459,-6.0883,13.0182,0.0468,-0.1502,9.8053,-0.2382,0.5396,-0.1288,-15.75,-31.75,23.13,352.88,-78.23,-150.49
52.20372,-2.191775,122.76,4.82,2,138.98,24 / 24,14014410,2020-01-08 16:08:58:004,8.2593,5.4708,7.6117,-0.0361,-0.1346,9.8056,-0.2858,1.2982,-0.7124,-16.56,-31.12,22.81,351.4,-78.22,-150.05
52.20372,-2.191775,122.76,4.82,2,138.98,24 / 24,14014510,2020-01-08 16:08:58:104,-5.2505,-4.5892,12.0121,0.0271,-0.008,9.8065,0.1279,-0.6288,0.3765,-16.12,-31.19,23.81,352.29,-78.51,-152.22
52.20372,-2.191775,122.76,4.82,2,138.98,24 / 24,14014610,2020-01-08 16:08:58:204,-2.9882,-0.8721,11.5583,-0.0353,-0.0964,9.8061,-0.0112,0.558,-0.3718,-15.94,-30.44,21.81,349.63,-78.21,-151.8
52.20372,-2.191775,122.76,4.82,2,138.98,24 / 24,14014710,2020-01-08 16:08:58:304,-4.2885,-5.1371,11.265,0.0018,0.0772,9.8063,0.1289,-0.8331,0.4899,-15.94,-30.87,22.25,348.33,-78.34,-152.73
52.20372,-2.191775,122.76,4.82,2,138.98,24 / 24,14014809,2020-01-08 16:08:58:403,0.5632,-0.6056,11.266,-0.0308,-0.0144,9.8066,0.1407,0.0323,0.0898,-15.75,-31,21.13,347.44,-78.51,-152.09
52.20372,-2.191775,122.76,4.82,2,138.98,24 / 24,14014909,2020-01-08 16:08:58:503,3.3513,1.2769,10.2828,0.1014,0.0432,9.8059,-0.4391,0.1347,0.5097,-16.81,-30.25,21.25,347,-78.43,-150.88
52.20372,-2.191775,122.76,4.82,2,138.98,24 / 24,14015010,2020-01-08 16:08:58:604,5.8512,2.8127,11.0151,-0.0338,-0.1004,9.806,-0.7792,0.6021,-0.3044,-16.25,-31.19,20.5,348.27,-78.34,-151.42
52.20372,-2.191775,122.76,4.82,2,138.98,24 / 24,14015110,2020-01-08 16:08:58:704,-0.846,-1.4663,14.7664,0.0535,-0.0722,9.8062,0.1237,-0.418,0.0708,-16.87,-30.25,20.94,345.43,-78.3,-152.04
52.20372,-2.191775,122.76,4.82,2,138.98,24 / 24,14015210,2020-01-08 16:08:58:804,1.6458,-5.9648,12.9657,0.0494,-0.0693,9.8062,-0.0372,-0.0932,-0.0308,-16.62,-30.56,20.94,346.26,-78.26,-151.29
52.20372,-2.191775,122.76,4.82,2,138.98,23 / 24,14015310,2020-01-08 16:08:58:904,6.7465,5.8799,6.105,-0.0447,-0.0233,9.8064,-0.0933,0.3879,-0.3992,-17.25,-30.81,19.88,343.34,-78.42,-152.07
52.20372,-2.191775,122.76,4.82,2,138.98,23 / 24,14015410,2020-01-08 16:08:59:004,-5.6412,-5.8932,12.1824,0.0386,0.0787,9.8062,-0.1467,-0.5426,0.4461,-16.94,-30.87,21.44,344.71,-78.5,-152.54
52.20372,-2.191775,122.76,4.82,2,138.98,23 / 24,14015510,2020-01-08 16:08:59:104,6.1368,0.7149,12.1141,0.0412,-0.0513,9.8064,-0.1925,0.6647,-0.2122,-17.56,-31.81,20.25,343.28,-78.62,-150.54
52.20372,-2.191775,122.76,4.82,2,138.98,23 / 24,14015610,2020-01-08 16:08:59:204,4.8857,0.917,8.4159,0.0747,-0.009,9.8063,-0.2605,-0.0251,0.0541,-17.44,-31.5,20.25,345.18,-78.41,-150.68
52.20372,-2.191775,122.76,4.82,2,138.98,23 / 24,14015710,2020-01-08 16:08:59:304,4.075,-0.0777,11.8509,-0.0038,-0.023,9.8065,0.0789,0.3952,-0.2165,-18,-31.31,20.63,346.04,-78.49,-149.99
52.20372,-2.191775,122.76,4.82,2,138.98,23 / 24,14015809,2020-01-08 16:08:59:403,0.2373,0.7809,6.9808,0.0741,-0.0645,9.806,-0.2298,0.0256,0.0419,-18.19,-30.87,20.38,342.71,-78.36,-151
52.20372,-2.191775,122.76,4.82,2,138.98,23 / 24,14015909,2020-01-08 16:08:59:503,-0.1403,2.469,7.5597,-0.0777,0.053,9.8061,0.3629,-0.1769,0.0328,-18.37,-30.81,20.56,345.88,-78.39,-150.09
52.20372,-2.191775,122.76,4.82,2,138.98,23 / 24,14016010,2020-01-08 16:08:59:604,-0.0763,-0.459,11.9304,0.0208,0.039,9.8065,0.0359,-0.388,0.3325,-19.12,-30.19,20.06,344.41,-78.74,-148.5
52.20372,-2.191775,122.76,4.82,2,138.98,23 / 24,14016110,2020-01-08 16:08:59:704,2.5931,3.3998,8.7682,0.0102,0.0471,9.8064,-0.0047,0.2334,0.0438,-19.19,-30.25,19.63,346.39,-78.79,-146.97
52.20372,-2.191775,122.76,4.82,2,138.98,23 / 24,14016210,2020-01-08 16:08:59:804,-1.8252,-1.3626,9.5621,-0.0264,0.0391,9.8065,-0.025,-0.4469,-0.0554,-19.12,-29.87,19.19,343.96,-79.11,-147.42
52.20372,-2.191775,122.76,4.82,2,138.98,23 / 23,14016310,2020-01-08 16:08:59:904,-1.545,-2.4607,12.7307,0.0401,-0.0777,9.8062,-0.3134,0.4962,-0.3788,-18.69,-30.25,19,342.06,-78.91,-148.83
52.20372,-2.191775,122.76,4.82,2,138.98,23 / 23,14016410,2020-01-08 16:09:00:004,1.3774,0.9259,8.9255,0.0881,0.0198,9.8062,-0.3456,0.4032,0.0387,-19.25,-30.31,18.88,341.11,-79.3,-149.73
52.20372,-2.191775,122.76,4.82,2,138.98,23 / 23,14016510,2020-01-08 16:09:00:104,-1.9492,-2.5698,11.1523,0.0369,-0.0071,9.8065,-0.1247,0.1613,-0.1101,-19.06,-30.5,18.81,342.11,-79.71,-149.1
52.20372,-2.191775,122.76,4.82,2,138.98,23 / 23,14016610,2020-01-08 16:09:00:204,0.6671,-0.0727,9.9053,0.0007,-0.0443,9.8065,-0.0533,0.4136,-0.2375,-18.12,-30.94,18,339.04,-79.81,-151.23
52.20372,-2.191775,122.76,4.82,2,138.98,23 / 23,14016710,2020-01-08 16:09:00:304,-1.1236,0.7978,8.2984,-0.0468,0.0731,9.8063,0.1023,-0.3317,0.2331,-17.5,-31.25,18,341.73,-80.36,-150.89
52.20372,-2.191775,122.76,4.82,2,138.98,23 / 23,14016810,2020-01-08 16:09:00:404,-1.516,-0.8176,11.6108,-0.0585,0.0343,9.8064,0.1952,-0.1612,0.06,-18.25,-31.31,17.63,341.75,-80.15,-149.25
52.20372,-2.191775,122.76,4.82,2,138.98,23 / 23,14016910,2020-01-08 16:09:00:504,3.4883,2.7485,11.0887,0.0595,0.0293,9.8064,-0.0457,-0.2556,0.0137,-17.5,-31.62,17.31,338.8,-80.03,-151.12
52.20372,-2.191775,122.76,4.82,2,138.98,23 / 23,14017010,2020-01-08 16:09:00:604,2.4161,-0.9019,10.8757,0.0917,0.0024,9.8062,-0.2771,-0.2785,0.3255,-16.81,-31.56,17.69,339.8,-80.09,-152.15
52.20372,-2.191775,122.76,4.82,2,138.98,23 / 23,14017110,2020-01-08 16:09:00:704,1.0195,-1.3169,10.9258,0.0383,0.0012,9.8065,-0.0769,-0.0776,0.2527,-17.62,-31.56,17.88,334.08,-79.58,-154.82
52.20372,-2.191775,122.76,4.82,2,138.98,23 / 23,14017210,2020-01-08 16:09:00:804,-1.9484,-0.4994,8.8464,0.0145,-0.0185,9.8066,-0.2412,-0.2196,0.1391,-17.94,-31.94,17.56,337.12,-79.69,-152.52
52.20372,-2.191775,122.76,4.82,2,138.98,24 / 24,14017310,2020-01-08 16:09:00:904,3.5192,0.2108,11.3356,0.0323,-0.0265,9.8065,-0.1933,-0.0992,0.0786,-18.37,-31.31,18.19,339.8,-79.86,-150.66
52.20372,-2.191775,122.76,4.82,2,138.98,24 / 24,14017410,2020-01-08 16:09:01:004,1.6724,0.5284,10.1514,0.0359,0.002,9.8065,-0.2098,-0.0081,0.2308,-18.5,-31.12,16.81,338.46,-79.73,-149.88
52.20372,-2.191775,122.76,4.82,2,138.98,24 / 24,14017510,2020-01-08 16:09:01:104,0.3892,-1.0775,11.5325,0.0542,-0.0102,9.8064,-0.2038,-0.0769,0.1674,-18.31,-30.69,17,340.86,-79.66,-147.99
52.20372,-2.191775,122.76,4.82,2,138.98,24 / 24,14017610,2020-01-08 16:09:01:204,-1.581,-0.2116,10.1347,0.0018,-0.0248,9.8066,-0.0027,-0.0247,0.0008,-17.31,-31.12,16.81,342.81,-79.75,-148.03
52.20372,-2.191775,122.76,4.82,2,138.98,24 / 24,14017710,2020-01-08 16:09:01:304,0.9485,-1.0051,9.2257,0.0464,0.0144,9.8065,-0.1411,0.1004,0.0996,-17.37,-31.87,17.06,339.37,-79.55,-150.43
52.20372,-2.191775,122.76,4.82,2,138.98,24 / 24,14017810,2020-01-08 16:09:01:404,4.1084,0.8593,9.2354,-0.0411,0.0041,9.8065,-0.0442,0.2152,-0.2539,-17.75,-32.31,16.81,339.16,-79.85,-149.25
52.20372,-2.191775,122.76,4.82,2,138.98,24 / 24,14017909,2020-01-08 16:09:01:503,2.1537,-2.634,11.0981,0.0114,-0.0477,9.8065,-0.1584,0.1495,-0.1788,-17.87,-32.37,17.31,338.06,-80.08,-150.23
52.20372,-2.191775,122.76,4.82,2,138.98,24 / 24,14018010,2020-01-08 16:09:01:604,0.6291,0.6983,9.7712,-0.0114,0.0224,9.8065,-0.073,0.3177,-0.0908,-17.44,-32.81,16.44,337.99,-80.15,-149.77
52.20372,-2.191775,122.76,4.82,2,138.98,24 / 24,14018110,2020-01-08 16:09:01:704,-3.0992,-0.5328,10.4184,0.0002,-0.0319,9.8066,0.0925,0.4055,-0.2946,-18.44,-32.75,16.94,337.46,-80.29,-150.66
52.20372,-2.191775,122.76,4.82,2,138.98,24 / 24,14018209,2020-01-08 16:09:01:803,2.7103,2.6438,9.7131,-0.0194,-0.0227,9.8066,0.0182,0.2653,-0.2347,-17.25,-33.19,16.13,335.33,-80.19,-151.83
52.20372,-2.191775,122.76,4.82,2,138.98,24 / 24,14018310,2020-01-08 16:09:01:904,-1.7589,1.0637,9.9144,0.0151,0.0137,9.8065,-0.017,0.0766,0.0393,-18.06,-34.12,17,333.78,-80.46,-153.48
52.20372,-2.191775,122.76,4.82,2,138.98,24 / 24,14018410,2020-01-08 16:09:02:004,2.696,3.7546,8.3903,0.0095,-0.0336,9.8065,-0.036,0.4343,-0.2618,-17,-33.5,16,332.77,-80.43,-153.98
52.20372,-2.191775,122.76,4.82,2,138.98,24 / 24,14018510,2020-01-08 16:09:02:104,-1.1817,-1.8219,10.3252,-0.0112,-0.0035,9.8066,-0.0779,-0.0652,0.0716,-17.37,-33.37,16.63,334.28,-80.68,-154.88
52.20372,-2.191775,122.76,4.82,2,138.98,24 / 24,14018610,2020-01-08 16:09:02:204,-0.6297,0.5064,9.906,-0.0308,-0.0368,9.8064,-0.0162,0.3971,-0.172,-18.12,-33.69,15.38,329.82,-80.82,-152.96
52.20372,-2.191775,122.76,4.82,2,138.98,24 / 24,14018710,2020-01-08 16:09:02:304,-2.6265,-1.3391,9.9487,-0.0039,0.026,9.8065,0.0258,-0.2291,0.2602,-17.81,-34.06,16.44,333.02,-80.9,-152.49
52.20372,-2.191775,122.76,4.82,2,138.98,24 / 24,14018809,2020-01-08 16:09:02:403,0.409,1.2308,9.7066,-0.029,-0.0412,9.8065,0.0022,0.0321,-0.062,-18.12,-33.94,15.31,332.47,-80.87,-150.92
52.20372,-2.191775,122.76,4.82,2,138.98,24 / 24,14018909,2020-01-08 16:09:02:503,0.9227,2.8433,10.4256,0.0284,0.0142,9.8065,-0.0558,-0.2172,0.1807,-18.44,-33.44,15.56,334.18,-80.81,-151.68
52.20372,-2.191775,122.76,4.82,2,138.98,24 / 24,14019010,2020-01-08 16:09:02:604,-0.728,1.6069,9.1686,0.0149,-0.0055,9.8066,-0.1465,-0.1763,0.1462,-18.31,-33.56,14.63,332.3,-80.72,-150.94
52.20372,-2.191775,122.76,4.82,2,138.98,24 / 24,14019110,2020-01-08 16:09:02:704,2.6992,2.8683,11.4077,0.0313,0.0002,9.8066,-0.0882,-0.2685,0.0931,-17.25,-32.75,15.44,335.96,-80.8,-149.74
52.20372,-2.191775,122.76,4.82,2,138.98,24 / 24,14019210,2020-01-08 16:09:02:804,-1.5411,-1.5769,10.1031,0.0688,0.0262,9.8063,-0.1928,-0.41,0.3722,-17.37,-34.06,15.38,338.16,-80.83,-147.9
52.203312,-2.19099,120.69,9.64,2,118.13,24 / 24,14019310,2020-01-08 16:09:02:904,2.9399,2.081,10.6389,-0.0001,0.0513,9.8065,0.1535,-0.0539,0.0313,-17.81,-33.81,15.75,337.63,-81.11,-148.99
52.203312,-2.19099,120.69,9.64,2,118.13,24 / 24,14019410,2020-01-08 16:09:03:004,-0.8665,-2.7817,10.5204,-0.0093,0.038,9.8065,-0.0367,-0.4499,0.2051,-19,-34.06,15.06,332.49,-81.17,-149.79
52.203312,-2.19099,120.69,9.64,2,118.13,24 / 24,14019510,2020-01-08 16:09:03:104,3.546,2.7131,9.1392,-0.0042,0.0025,9.8066,-0.1328,0.127,-0.0624,-18.56,-34.31,14.88,333.66,-81.24,-148.9
52.203312,-2.19099,120.69,9.64,2,118.13,24 / 24,14019610,2020-01-08 16:09:03:204,0.9672,-0.136,8.4164,0.0174,0.0599,9.8064,-0.0803,-0.3955,0.1929,-19.12,-33.94,14.56,334.18,-81.53,-148.68
52.203312,-2.19099,120.69,9.64,2,118.13,24 / 24,14019710,2020-01-08 16:09:03:304,3.2382,3.8916,8.8314,-0.0077,-0.0239,9.8066,-0.0731,0.3754,-0.222,-18.5,-34.44,14.19,334.66,-81.59,-147.61
52.203312,-2.19099,120.69,9.64,2,118.13,24 / 24,14019810,2020-01-08 16:09:03:404,-1.8771,0.2286,9.8944,0.0219,0.0387,9.8065,-0.0439,0.0069,0.0135,-18.69,-34.75,14.31,332.36,-81.83,-148.16
52.203312,-2.19099,120.69,9.64,2,118.13,24 / 24,14019909,2020-01-08 16:09:03:503,-1.6976,-2.2428,12.4581,0.0484,-0.0486,9.8064,-0.2591,0.4351,-0.2854,-18.25,-34.81,13.88,333.26,-82.14,-148.97
52.203312,-2.19099,120.69,9.64,2,118.13,24 / 24,14020010,2020-01-08 16:09:03:604,-2.9302,3.3478,8.0921,0.0441,-0.0053,9.8065,-0.2151,0.4847,-0.0374,-18.31,-35.56,14.25,330.51,-82.04,-150.94
52.203312,-2.19099,120.69,9.64,2,118.13,24 / 24,14020109,2020-01-08 16:09:03:703,-2.9537,-4.025,11.0006,-0.0039,-0.002,9.8066,0.1155,0.238,-0.126,-17.87,-35.06,14.19,331.82,-82.39,-150.33
52.203312,-2.19099,120.69,9.64,2,118.13,24 / 24,14020210,2020-01-08 16:09:03:804,2.6638,4.4018,10.2847,-0.0458,-0.0569,9.8064,0.0193,0.4104,-0.4619,-17.75,-36,14.13,330.92,-82.54,-151.02
52.203312,-2.19099,120.69,9.64,2,118.13,23 / 24,14020310,2020-01-08 16:09:03:904,-0.5987,0.2095,9.3983,-0.0979,-0.0294,9.806,0.182,0.2417,-0.1606,-17.31,-34.62,14.19,337.21,-82.83,-147.69
52.203312,-2.19099,120.69,9.64,2,118.13,23 / 24,14020409,2020-01-08 16:09:04:003,3.0711,2.2541,10.3183,-0.0614,-0.0154,9.8064,0.1525,0.3216,-0.2831,-17.69,-35.12,14.38,334.82,-82.76,-148.15
52.203312,-2.19099,120.69,9.64,2,118.13,23 / 24,14020510,2020-01-08 16:09:04:104,0.094,-1.6653,8.3692,-0.0553,-0.0181,9.8064,-0.0029,0.2285,-0.0709,-17.44,-35.56,13.94,334.8,-82.76,-149.46
52.203312,-2.19099,120.69,9.64,2,118.13,23 / 24,14020610,2020-01-08 16:09:04:204,3.2512,-0.3773,12.1511,-0.1136,0.0163,9.8059,0.2991,0.2347,-0.0131,-17.69,-35.56,13.81,340.62,-83.06,-143.49
52.203312,-2.19099,120.69,9.64,2,118.13,23 / 24,14020709,2020-01-08 16:09:04:303,-2.2411,-3.8784,10.0992,-0.0002,-0.0339,9.8066,-0.1667,0.2935,0.0399,-18.56,-34.5,14.31,340.41,-82.78,-142.35
52.203312,-2.19099,120.69,9.64,2,118.13,23 / 24,14020810,2020-01-08 16:09:04:404,0.8458,-0.0023,8.7047,-0.025,-0.0938,9.8061,0.0463,0.2526,-0.39,-18.31,-35.06,14,344.07,-82.43,-140.49
52.203312,-2.19099,120.69,9.64,2,118.13,23 / 24,14020910,2020-01-08 16:09:04:504,0.2682,1.3604,9.8234,0.0399,-0.0256,9.8065,-0.0611,0.0853,-0.0105,-18.12,-34.69,14,337.29,-82.2,-145.78
52.203312,-2.19099,120.69,9.64,2,118.13,23 / 24,14021010,2020-01-08 16:09:04:604,2.9496,2.4579,7.8169,0.0411,-0.0055,9.8065,-0.1607,0.3482,-0.1532,-17.62,-35.19,13.81,335.82,-82.05,-146.85
52.203312,-2.19099,120.69,9.64,2,118.13,23 / 24,14021110,2020-01-08 16:09:04:704,0.3233,1.9562,7.6927,-0.0286,0.0232,9.8065,0.1669,-0.0626,-0.1222,-18.37,-35.37,14.38,334.16,-82.04,-148.18
52.203312,-2.19099,120.69,9.64,2,118.13,23 / 24,14021210,2020-01-08 16:09:04:804,-1.8374,-5.8066,11.7037,-0.0581,0.051,9.8063,0.2902,-0.6033,0.1302,-18.19,-34,15.06,337.58,-82.39,-147.84
52.203312,-2.19099,120.69,9.64,2,118.13,23 / 24,14021310,2020-01-08 16:09:04:904,2.6928,1.923,9.8644,-0.0043,-0.017,9.8066,-0.2168,0.4388,-0.1295,-18.5,-33.56,14.56,339.01,-82.43,-146.7
52.203312,-2.19099,120.69,9.64,2,118.13,23 / 24,14021410,2020-01-08 16:09:05:004,3.8906,2.9074,11.404,0.0002,0.0418,9.8065,0.2124,0.5583,0.0063,-18.31,-33.81,14.13,339.28,-82.57,-144.52
52.203312,-2.19099,120.69,9.64,2,118.13,23 / 24,14021509,2020-01-08 16:09:05:103,-1.6017,-1.6846,8.5041,-0.0265,0.0076,9.8066,0.2348,0.141,0.0572,-17.81,-33.87,14.5,341.84,-82.3,-144.34
52.203312,-2.19099,120.69,9.64,2,118.13,23 / 24,14021610,2020-01-08 16:09:05:204,1.7328,0.923,9.8232,-0.0611,-0.1017,9.8058,0.0745,0.2539,-0.6463,-18.44,-34.12,14.25,336.44,-81.94,-146.43
52.203312,-2.19099,120.69,9.64,2,118.13,23 / 24,14021710,2020-01-08 16:09:05:304,0.707,0.8104,8.2479,-0.0614,-0.01,9.8064,-0.0061,0.0618,-0.2405,-18.25,-33.31,13.94,332.35,-82.51,-150.29
52.203312,-2.19099,120.69,9.64,2,118.13,23 / 24,14021810,2020-01-08 16:09:05:404,0.9346,0.7861,9.7324,-0.0244,0.0342,9.8065,0.0787,0.2308,0.071,-17.94,-33.87,14.25,335.43,-82.79,-147.81
52.203312,-2.19099,120.69,9.64,2,118.13,23 / 24,14021913,2020-01-08 16:09:05:507,-0.2659,-3.8317,11.2629,0.0046,-0.033,9.8065,0.0444,-0.0319,0.0735,-18.31,-33.81,14.13,337.33,-82.6,-146.13
52.203312,-2.19099,120.69,9.64,2,118.13,23 / 24,14022010,2020-01-08 16:09:05:604,0.8293,-0.5645,10.3084,-0.004,-0.0549,9.8065,-0.0595,0.0143,0.0112,-18.87,-33.31,13.75,336.34,-82.34,-145.56
52.203312,-2.19099,120.69,9.64,2,118.13,23 / 24,14022109,2020-01-08 16:09:05:703,1.9274,2.4158,10.0598,0.0288,0.023,9.8065,-0.0436,-0.3442,0.3082,-18.87,-32.69,13.69,336.75,-82.36,-145.24
52.203312,-2.19099,120.69,9.64,2,118.13,23 / 24,14022210,2020-01-08 16:09:05:804,-0.0592,1.1454,9.5827,0.0006,0.0134,9.8066,-0.037,-0.2902,0.1693,-18.31,-32.12,13.13,337.04,-82.19,-144.22
52.203312,-2.19099,120.69,9.64,2,118.13,23 / 24,14022310,2020-01-08 16:09:05:904,1.9714,1.606,10.5043,0.0252,0.0089,9.8066,-0.0199,-0.3303,0.1473,-18.87,-32.31,13.56,339.24,-82.08,-143.16
52.203312,-2.19099,120.69,9.64,2,118.13,23 / 24,14022410,2020-01-08 16:09:06:004,-0.7358,-2.1684,9.1642,0.0514,0.0381,9.8064,-0.2214,-0.4148,0.4129,-19.31,-32.12,12.81,334.6,-82.12,-144.87
52.203312,-2.19099,120.69,9.64,2,118.13,23 / 24,14022509,2020-01-08 16:09:06:103,-0.1409,0.1673,11.5122,-0.0066,0.0386,9.8065,0.1388,0.0207,0.1891,-19.19,-32.25,13.44,338.26,-81.93,-141.77
52.203312,-2.19099,120.69,9.64,2,118.13,23 / 24,14022610,2020-01-08 16:09:06:204,1.5546,0.0215,11.2027,-0.0203,-0.013,9.8066,0.1872,-0.1416,-0.1889,-19.37,-31.69,13.56,342.04,-82.03,-140.85
52.203312,-2.19099,120.69,9.64,2,118.13,23 / 24,14022709,2020-01-08 16:09:06:303,0.4188,1.7487,8.157,-0.0532,0.0391,9.8063,0.1427,-0.1446,0.0556,-19.19,-32.37,13,338.88,-82.36,-141.5
52.203312,-2.19099,120.69,9.64,2,118.13,23 / 24,14022810,2020-01-08 16:09:06:404,0.0116,-0.1238,10.992,-0.0432,0.0329,9.8065,0.134,-0.0393,0.0183,-19.25,-31.5,13.94,341.62,-82.19,-141.38
52.203312,-2.19099,120.69,9.64,2,118.13,23 / 24,14022909,2020-01-08 16:09:06:503,-0.2786,-1.2688,10.3546,0.0282,-0.055,9.8064,-0.2308,0.3745,-0.3078,-19.44,-30.31,13.94,340.94,-82.19,-142.04
52.203312,-2.19099,120.69,9.64,2,118.13,23 / 24,14023009,2020-01-08 16:09:06:603,2.1318,1.9574,9.2417,-0.0125,-0.0026,9.8066,0.049,0.3865,0.0009,-18.69,-31.56,13.38,337.13,-82.22,-142.86
52.203312,-2.19099,120.69,9.64,2,118.13,23 / 24,14023110,2020-01-08 16:09:06:704,-1.3261,-1.7356,8.815,0.0061,0.0204,9.8066,0.151,0.1375,0.3013,-19.37,-31.75,13.31,338.85,-82.02,-141.35
52.203312,-2.19099,120.69,9.64,2,118.13,23 / 24,14023210,2020-01-08 16:09:06:804,3.8031,5.6883,7.3408,-0.0497,-0.1138,9.8058,-0.0728,0.6185,-0.6894,-19.62,-33.44,13.63,340.23,-81.8,-140.83
52.203312,-2.19099,120.69,9.64,2,118.13,23 / 24,14023309,2020-01-08 16:09:06:903,-1.3077,-1.2706,9.1605,-0.0488,0.0326,9.8064,0.1336,-0.6247,0.129,-18.87,-33.12,13.5,338.8,-82.55,-143.66
52.203312,-2.19099,120.69,9.64,2,118.13,23 / 24,14023413,2020-01-08 16:09:07:007,-4.6976,-4.775,11.7674,-0.0252,0.0016,9.8066,0.0941,0.1603,0.093,-19.62,-33.56,13.44,335.07,-82.5,-143.26
52.203312,-2.19099,120.69,9.64,2,118.13,23 / 24,14023510,2020-01-08 16:09:07:104,-3.4708,-2.8354,9.7406,0.0398,0.0965,9.8061,-0.037,-0.7929,0.5583,-18.87,-33.94,13.06,336.41,-82.35,-143.27
52.203312,-2.19099,120.69,9.64,2,118.13,23 / 24,14023610,2020-01-08 16:09:07:204,-2.2624,-2.1228,11.8134,-0.0186,-0.0119,9.8066,0.1716,-0.3575,0.2426,-18.87,-33.44,13.56,337.63,-82.43,-144.56
52.203312,-2.19099,120.69,9.64,2,118.13,23 / 24,14023709,2020-01-08 16:09:07:303,3.7114,5.3105,9.2735,0.0387,0.0611,9.8064,-0.1315,-0.6553,0.4056,-19.12,-33,13.69,337.59,-81.98,-144.33
52.203312,-2.19099,120.69,9.64,2,118.13,23 / 24,14023810,2020-01-08 16:09:07:404,-0.7002,-1.8416,10.4878,-0.0201,0.0592,9.8064,0.0635,-0.6041,0.383,-19.06,-33.19,14.44,338.03,-82.18,-144.08
52.203312,-2.19099,120.69,9.64,2,118.13,23 / 24,14023910,2020-01-08 16:09:07:504,0.2223,2.7769,8.4693,0.0011,0.023,9.8065,-0.0938,-0.0442,0.0414,-18.81,-33.56,13.31,337.49,-82.26,-142.33
52.203312,-2.19099,120.69,9.64,2,118.13,23 / 24,14024010,2020-01-08 16:09:07:604,-0.8133,1.0914,10.5847,-0.0317,0.0628,9.8063,0.1337,-0.1717,0.1009,-19.37,-33.19,13.06,339.3,-82.52,-141.13
52.203312,-2.19099,120.69,9.64,2,118.13,23 / 24,14024110,2020-01-08 16:09:07:704,1.3079,0.6281,10.6317,-0.0118,0.0025,9.8066,0.1406,-0.0044,-0.0929,-18.19,-33.62,12.81,339.92,-82.48,-141.81
52.203312,-2.19099,120.69,9.64,2,118.13,23 / 24,14024209,2020-01-08 16:09:07:803,0.1084,-0.9418,10.9806,-0.0129,0.02,9.8065,0.057,-0.0865,0.1048,-19.12,-33.5,13.81,341.5,-82.62,-141.48
52.203312,-2.19099,120.69,9.64,2,118.13,23 / 23,14024310,2020-01-08 16:09:07:904,2.4388,-0.4131,8.5828,-0.0095,0.045,9.8064,-0.1225,0.0545,0.0409,-18.75,-33.37,12.69,338.52,-82.48,-141.75
52.203312,-2.19099,120.69,9.64,2,118.13,23 / 23,14024410,2020-01-08 16:09:08:004,-1.7343,0.1743,7.3668,-0.001,0.0103,9.8066,-0.0848,0.0307,-0.0188,-18.56,-34.5,12.44,336.45,-82.95,-141.41
52.203312,-2.19099,120.69,9.64,2,118.13,23 / 23,14024510,2020-01-08 16:09:08:104,-0.6647,-1.0753,12.2115,0.0522,-0.0232,9.8064,-0.3843,0.1823,0.1097,-18.87,-34.56,13,340.9,-83.39,-140.07
52.203312,-2.19099,120.69,9.64,2,118.13,23 / 23,14024609,2020-01-08 16:09:08:203,3.5092,6.4582,6.5061,0.0199,-0.0834,9.8062,-0.3365,0.4957,-0.1646,-17.75,-34.75,11.63,340.09,-83.14,-139.69
52.203312,-2.19099,120.69,9.64,2,118.13,23 / 23,14024711,2020-01-08 16:09:08:305,-1.0272,-0.9116,10.4974,-0.027,0.107,9.8059,0.4036,-0.4436,0.344,-18.75,-35.62,12.19,339.58,-82.95,-138.62
52.203312,-2.19099,120.69,9.64,2,118.13,23 / 23,14024810,2020-01-08 16:09:08:404,0.1227,-3.7167,15.1644,-0.0637,-0.0485,9.8062,0.5699,-0.555,-0.0905,-18.19,-35.31,12.75,343.46,-83.16,-139.2
52.203312,-2.19099,120.69,9.64,2,118.13,23 / 23,14024910,2020-01-08 16:09:08:504,-0.5354,1.9278,5.7171,0.0333,-0.0081,9.8065,-0.3329,0.0116,0.0635,-18.75,-35.12,13.06,337.45,-82.59,-142.44
52.203312,-2.19099,120.69,9.64,2,118.13,23 / 23,14025010,2020-01-08 16:09:08:604,-0.5615,-1.3675,9.0091,-0.0047,0.0386,9.8065,-0.1052,-0.1688,0.0064,-19.31,-34.37,13.25,338.7,-82.6,-141.55
52.203312,-2.19099,120.69,9.64,2,118.13,23 / 23,14025110,2020-01-08 16:09:08:704,-3.998,-4.42,11.819,0,-0.1137,9.8059,-0.1937,0.5897,-0.2991,-19.69,-35.19,13.13,337.39,-82.99,-141.53
52.203312,-2.19099,120.69,9.64,2,118.13,23 / 23,14025211,2020-01-08 16:09:08:805,0.732,-0.5359,9.9123,-0.0086,-0.061,9.8064,-0.0452,0.6427,-0.3085,-19.25,-34.87,13.75,345.51,-82.38,-137.93
52.203312,-2.19099,120.69,9.64,2,118.13,23 / 23,14025310,2020-01-08 16:09:08:904,-9.1751,-8.6587,9.1667,-0.0304,-0.091,9.8062,-0.1513,0.2579,-0.0427,-19.81,-34.87,13.81,343.17,-82.42,-138.54
52.203312,-2.19099,120.69,9.64,2,118.13,23 / 23,14025410,2020-01-08 16:09:09:004,-0.1467,1.1052,8.3429,-0.0705,-0.1539,9.8051,-0.2505,1.3461,-0.7082,-19.12,-34.75,13.81,350.24,-81.8,-133.99
52.203312,-2.19099,120.69,9.64,2,118.13,23 / 23,14025510,2020-01-08 16:09:09:104,-8.2859,-9.3434,11.0893,0.0238,0.0076,9.8066,-0.1795,-0.6988,0.3859,-19.12,-34.94,13.75,351.13,-82.55,-133.49
52.203312,-2.19099,120.69,9.64,2,118.13,23 / 23,14025609,2020-01-08 16:09:09:203,3.2236,1.7249,8.3944,-0.0482,-0.1072,9.8059,-0.0513,0.4579,-0.3126,-19,-34.69,13.5,354.63,-82.69,-130.7
52.203312,-2.19099,120.69,9.64,2,118.13,23 / 23,14025710,2020-01-08 16:09:09:304,2.3763,4.1738,6.9042,0.0045,0.1413,9.8056,0.1152,-0.938,0.6605,-18.62,-34.94,13.75,355.91,-83,-129.71
52.203312,-2.19099,120.69,9.64,2,118.13,23 / 23,14025810,2020-01-08 16:09:09:404,4.4558,5.836,9.4599,-0.0961,-0.0383,9.8061,0.1444,0.1107,-0.2832,-18.25,-35.81,13,359.18,-83.49,-126.51
52.203312,-2.19099,120.69,9.64,2,118.13,23 / 23,14025910,2020-01-08 16:09:09:504,-2.5678,-2.2838,9.1494,0.0368,0.0616,9.8063,-0.0954,-0.6488,0.4293,-17.94,-35.06,13.5,359.7,-83.77,-128.12
52.203312,-2.19099,120.69,9.64,2,118.13,23 / 23,14026011,2020-01-08 16:09:09:605,-2.3533,-2.0576,11.3729,-0.0318,-0.0328,9.8065,0.0775,0.2022,-0.1413,-17.81,-35.87,13.81,358.19,-84,-129.38
52.203312,-2.19099,120.69,9.64,2,118.13,23 / 23,14026110,2020-01-08 16:09:09:704,-5.6674,-7.8678,11.2872,-0.0216,0.095,9.8061,0.2637,-0.5836,0.5699,-17.75,-35.62,13.63,356,-84.45,-131.25
52.203312,-2.19099,120.69,9.64,2,118.13,23 / 23,14026210,2020-01-08 16:09:09:804,4.6821,0.7926,12.1653,-0.1048,-0.0893,9.8056,0.2452,0.2632,-0.3477,-18.56,-35.25,13.5,356.13,-83.87,-129.62
52.203312,-2.19099,120.69,9.64,2,118.13,22 / 22,14026310,2020-01-08 16:09:09:904,2.831,2.3741,7.6989,0.0163,0.0852,9.8062,0.0523,-0.7728,0.5514,-18,-35.06,13.75,356.53,-83.96,-130.77
52.203312,-2.19099,120.69,9.64,2,118.13,22 / 22,14026409,2020-01-08 16:09:10:003,7.6046,6.1028,10.9448,-0.106,-0.0254,9.806,0.2276,0.1823,-0.1249,-17.56,-36,14.06,359.37,-84.11,-128.4
52.203312,-2.19099,120.69,9.64,2,118.13,22 / 22,14026509,2020-01-08 16:09:10:103,-0.0708,-0.9607,9.2712,0.0931,0.1075,9.8056,-0.1978,-1.1638,0.7582,-17.75,-35.12,13.81,359.9,-84.08,-127.96
52.203312,-2.19099,120.69,9.64,2,118.13,22 / 22,14026610,2020-01-08 16:09:10:204,-5.9905,-5.5356,10.1485,-0.0147,-0.0169,9.8065,0.0549,-0.0506,0.1414,-17.56,-35.19,13.88,357.88,-84.29,-129.66
52.203312,-2.19099,120.69,9.64,2,118.13,22 / 22,14026710,2020-01-08 16:09:10:304,-2.9684,-4.622,10.8801,0.0727,0.1326,9.8055,0.0035,-1.0423,0.6272,-17.69,-35.5,13.44,349.62,-84.62,-134.65
52.203312,-2.19099,120.69,9.64,2,118.13,22 / 22,14026810,2020-01-08 16:09:10:404,-5.0724,-1.5902,9.5128,-0.0187,0.0039,9.8065,-0.0341,-0.4768,0.3039,-17.75,-34.75,14.06,356.31,-84.32,-130.99
52.203312,-2.19099,120.69,9.64,2,118.13,22 / 22,14026910,2020-01-08 16:09:10:504,1.8432,1.251,9.1051,0.0139,0.0343,9.8065,0.2371,-0.206,0.0727,-17.62,-35.25,13.63,358.02,-84.05,-129.53
52.203312,-2.19099,120.69,9.64,2,118.13,22 / 22,14027010,2020-01-08 16:09:10:604,-1.0234,-3.3015,11.1182,-0.0524,0.0347,9.8064,0.3912,-0.4014,0.1442,-17.25,-35.06,13.06,1.22,-84.23,-126.39
52.203312,-2.19099,120.69,9.64,2,118.13,22 / 22,14027110,2020-01-08 16:09:10:704,-0.7831,-1.4629,8.5425,-0.0564,-0.0197,9.8064,0.0461,0.5161,-0.2852,-18.06,-35.06,13.56,3.91,-84.18,-124.59
52.203312,-2.19099,120.69,9.64,2,118.13,22 / 22,14027209,2020-01-08 16:09:10:803,4.2672,3.2548,9.4189,-0.0664,0.0026,9.8063,0.1315,0.2086,-0.324,-17.81,-35.31,13.81,8.16,-84.23,-121.01
52.203312,-2.19099,120.69,9.64,2,118.13,23 / 24,14027310,2020-01-08 16:09:10:904,-0.0127,0.611,9.7882,-0.0222,-0.1002,9.806,-0.1165,0.5651,-0.471,-16.81,-35.44,13.63,9.35,-83.94,-121.74
52.203312,-2.19099,120.69,9.64,2,118.13,23 / 24,14027410,2020-01-08 16:09:11:004,1.106,3.5178,7.6313,0.0614,-0.0604,9.8062,-0.2583,0.4528,-0.3638,-16.75,-35.06,13.88,3.49,-84.29,-126.55
52.203312,-2.19099,120.69,9.64,2,118.13,23 / 24,14027510,2020-01-08 16:09:11:104,-2.8039,-2.2487,11.6601,-0.0114,-0.051,9.8064,0.1976,0.2053,-0.2149,-16.56,-35.75,13.81,359.37,-84.72,-130
52.203312,-2.19099,120.69,9.64,2,118.13,23 / 24,14027610,2020-01-08 16:09:11:204,-0.4112,1.954,7.4047,0.0459,-0.0821,9.8062,-0.1202,0.3226,-0.2188,-16.81,-35.56,13.75,355.47,-84.29,-133.25
52.203312,-2.19099,120.69,9.64,2,118.13,23 / 24,14027709,2020-01-08 16:09:11:303,-1.8759,-3.8852,10.3553,-0.0652,-0.0257,9.8063,0.1426,0.0233,0.0372,-17.12,-34.87,15,356.75,-84.19,-134.15
52.203312,-2.19099,120.69,9.64,2,118.13,23 / 24,14027810,2020-01-08 16:09:11:404,1.4391,0.2153,9.766,-0.0486,-0.0821,9.8062,-0.0751,0.2876,-0.2435,-17.69,-35.37,14.56,2.7,-83.73,-127.56
52.203312,-2.19099,120.69,9.64,2,118.13,23 / 24,14027910,2020-01-08 16:09:11:504,-3.1992,-2.035,12.0696,-0.0297,-0.0327,9.8065,0.1067,-0.2209,-0.134,-17.75,-35.19,13.94,2,-83.61,-126.23
52.203312,-2.19099,120.69,9.64,2,118.13,23 / 24,14028010,2020-01-08 16:09:11:604,-0.9803,-0.2712,11.6257,0.0221,-0.0044,9.8066,0.081,0.0457,0.0872,-17.56,-35.12,15.5,3.66,-83.79,-128.57
52.203312,-2.19099,120.69,9.64,2,118.13,23 / 24,14028110,2020-01-08 16:09:11:704,-5.6004,-2.8579,8.5616,-0.0132,0.0199,9.8065,-0.0772,0.0351,0.2859,-17.31,-35.12,16.06,2.59,-83.91,-131.1
52.203312,-2.19099,120.69,9.64,2,118.13,23 / 24,14028210,2020-01-08 16:09:11:804,4.1005,2.3967,10.406,-0.0551,0.0004,9.8064,0.2245,0.1677,-0.1856,-17.5,-34.81,15.94,355.75,-83.97,-136.82
52.202892,-2.189655,120.33,13.16,2,124.71,24 / 24,14028310,2020-01-08 16:09:11:904,0.7814,1.4106,11.3878,0.0376,0.0371,9.8065,-0.0874,-0.1227,0.2325,-16.94,-34.12,15.75,359.97,-83.97,-133.29
52.202892,-2.189655,120.33,13.16,2,124.71,24 / 24,14028410,2020-01-08 16:09:12:004,-4.3205,-2.6131,9.555,-0.0905,-0.0499,9.8061,0.1583,0.316,-0.4081,-16.5,-35.06,15.88,10.32,-83.38,-126.57
52.202892,-2.189655,120.33,13.16,2,124.71,24 / 24,14028509,2020-01-08 16:09:12:103,-3.3331,-2.9542,10.7339,-0.0045,-0.0157,9.8066,0.0461,-0.0249,0.0597,-17.44,-34.62,16,5.62,-83.5,-128.63
52.202892,-2.189655,120.33,13.16,2,124.71,24 / 24,14028610,2020-01-08 16:09:12:204,-0.2047,0.4674,10.6417,-0.0028,-0.0325,9.8065,0.0542,0.3193,-0.011,-17.56,-34.62,15.94,2.52,-83.23,-129.56
52.202892,-2.189655,120.33,13.16,2,124.71,24 / 24,14028710,2020-01-08 16:09:12:304,1.8098,1.1976,8.5304,0.0249,-0.0389,9.8065,-0.1699,0.0288,-0.1516,-16.69,-34.69,16.13,3.77,-82.74,-130.24
52.202892,-2.189655,120.33,13.16,2,124.71,24 / 24,14028809,2020-01-08 16:09:12:403,2.7727,0.2773,9.8492,-0.0381,-0.0491,9.8064,-0.0332,0.2949,-0.3313,-16.37,-34.44,15.75,5.55,-83.1,-130.49
52.202892,-2.189655,120.33,13.16,2,124.71,24 / 24,14028910,2020-01-08 16:09:12:504,-2.1151,0.6695,7.7103,0.0303,-0.0226,9.8065,-0.309,0.0061,0.0924,-17.94,-34.19,14.88,0.32,-83.03,-129.55
52.202892,-2.189655,120.33,13.16,2,124.71,24 / 24,14029010,2020-01-08 16:09:12:604,-0.9569,-1.9014,11.3541,0.0042,-0.0593,9.8064,0.1519,0.3227,-0.1591,-17.31,-33.75,15,4.51,-82.67,-127.81
52.202892,-2.189655,120.33,13.16,2,124.71,24 / 24,14029110,2020-01-08 16:09:12:704,-3.9238,-2.0399,8.7632,0.0447,-0.0583,9.8064,-0.0818,-0.6348,0.3884,-17.94,-33.44,15.75,3.7,-82.44,-128.63
52.202892,-2.189655,120.33,13.16,2,124.71,24 / 24,14029210,2020-01-08 16:09:12:804,-4.7502,-0.8503,12.0392,-0.0586,-0.0396,9.8063,0.1004,-0.423,0.1957,-17.81,-33.87,15.44,0.58,-82.36,-129.34
52.202892,-2.189655,120.33,13.16,2,124.71,23 / 24,14029310,2020-01-08 16:09:12:904,0.5877,3.9665,11.5603,-0.0224,-0.0189,9.8066,0.0868,-0.4692,0.1248,-18.44,-33.31,16.44,2.9,-82.04,-129.31
52.202892,-2.189655,120.33,13.16,2,124.71,23 / 24,14029410,2020-01-08 16:09:13:004,-7.8623,-5.2585,12.295,0.0312,-0.0764,9.8062,0.2305,-1.2426,0.5601,-17.94,-33.62,17.69,5.13,-81.73,-130.91
52.202892,-2.189655,120.33,13.16,2,124.71,23 / 24,14029510,2020-01-08 16:09:13:104,6.4508,4.9352,8.8142,-0.0707,-0.1315,9.8055,0.0825,-0.2776,-0.2079,-18,-33.56,17.63,5.97,-81.16,-130.32
52.202892,-2.189655,120.33,13.16,2,124.71,23 / 24,14029610,2020-01-08 16:09:13:204,-3.8706,-3.0009,11.0971,-0.0284,-0.0363,9.8065,0.0109,-0.8174,0.7498,-18.12,-33.44,17.31,2.04,-81.44,-131.75
52.202892,-2.189655,120.33,13.16,2,124.71,23 / 24,14029710,2020-01-08 16:09:13:304,2.5993,3.5839,10.9004,-0.0364,-0.0492,9.8064,0.0743,0.1645,-0.0316,-17.37,-34.25,17.69,3.86,-81.86,-133.57
52.202892,-2.189655,120.33,13.16,2,124.71,23 / 24,14029810,2020-01-08 16:09:13:404,-2.8482,-0.4515,7.2681,0.03,0.0637,9.8064,-0.1928,-0.3232,0.0237,-17.62,-34.06,17.75,358.42,-81.79,-136.26
52.202892,-2.189655,120.33,13.16,2,124.71,23 / 24,14029910,2020-01-08 16:09:13:504,2.1271,2.6984,9.4368,-0.1256,-0.006,9.8058,0.4275,-0.2533,-0.1895,-17.25,-34.06,17.94,359.63,-81.83,-136.93
52.202892,-2.189655,120.33,13.16,2,124.71,23 / 24,14030010,2020-01-08 16:09:13:604,-3.9381,-2.3633,7.672,-0.0286,-0.0685,9.8063,-0.108,-0.4465,0.7011,-17.62,-34.75,17.44,352.44,-81.62,-139.29
52.202892,-2.189655,120.33,13.16,2,124.71,23 / 24,14030110,2020-01-08 16:09:13:704,-7.7781,-4.4981,15.1372,-0.1371,-0.0027,9.8056,0.7791,0.6502,-0.0522,-17.87,-34.5,18.13,2,-81.32,-133.42
52.202892,-2.189655,120.33,13.16,2,124.71,23 / 24,14030209,2020-01-08 16:09:13:803,4.6112,1.9908,15.9157,0.2068,-0.1311,9.8035,0.6961,0.2475,-0.7672,-17.94,-33.81,19.38,6.03,-81.16,-131.79
52.202892,-2.189655,120.33,13.16,2,124.71,23 / 24,14030311,2020-01-08 16:09:13:905,2.8527,2.1601,10.72,0.0142,-0.171,9.8051,0.3714,-1.3851,0.1595,-18.12,-32.44,20.06,357.46,-79.9,-139.99
52.202892,-2.189655,120.33,13.16,2,124.71,23 / 24,14030410,2020-01-08 16:09:14:004,9.6689,9.5755,6.1504,0.0471,-0.1749,9.805,0.0225,-0.97,0.8931,-17.12,-33.12,20.13,349.39,-79.14,-147.56
52.202892,-2.189655,120.33,13.16,2,124.71,23 / 24,14030510,2020-01-08 16:09:14:104,-8.5707,-3.7641,8.9812,-0.1378,-0.0162,9.8057,-0.1675,-0.8603,0.4794,-16.94,-32.94,20.63,344.1,-79.77,-153.25
52.202892,-2.189655,120.33,13.16,2,124.71,23 / 24,14030610,2020-01-08 16:09:14:204,0.1744,1.4095,6.5081,-0.0006,-0.0147,9.8066,-0.23,-0.5812,0.1982,-16.94,-32.87,19.56,345.56,-80.68,-150.98
52.202892,-2.189655,120.33,13.16,2,124.71,23 / 24,14030709,2020-01-08 16:09:14:303,-5.4858,-2.1341,11.879,-0.038,-0.0232,9.8065,0.1664,-0.7376,0.4644,-16.25,-33.25,19.25,346.21,-81.23,-150.77
52.202892,-2.189655,120.33,13.16,2,124.71,23 / 24,14030810,2020-01-08 16:09:14:404,3.8441,5.3158,12.876,-0.0265,-0.1252,9.8058,-0.336,-0.5237,0.3983,-16.31,-33.75,18.63,343.66,-80.81,-152.51
52.202892,-2.189655,120.33,13.16,2,124.71,23 / 24,14030910,2020-01-08 16:09:14:504,-3.876,1.4841,11.0946,-0.1033,-0.0589,9.8059,-0.208,-0.7253,0.645,-16.44,-33.62,20.25,340.48,-80.56,-156.44
52.202892,-2.189655,120.33,13.16,2,124.71,23 / 24,14031009,2020-01-08 16:09:14:603,2.032,2.1919,11.8986,-0.0881,-0.0454,9.8061,0.0664,-0.058,0.1699,-16.81,-33,20.19,342.72,-80.1,-152.99
52.202892,-2.189655,120.33,13.16,2,124.71,23 / 24,14031109,2020-01-08 16:09:14:703,-0.9844,0.5006,10.6337,0.0114,0.0335,9.8065,-0.2097,-0.6016,0.1331,-17.25,-33.12,19.94,342.98,-79.86,-152.69
52.202892,-2.189655,120.33,13.16,2,124.71,23 / 24,14031210,2020-01-08 16:09:14:804,5.2643,3.9688,8.8335,-0.0532,-0.0476,9.8064,0.161,0.4157,-0.5057,-16.69,-34,19.94,345.87,-80.12,-150.45
52.202892,-2.189655,120.33,13.16,2,124.71,22 / 24,14031309,2020-01-08 16:09:14:903,-3.0148,-1.3311,11.5926,0.0692,0.0126,9.8063,0.158,-0.3165,0.2351,-16.12,-33.06,20.56,344.49,-80.39,-154.8
52.202892,-2.189655,120.33,13.16,2,124.71,22 / 24,14031410,2020-01-08 16:09:15:004,-0.7347,0.9688,9.7101,0.0095,-0.0371,9.8065,-0.052,0.3973,-0.1751,-16.19,-33.5,19.63,341.38,-80.48,-155.81
52.202892,-2.189655,120.33,13.16,2,124.71,22 / 24,14031510,2020-01-08 16:09:15:104,-2.8057,-2.1668,8.9707,0.03,0.0203,9.8065,-0.0422,0.1493,-0.1079,-16,-33.44,20.44,342.47,-80.47,-154.96
52.202892,-2.189655,120.33,13.16,2,124.71,22 / 24,14031610,2020-01-08 16:09:15:204,-3.8482,-1.5519,9.5916,-0.0248,0.0212,9.8065,0.1388,0.4938,-0.3438,-15.31,-33.69,20.63,348.65,-80.46,-153.2
52.202892,-2.189655,120.33,13.16,2,124.71,22 / 24,14031709,2020-01-08 16:09:15:303,3.0927,2.0142,11.6853,0.0793,0.0318,9.8062,0.0989,0.3093,-0.3212,-15.94,-33.06,21,350.6,-80.37,-150.01
52.202892,-2.189655,120.33,13.16,2,124.71,22 / 24,14031810,2020-01-08 16:09:15:404,-1.4022,0.5942,10.6862,0.051,-0.029,9.8064,0.3066,0.0339,-0.2058,-15.81,-33.37,20.75,348.02,-80.33,-152.01
52.202892,-2.189655,120.33,13.16,2,124.71,22 / 24,14031909,2020-01-08 16:09:15:503,2.2684,0.1317,12.2681,0.0502,-0.0507,9.8063,0.389,0.2761,-0.0625,-15.25,-33.31,20.56,346.8,-79.98,-154.55
52.202892,-2.189655,120.33,13.16,2,124.71,22 / 24,14032009,2020-01-08 16:09:15:603,4.9357,4.911,5.5861,0.0821,-0.02,9.8063,0.2485,-0.9684,0.5754,-14.75,-33,21.06,343.1,-80.26,-157.52
52.202892,-2.189655,120.33,13.16,2,124.71,22 / 24,14032110,2020-01-08 16:09:15:704,5.2764,2.9975,10.7668,-0.0495,-0.0773,9.8062,0.3369,-0.2731,0.1077,-15.06,-32.87,20.94,342.52,-80.64,-158.14
52.202892,-2.189655,120.33,13.16,2,124.71,22 / 24,14032209,2020-01-08 16:09:15:803,1.0707,2.1958,6.3368,0.0685,-0.0636,9.8061,-0.1828,-1.0162,0.7363,-15.5,-32.56,20.56,342.62,-80.53,-158.01
52.202892,-2.189655,120.33,13.16,2,124.71,23 / 24,14032310,2020-01-08 16:09:15:904,-6.6751,-3.0874,8.2468,-0.1089,-0.0374,9.8059,0.1244,-0.2963,0.163,-14.37,-32.75,19.44,340.02,-80.84,-158.99
52.202892,-2.189655,120.33,13.16,2,124.71,23 / 24,14032410,2020-01-08 16:09:16:004,-1.4033,1.2358,8.6696,0.0262,-0.0078,9.8066,-0.3576,-0.4704,0.3721,-12.31,-32.94,20.13,348.03,-80.84,-158.17
52.202892,-2.189655,120.33,13.16,2,124.71,23 / 24,14032509,2020-01-08 16:09:16:103,-3.275,-0.0793,8.6545,-0.06,0.0194,9.8064,-0.1857,-0.3731,0.1549,-14.44,-33.12,21.06,344.16,-80.82,-158.69
52.202892,-2.189655,120.33,13.16,2,124.71,23 / 24,14032610,2020-01-08 16:09:16:204,1.0333,1.2925,10.3999,-0.0377,-0.0178,9.8065,-0.0283,-0.0295,-0.0601,-15,-33.69,20.44,341.85,-80.61,-157.09
52.202892,-2.189655,120.33,13.16,2,124.71,23 / 24,14032710,2020-01-08 16:09:16:304,-2.4358,-2.5441,10.6436,-0.0064,-0.0098,9.8066,0.0356,-0.2636,0.2709,-15.25,-33.31,20.13,342.25,-80.37,-156.78
52.202892,-2.189655,120.33,13.16,2,124.71,23 / 24,14032810,2020-01-08 16:09:16:404,3.2802,1.9468,9.2344,-0.0222,-0.0269,9.8065,-0.0934,0.3295,-0.1619,-15.19,-33.56,19.63,342.78,-80.19,-156.18
52.202892,-2.189655,120.33,13.16,2,124.71,23 / 24,14032909,2020-01-08 16:09:16:503,-3.2529,1.1595,9.0066,-0.0846,0.0928,9.8058,-0.2726,-0.0828,0.174,-16.06,-33.56,20.56,344.82,-80.7,-154.56
52.202892,-2.189655,120.33,13.16,2,124.71,23 / 24,14033009,2020-01-08 16:09:16:603,2.9768,0.0753,14.1582,-0.1017,0.0114,9.8061,-0.3693,-0.12,0.2013,-15.12,-33.62,20.06,344.9,-80.41,-154.64
52.202892,-2.189655,120.33,13.16,2,124.71,23 / 24,14033110,2020-01-08 16:09:16:704,1.2047,2.0497,6.5554,-0.0565,-0.0088,9.8064,-0.3953,0.1636,0.1335,-15.31,-34.06,20.19,340.77,-80.61,-157.92
52.202892,-2.189655,120.33,13.16,2,124.71,23 / 24,14033210,2020-01-08 16:09:16:804,-3.8867,-1.637,11.2693,-0.0302,0.0893,9.8061,0.2937,-0.1029,0.0674,-15.62,-33.62,20.81,341.87,-80.89,-156.97
52.202892,-2.189655,120.33,13.16,2,124.71,23 / 23,14033311,2020-01-08 16:09:16:905,3.0626,1.9487,9.6238,0.0484,-0.0266,9.8064,0.0156,0.3286,-0.2659,-15.19,-33.12,21.06,345.44,-80.49,-155.79
52.202892,-2.189655,120.33,13.16,2,124.71,23 / 23,14033409,2020-01-08 16:09:17:003,-1.0379,-0.559,7.1561,0.0136,0.0367,9.8065,0.2196,-0.2656,0.1827,-15.25,-33.69,20.88,344.69,-80.44,-156.25
52.202892,-2.189655,120.33,13.16,2,124.71,23 / 23,14033510,2020-01-08 16:09:17:104,2.3454,2.8385,9.5155,-0.0181,-0.0476,9.8065,0.1539,0.1691,-0.1349,-15.31,-33.37,21.19,346.64,-80.38,-154.81
52.202892,-2.189655,120.33,13.16,2,124.71,23 / 23,14033610,2020-01-08 16:09:17:204,-0.8377,-0.8871,10.6836,0.079,0.0447,9.8062,-0.0574,-0.3179,0.2214,-14.75,-32.87,20.44,342.24,-81,-157.07
52.202892,-2.189655,120.33,13.16,2,124.71,23 / 23,14033710,2020-01-08 16:09:17:304,-1.851,-0.6222,7.6199,-0.0333,0.0358,9.8065,-0.2923,-0.6149,0.1573,-14.56,-33,20.63,346.08,-80.64,-155.33
52.202892,-2.189655,120.33,13.16,2,124.71,23 / 23,14033809,2020-01-08 16:09:17:403,7.1209,3.1866,11.5246,-0.0959,-0.0138,9.8061,0.3127,0.5039,-0.3619,-15.06,-32.19,20.75,349.98,-80.54,-152.32
52.202892,-2.189655,120.33,13.16,2,124.71,23 / 23,14033910,2020-01-08 16:09:17:504,-2.3821,-1.1241,9.2701,0.0343,0.0138,9.8065,-0.148,-0.2757,0.2745,-15.44,-31.31,20.13,349.66,-80.38,-151.2
52.202892,-2.189655,120.33,13.16,2,124.71,23 / 23,14034010,2020-01-08 16:09:17:604,-5.6576,-2.5169,9.3776,-0.0596,-0.02,9.8064,0.1681,0.7757,-0.5408,-15.37,-31.94,21.06,354.1,-80.35,-149.05
52.202892,-2.189655,120.33,13.16,2,124.71,23 / 23,14034109,2020-01-08 16:09:17:703,-3.5119,-1.1555,9.4672,0.0681,0.0489,9.8062,-0.0246,0.2031,-0.0979,-15.87,-32.44,20.75,350.49,-80.56,-150.2
52.202892,-2.189655,120.33,13.16,2,124.71,23 / 23,14034210,2020-01-08 16:09:17:804,-0.2418,-0.8793,9.8176,-0.0214,0.0039,9.8065,0.0039,0.475,-0.2646,-16.12,-32.25,20.88,353.55,-80.56,-147.78
52.202892,-2.189655,120.33,13.16,2,124.71,22 / 23,14034311,2020-01-08 16:09:17:905,2.0273,0.4675,7.942,0.0138,0.0516,9.8064,-0.1295,0.0942,-0.0581,-16.37,-32.69,20.94,355.05,-80.35,-146.54
52.202892,-2.189655,120.33,13.16,2,124.71,22 / 23,14034409,2020-01-08 16:09:18:003,1.0026,1.6535,9.7955,-0.0436,0.0418,9.8064,-0.0879,0.3334,-0.2103,-16.37,-33.37,21.06,355.83,-80.78,-145.98
52.202892,-2.189655,120.33,13.16,2,124.71,22 / 23,14034510,2020-01-08 16:09:18:104,0.6622,0.1852,9.4067,0.0151,0.0384,9.8065,-0.0448,-0.0439,-0.0756,-16.37,-33.37,21,357.12,-81.22,-144.99
52.202892,-2.189655,120.33,13.16,2,124.71,22 / 23,14034610,2020-01-08 16:09:18:204,-7.9706,-1.7933,11.4018,0.0189,-0.073,9.8063,0.0144,0.8014,-0.713,-15.94,-33.5,19.75,358.67,-80.76,-142.38
52.202892,-2.189655,120.33,13.16,2,124.71,22 / 23,14034710,2020-01-08 16:09:18:304,-5.4069,-2.4295,14.2163,0.1027,0.0965,9.8055,0.2486,0.1275,-0.1618,-16,-33.25,20.44,356.55,-80.53,-144.02
52.202892,-2.189655,120.33,13.16,2,124.71,22 / 23,14034809,2020-01-08 16:09:18:403,-2.997,2.4296,12.8267,0.0273,-0.0448,9.8064,0.2046,0.9066,-0.6809,-15.94,-32.87,21.31,351.17,-80.03,-149.49
52.202892,-2.189655,120.33,13.16,2,124.71,22 / 23,14034910,2020-01-08 16:09:18:504,5.974,3.7311,10.5566,0.144,0.0644,9.8053,0.0899,-0.5063,0.0279,-16.06,-32.62,21.44,352.25,-79.31,-148.52
52.202892,-2.189655,120.33,13.16,2,124.71,22 / 23,14035010,2020-01-08 16:09:18:604,10.3868,4.6606,7.1342,-0.056,-0.0807,9.8061,0.0477,1.1195,-0.6744,-15.56,-32.94,20.75,353.23,-79.51,-147.82
52.202892,-2.189655,120.33,13.16,2,124.71,22 / 23,14035109,2020-01-08 16:09:18:703,-3.8924,-1.7491,9.1892,0.0284,0.1368,9.8056,-0.0812,-0.5575,0.1864,-16.5,-32.81,20.94,353.67,-80.64,-147.66
52.202892,-2.189655,120.33,13.16,2,124.71,22 / 23,14035210,2020-01-08 16:09:18:804,-7.6957,-4.3381,12.7585,-0.095,-0.0464,9.806,-0.1975,1.2813,-0.9103,-15.87,-32.94,21.06,359.55,-80.19,-143.04
52.202892,-2.189655,120.33,13.16,2,124.71,22 / 24,14035310,2020-01-08 16:09:18:904,5.8753,5.2861,7.8773,0.0582,0.1193,9.8057,-0.2406,0.2573,0.0206,-16.5,-32.06,20.44,357.13,-80.23,-143.56
52.202892,-2.189655,120.33,13.16,2,124.71,22 / 24,14035410,2020-01-08 16:09:19:004,4.2187,1.8983,12.4985,-0.0287,0.0672,9.8063,0.1969,0.873,-0.6446,-14.94,-32.75,19.31,354.44,-80.88,-146
52.202892,-2.189655,120.33,13.16,2,124.71,22 / 24,14035510,2020-01-08 16:09:19:104,1.3218,1.8486,8.3223,0.0978,0.0546,9.806,-0.1642,0.3156,-0.2438,-14.94,-33.56,20.44,357.09,-80.59,-145.35
52.202892,-2.189655,120.33,13.16,2,124.71,22 / 24,14035610,2020-01-08 16:09:19:204,-5.0303,-2.7393,8.9485,-0.0196,0.0242,9.8066,0.1881,0.6207,-0.4727,-15.44,-32.5,21,357.46,-80.76,-146.46
52.202892,-2.189655,120.33,13.16,2,124.71,22 / 24,14035710,2020-01-08 16:09:19:304,-1.0193,-0.7069,8.454,0.0683,0.0189,9.8063,0.0346,0.4448,-0.175,-15.94,-33.12,20.56,353.67,-80.84,-147.69
52.202892,-2.189655,120.33,13.16,2,124.71,22 / 24,14035810,2020-01-08 16:09:19:404,-4.3223,-2.5706,10.2402,-0.001,0.0599,9.8064,0.1464,0.3886,-0.2733,-15.94,-33.56,20.75,356.44,-81.05,-145.5
52.202892,-2.189655,120.33,13.16,2,124.71,22 / 24,14035910,2020-01-08 16:09:19:504,2.6802,1.7072,10.6186,0.0708,0.0144,9.8063,0.0961,0.4274,-0.3878,-15.87,-33.75,20.56,358.06,-81.04,-144.22
52.202892,-2.189655,120.33,13.16,2,124.71,22 / 24,14036010,2020-01-08 16:09:19:604,-1.6657,-0.5327,10.2338,0.0414,0.0254,9.8065,0.0988,0.0722,-0.083,-15.37,-32.44,20.81,357.81,-81.16,-146.21
52.202892,-2.189655,120.33,13.16,2,124.71,22 / 24,14036111,2020-01-08 16:09:19:705,3.5364,3.4328,8.4282,0.0121,0.0315,9.8066,-0.0679,0.4603,-0.2885,-15.87,-31.62,20.75,355.27,-81.12,-146.48
52.202892,-2.189655,120.33,13.16,2,124.71,22 / 24,14036211,2020-01-08 16:09:19:805,1.3137,0.3337,9.3484,-0.0073,0.0764,9.8063,0.2135,-0.2679,0.1029,-15.87,-32.5,20.88,354.62,-81.3,-147.03
52.202892,-2.189655,120.33,13.16,2,124.71,22 / 23,14036310,2020-01-08 16:09:19:904,-0.8754,-1.467,11.868,0.0093,-0.0338,9.8065,-0.0961,0.1713,-0.0058,-15.5,-33.31,20.75,358.09,-80.99,-145.97
52.202892,-2.189655,120.33,13.16,2,124.71,22 / 23,14036410,2020-01-08 16:09:20:004,-1.0251,-0.2447,9.0584,0.002,0.0072,9.8066,-0.0384,-0.285,0.2151,-15.87,-33.5,20.19,355.51,-81.23,-144.89
52.202892,-2.189655,120.33,13.16,2,124.71,22 / 23,14036510,2020-01-08 16:09:20:104,-1.0325,1.4381,8.9282,-0.0624,-0.0145,9.8064,-0.0842,0.0343,0.0696,-15.62,-33.5,19.56,354.33,-81.37,-145.85
52.202892,-2.189655,120.33,13.16,2,124.71,22 / 23,14036610,2020-01-08 16:09:20:204,2.1227,1.6356,10.1402,0.0017,0.0335,9.8065,0.0696,-0.4494,0.129,-15.69,-33.94,19.75,355.24,-81.42,-145.1
52.202892,-2.189655,120.33,13.16,2,124.71,22 / 23,14036709,2020-01-08 16:09:20:303,1.379,-0.4298,9.2915,0.0202,-0.053,9.8064,0.0982,-0.2578,0.2043,-15.37,-34.19,19.75,354.56,-81.06,-147.36
52.202892,-2.189655,120.33,13.16,2,124.71,22 / 23,14036810,2020-01-08 16:09:20:404,2.6104,3.6053,8.6195,-0.021,-0.0236,9.8065,0.0027,-0.314,0.2902,-15.37,-33.87,20,352.93,-81.37,-148.68
52.202892,-2.189655,120.33,13.16,2,124.71,22 / 23,14036910,2020-01-08 16:09:20:504,-2.688,-1.1388,10.8278,-0.0235,-0.0293,9.8065,0.0879,-0.3581,0.1312,-14.81,-33.75,20.06,351.15,-81.79,-150.18
52.202892,-2.189655,120.33,13.16,2,124.71,22 / 23,14037010,2020-01-08 16:09:20:604,1.3842,2.0184,8.4153,0.0203,-0.0521,9.8064,0.0146,0.0151,-0.0271,-15,-34.25,20.19,351.04,-81.64,-150.23
52.202892,-2.189655,120.33,13.16,2,124.71,22 / 23,14037110,2020-01-08 16:09:20:704,-1.5557,-1.66,10.9666,-0.0077,-0.0136,9.8066,0.1298,-0.2632,0.1388,-15.37,-34.31,20.88,352.11,-81.77,-150.79
52.202892,-2.189655,120.33,13.16,2,124.71,22 / 23,14037210,2020-01-08 16:09:20:804,-0.5023,0.5008,10.3945,0.0121,-0.016,9.8066,-0.0124,-0.0111,-0.1276,-15.19,-34.37,21.06,352.24,-81.73,-150.67
52.202225,-2.188419,119.88,10.84,2,134.06,23 / 24,14037310,2020-01-08 16:09:20:904,-0.919,0.3995,9.6657,-0.0073,-0.0138,9.8066,0.0405,-0.1534,0.2472,-14.69,-34,21.06,351.46,-81.75,-151.3
52.202225,-2.188419,119.88,10.84,2,134.06,23 / 24,14037410,2020-01-08 16:09:21:004,1.3178,0.8867,9.8152,-0.0089,-0.0302,9.8065,-0.0955,0.0988,0.1427,-15.25,-33.31,20.38,350.13,-81.72,-151.03
52.202225,-2.188419,119.88,10.84,2,134.06,23 / 24,14037510,2020-01-08 16:09:21:104,-2.6736,0.3545,10.3874,-0.0014,0.0559,9.8064,-0.0966,-0.0727,-0.1305,-14.62,-34.19,20.56,353.57,-81.85,-149.63
52.202225,-2.188419,119.88,10.84,2,134.06,23 / 24,14037610,2020-01-08 16:09:21:204,1.3981,1.377,10.5134,-0.009,-0.0026,9.8065,-0.0966,0.1029,-0.2481,-15.5,-33.75,20.13,352.34,-81.9,-149.25
52.202225,-2.188419,119.88,10.84,2,134.06,23 / 24,14037709,2020-01-08 16:09:21:303,0.3027,0.8094,10.1048,-0.0167,-0.0261,9.8065,0.0712,0.1622,0.2173,-15.19,-33.44,19.94,352.13,-81.73,-149.43
52.202225,-2.188419,119.88,10.84,2,134.06,23 / 24,14037810,2020-01-08 16:09:21:404,-2.352,-0.6653,9.7367,0.0134,-0.0094,9.8066,-0.0221,0.1007,0.0889,-15.81,-33.37,21.06,350.5,-81.66,-150.38
52.202225,-2.188419,119.88,10.84,2,134.06,23 / 24,14037910,2020-01-08 16:09:21:504,2.0512,0.7116,9.2813,0.0225,0.0413,9.8065,0.0048,0.1641,-0.3297,-15.37,-34,20.13,353.66,-81.8,-148.18
52.202225,-2.188419,119.88,10.84,2,134.06,23 / 24,14038010,2020-01-08 16:09:21:604,-2.6698,0.5266,8.4369,0.0246,0.0252,9.8065,0.1113,0.1156,-0.1482,-14.5,-33.81,19.94,356.59,-82.22,-147.74
52.202225,-2.188419,119.88,10.84,2,134.06,23 / 24,14038110,2020-01-08 16:09:21:704,0.4468,2.1621,9.5842,0.0305,0.0098,9.8066,0.0707,0.2802,-0.1864,-14.19,-33.75,20.19,356.41,-82.46,-147.91
52.202225,-2.188419,119.88,10.84,2,134.06,23 / 24,14038210,2020-01-08 16:09:21:804,-2.0303,-0.5547,10.6375,0.0426,0.0404,9.8064,0.0281,-0.2365,0.236,-14.37,-34.25,19.94,353.22,-82.69,-150.53
52.202225,-2.188419,119.88,10.84,2,134.06,23 / 24,14038310,2020-01-08 16:09:21:904,1.5503,2.0111,11.0004,0.0694,-0.0089,9.8063,-0.168,-0.1178,0.1728,-14.62,-33.62,20.25,348.82,-82.5,-152.24
52.202225,-2.188419,119.88,10.84,2,134.06,23 / 24,14038410,2020-01-08 16:09:22:004,-1.7574,-0.2388,8.7095,0.0246,0.0059,9.8065,-0.0454,-0.1133,0.112,-14.5,-34.12,20.19,351.31,-82.49,-152.05
52.202225,-2.188419,119.88,10.84,2,134.06,23 / 24,14038510,2020-01-08 16:09:22:104,-1.3861,0.488,9.4313,0.0551,0.0018,9.8064,-0.1781,-0.241,0.2573,-15.19,-34,20.5,351.67,-82.5,-151.29
52.202225,-2.188419,119.88,10.84,2,134.06,23 / 24,14038610,2020-01-08 16:09:22:204,-0.5082,1.1919,9.3147,-0.0049,-0.0037,9.8066,-0.0815,0.0205,0.0798,-15.25,-34.31,20.38,350.19,-82.53,-151.13
52.202225,-2.188419,119.88,10.84,2,134.06,23 / 24,14038710,2020-01-08 16:09:22:304,0.515,1.103,9.5811,0.0029,0.0197,9.8066,0.0958,-0.084,0.1391,-15.19,-34.12,20.94,353.63,-82.48,-149.68
52.202225,-2.188419,119.88,10.84,2,134.06,23 / 24,14038810,2020-01-08 16:09:22:404,-0.5011,1.4135,10.0309,-0.0208,-0.0011,9.8066,0.1003,-0.0593,-0.0621,-15.69,-34.44,20.38,350.25,-82.53,-149.33
52.202225,-2.188419,119.88,10.84,2,134.06,23 / 24,14038910,2020-01-08 16:09:22:504,-0.1396,0.7606,8.8316,-0.0168,-0.0027,9.8066,-0.0047,0.0878,0.0471,-15.44,-33.87,21,354.9,-82.55,-148.65
52.202225,-2.188419,119.88,10.84,2,134.06,23 / 24,14039010,2020-01-08 16:09:22:604,1.9871,1.9554,8.5865,-0.0292,0.0075,9.8065,-0.0421,0.3157,-0.0809,-15.44,-33.75,19.94,354.41,-82.42,-147.67
52.202225,-2.188419,119.88,10.84,2,134.06,23 / 24,14039110,2020-01-08 16:09:22:704,-4.8491,-3.8741,11.8064,0.0494,-0.0517,9.8063,-0.1774,-0.3106,0.2569,-15.5,-33.56,20.38,357.09,-82.56,-145.5
52.202225,-2.188419,119.88,10.84,2,134.06,23 / 24,14039210,2020-01-08 16:09:22:804,0.1974,1.9066,7.1806,0.038,-0.1135,9.8059,-0.2874,0.3102,-0.0955,-15.94,-33.62,20.13,353.94,-82.13,-146.24
52.202225,-2.188419,119.88,10.84,2,134.06,24 / 24,14039310,2020-01-08 16:09:22:904,0.8257,-0.6168,9.3899,-0.0028,0.0416,9.8065,0.2925,-0.1667,0.1306,-15,-34,20.25,357.53,-82.59,-145.15
52.202225,-2.188419,119.88,10.84,2,134.06,24 / 24,14039410,2020-01-08 16:09:23:004,2.9473,4.5811,6.8285,-0.0265,-0.0734,9.8063,-0.0201,0.473,-0.3509,-15.37,-34.25,20.19,357.39,-82.6,-145.26
52.202225,-2.188419,119.88,10.84,2,134.06,24 / 24,14039509,2020-01-08 16:09:23:103,-2.6556,-1.3573,8.5194,-0.0707,0.0747,9.8061,0.3385,-0.2196,0.0354,-15,-34.69,20.56,0.83,-83.25,-143.77
52.202225,-2.188419,119.88,10.84,2,134.06,24 / 24,14039610,2020-01-08 16:09:23:204,0.2681,0.5617,11.5384,-0.0728,0.0156,9.8063,0.2786,0.1478,-0.2123,-14.62,-33.94,19.81,358.23,-83.2,-144.6
52.202225,-2.188419,119.88,10.84,2,134.06,24 / 24,14039710,2020-01-08 16:09:23:304,-4.5572,1.4455,8.1729,0.0012,0.0371,9.8065,-0.1115,-0.1944,0.1588,-14.87,-33.94,20.38,356.22,-83.08,-146.26
52.202225,-2.188419,119.88,10.84,2,134.06,24 / 24,14039810,2020-01-08 16:09:23:404,0.2777,2.0822,10.9791,-0.054,0.0288,9.8064,0.1732,0.1136,-0.1159,-15,-34.87,19.69,358.15,-83.4,-144.67
52.202225,-2.188419,119.88,10.84,2,134.06,24 / 24,14039910,2020-01-08 16:09:23:504,0.8928,1.7238,11.2305,0.0348,-0.0181,9.8065,-0.1855,-0.2984,0.1838,-14.87,-34.5,20.06,356.88,-83.46,-145.74
52.202225,-2.188419,119.88,10.84,2,134.06,24 / 24,14040009,2020-01-08 16:09:23:603,0.1405,3.4547,9.889,-0.0053,-0.0117,9.8066,-0.1016,0.03,0.0593,-14.87,-33.62,19.69,356.33,-83.34,-146.2
52.202225,-2.188419,119.88,10.84,2,134.06,24 / 24,14040111,2020-01-08 16:09:23:705,-1.8897,1.8992,10.4357,0.0112,0.0192,9.8066,0.1107,-0.3432,0.1854,-15.25,-34.25,20,356.43,-83.33,-146.11
52.202225,-2.188419,119.88,10.84,2,134.06,24 / 24,14040210,2020-01-08 16:09:23:804,-3.1243,0.845,10.8958,-0.0005,-0.0396,9.8065,0.0049,-0.0208,0.0394,-15.12,-34.44,19.69,357.19,-83.01,-145.46
52.202225,-2.188419,119.88,10.84,2,134.06,22 / 24,14040309,2020-01-08 16:09:23:903,-2.54,2.2491,10.6834,-0.044,0.0491,9.8064,0.1379,-0.187,0.0351,-16,-34.56,19.38,353.9,-82.91,-144.89
52.202225,-2.188419,119.88,10.84,2,134.06,22 / 24,14040410,2020-01-08 16:09:24:004,-1.9233,1.2763,11.624,-0.0167,0.0355,9.8065,0.1619,-0.1642,0.0494,-15.69,-34.37,19.38,356.65,-83.29,-142.69
52.202225,-2.188419,119.88,10.84,2,134.06,22 / 24,14040509,2020-01-08 16:09:24:103,-2.804,2.0742,8.4979,-0.0243,0.0199,9.8065,0.0961,0.2073,-0.0359,-15.94,-33.81,18.94,356.39,-83.12,-142.89
52.202225,-2.188419,119.88,10.84,2,134.06,22 / 24,14040610,2020-01-08 16:09:24:204,-3.3561,1.5259,10.4682,-0.0489,0.0199,9.8064,0.1335,-0.0351,-0.116,-15.19,-34.31,19.56,2,-83.19,-141.47
52.202225,-2.188419,119.88,10.84,2,134.06,22 / 24,14040710,2020-01-08 16:09:24:304,-1.7268,0.5843,9.3106,-0.0325,-0.0299,9.8065,-0.0237,0.2008,-0.1654,-15.69,-34.56,19.56,0.82,-83.02,-140.66
52.202225,-2.188419,119.88,10.84,2,134.06,22 / 24,14040809,2020-01-08 16:09:24:403,1.2529,2.6611,9.4207,-0.0068,0.0064,9.8066,0,0.2032,-0.0693,-16.5,-34.44,20.38,0.3,-83.08,-141.09
52.202225,-2.188419,119.88,10.84,2,134.06,22 / 24,14040910,2020-01-08 16:09:24:504,0.6475,2.3276,9.3133,-0.071,-0.0041,9.8063,0.0621,0.287,-0.2048,-15.56,-33.25,20.13,1.45,-83.07,-140.12
52.202225,-2.188419,119.88,10.84,2,134.06,22 / 24,14041009,2020-01-08 16:09:24:603,-0.9861,1.6199,12.1198,-0.057,0.018,9.8064,0.2207,0.1015,-0.0288,-15.56,-33.12,20.38,6.79,-83.06,-135.65
52.202225,-2.188419,119.88,10.84,2,134.06,22 / 24,14041110,2020-01-08 16:09:24:704,-5.7262,-0.5239,11.677,-0.0055,-0.0486,9.8065,-0.1694,0.5153,-0.3509,-15.69,-33.25,19.88,6.16,-83.12,-136.18
52.202225,-2.188419,119.88,10.84,2,134.06,22 / 24,14041210,2020-01-08 16:09:24:804,2.0599,4.4359,8.2001,-0.0015,-0.0199,9.8065,0.0077,0.4725,-0.2981,-15.81,-33.37,19.38,0.35,-83.13,-139.61
52.202225,-2.188419,119.88,10.84,2,134.06,23 / 24,14041310,2020-01-08 16:09:24:904,-1.5128,0.3987,10.0479,0.0057,-0.048,9.8065,0.0207,0.0806,0.043,-14.25,-33.44,20.25,3.23,-82.96,-142.34
52.202225,-2.188419,119.88,10.84,2,134.06,23 / 24,14041410,2020-01-08 16:09:25:004,1.6805,2.0415,9.2863,-0.0482,-0.0585,9.8063,-0.0001,0.3419,-0.1656,-15.25,-33.44,20.25,2.82,-82.72,-140.8
52.202225,-2.188419,119.88,10.84,2,134.06,23 / 24,14041510,2020-01-08 16:09:25:104,-3.9105,-2.4652,11.3053,-0.0326,-0.0282,9.8065,0.0183,0.0405,-0.0221,-15.94,-32.81,20.19,1.73,-82.62,-139.91
52.202225,-2.188419,119.88,10.84,2,134.06,23 / 24,14041609,2020-01-08 16:09:25:203,-0.6979,1.0343,10.808,-0.0235,-0.0495,9.8065,-0.0512,0.3955,-0.2401,-16,-32.62,20.81,5.52,-82.44,-138.13
52.202225,-2.188419,119.88,10.84,2,134.06,23 / 24,14041710,2020-01-08 16:09:25:304,-3.2713,-0.8192,10.6184,-0.0032,0.0381,9.8065,0.0796,-0.1371,0.056,-14.69,-33.56,19.88,5.92,-83.01,-138.23
52.202225,-2.188419,119.88,10.84,2,134.06,23 / 24,14041810,2020-01-08 16:09:25:404,1.0196,2.8024,10.0414,-0.027,-0.014,9.8066,0.0605,0.2227,-0.1765,-15.69,-33.69,20.5,5.2,-83.07,-138.34
52.202225,-2.188419,119.88,10.84,2,134.06,23 / 24,14041910,2020-01-08 16:09:25:504,-0.0877,2.959,8.7205,0.0006,0.0416,9.8065,0.0781,-0.2857,0.2021,-15.69,-33,20.19,2.48,-83.21,-139.25
52.202225,-2.188419,119.88,10.84,2,134.06,23 / 24,14042009,2020-01-08 16:09:25:603,2.4558,2.5768,10.2701,-0.048,0.0009,9.8064,0.1389,0.107,-0.0853,-15.25,-32.37,19.5,5.97,-83.29,-138.1
52.202225,-2.188419,119.88,10.84,2,134.06,23 / 24,14042110,2020-01-08 16:09:25:704,-1.2136,1.5225,9.3596,0.0184,0.0231,9.8066,-0.085,-0.3023,0.1667,-14.81,-32.25,18.94,2.99,-83.21,-139.21
52.202225,-2.188419,119.88,10.84,2,134.06,23 / 24,14042210,2020-01-08 16:09:25:804,-2.5783,0.6011,9.8848,-0.0111,0.0148,9.8066,0.0114,-0.0551,0.0424,-14.12,-32.31,19.31,5.41,-83.41,-139.09
52.202225,-2.188419,119.88,10.84,2,134.06,22 / 24,14042311,2020-01-08 16:09:25:905,-1.6545,0.9067,9.4841,0.0295,0.0263,9.8066,-0.0321,-0.2184,0.1705,-13.94,-33.56,19,6.55,-83.45,-138.18
52.202225,-2.188419,119.88,10.84,2,134.06,22 / 24,14042410,2020-01-08 16:09:26:004,-1.4788,-0.0204,10.5945,-0.0078,-0.005,9.8066,0.0353,-0.1131,0.087,-13.94,-33,19.5,7.6,-83.53,-138.61
52.202225,-2.188419,119.88,10.84,2,134.06,22 / 24,14042510,2020-01-08 16:09:26:104,0.7879,2.4495,8.2376,0.0107,0.0509,9.8065,0.0494,-0.152,0.1912,-15.19,-33.25,19.56,7,-83.84,-137.16
52.202225,-2.188419,119.88,10.84,2,134.06,22 / 24,14042610,2020-01-08 16:09:26:204,-2.0865,1.269,10.0784,-0.0335,0.0441,9.8064,0.0845,-0.2334,0.1193,-14.5,-33.62,20.25,12,-83.79,-134.87
52.202225,-2.188419,119.88,10.84,2,134.06,22 / 24,14042710,2020-01-08 16:09:26:304,-0.9087,1.7111,9.048,0.0213,0.0028,9.8066,-0.1438,-0.0938,0.1419,-14.56,-33.87,19.75,11.05,-83.66,-133.8
52.202225,-2.188419,119.88,10.84,2,134.06,22 / 24,14042810,2020-01-08 16:09:26:404,-0.9785,1.2118,9.5806,0.0007,-0.0025,9.8065,-0.0424,-0.0106,0.0289,-15.25,-33.5,20.19,11.96,-83.6,-132.99
52.202225,-2.188419,119.88,10.84,2,134.06,22 / 24,14042910,2020-01-08 16:09:26:504,0.1454,1.078,10.0642,0.0337,-0.0019,9.8065,0.0209,-0.0634,0.0284,-15.19,-33.94,19.88,12.07,-83.67,-132.93
52.202225,-2.188419,119.88,10.84,2,134.06,22 / 24,14043010,2020-01-08 16:09:26:604,-0.4676,0.6781,9.1998,0.007,-0.0026,9.8066,-0.0784,-0.0657,0.0394,-15.31,-34.31,19.69,9.64,-83.77,-134.97
52.202225,-2.188419,119.88,10.84,2,134.06,22 / 24,14043110,2020-01-08 16:09:26:704,-0.0635,1.0281,10.0707,-0.0037,0.0096,9.8066,0.0215,-0.0317,0.0042,-15.25,-34.12,19.81,10.62,-83.91,-134.09
