GPS LATITUDE (degrees), GPS LONGITUDE (degrees), GPS ALTITUDE (m), GPS SPEED (Kmh), GPS ACCURACY (m), GPS ORIENTATION (Â°),GPS SATELLITES IN RANGE, TIME SINCE START (ms), DATE (YYYY-MO-DD HH-MI-SS_SSS), ACCELEROMETER X (m/s²) , ACCELEROMETER Y (m/s²), ACCELEROMETER Z (m/s²), GRAVITY X (m/s²), GRAVITY Y (m/s²), GRAVITY Z (m/s²), GYROSCOPE Yaw (rad/s), GYROSCOPE Pitch (rad/s), GYROSCOPE Roll (rad/s), MAGNETIC FIELD X (Î¼T), MAGNETIC FIELD Y (Î¼T), MAGNETIC FIELD Z (Î¼T), ORIENTATION (Yaw) (Â°), ORIENTATION (Pitch) (Â°), ORIENTATION (Roll ) (Â°)
52.5595,-1.482788,138.52,12.92,4,29.26,25 / 25,2607,2019-11-08 09:20:26:236,-0.0716,-2.7477,10.5674,0.0243,0.0632,9.8064,-0.0214,0.4927,-0.237,-20,-43.19,31.81,350.47,-79.08,-155.31
52.5595,-1.482788,138.52,12.92,4,29.26,25 / 25,2707,2019-11-08 09:20:26:336,4.8404,6.7711,8.9985,0.0316,0.0107,9.8066,-0.0223,0.8745,-0.5287,-20.06,-42.5,30.38,348.8,-78.83,-154.79
52.5595,-1.482788,138.52,12.92,4,29.26,25 / 25,2808,2019-11-08 09:20:26:437,0.2017,0.742,9.4676,0.0732,0.0839,9.806,0.1146,-0.349,0.2108,-20.19,-41.94,30.75,346.74,-78.8,-157.28
52.5595,-1.482788,138.52,12.92,4,29.26,25 / 25,2907,2019-11-08 09:20:26:536,4.4292,5.1777,7.8086,-0.0149,-0.0371,9.8065,-0.0692,0.3481,-0.2188,-20.37,-42.75,30.63,348.18,-78.45,-156.01
52.5595,-1.482788,138.52,12.92,4,29.26,25 / 25,3007,2019-11-08 09:20:26:636,1.3211,0.7961,9.6865,-0.013,0.0368,9.8065,0.0287,-0.7467,0.422,-19.31,-42.62,30.44,349.04,-78.89,-155.87
52.5595,-1.482788,138.52,12.92,4,29.26,25 / 25,3108,2019-11-08 09:20:26:737,1.9307,1.4061,9.8211,-0.0063,0.0533,9.8065,0.0419,-0.4032,0.2864,-19.44,-43,30.75,351.74,-79.08,-154.76
52.5595,-1.482788,138.52,12.92,4,29.26,25 / 25,3207,2019-11-08 09:20:26:836,6.1093,1.9357,7.7019,0.0176,0.0687,9.8064,-0.041,-0.2601,0.1121,-20.12,-43.44,31.38,349.83,-79.37,-154.99
52.5595,-1.482788,138.52,12.92,4,29.26,25 / 25,3307,2019-11-08 09:20:26:936,-0.2789,-2.3815,11.05,0.0147,0.0984,9.8061,0.163,-0.7017,0.3319,-19.37,-42.94,30.44,350.3,-79.61,-155.09
52.5595,-1.482788,138.52,12.92,4,29.26,25 / 25,3407,2019-11-08 09:20:27:036,6.5134,4.3074,7.99,-0.022,0.0092,9.8065,-0.0236,0.4102,-0.3496,-19.69,-43.75,29.94,349.8,-79.63,-154.12
52.5595,-1.482788,138.52,12.92,4,29.26,25 / 25,3508,2019-11-08 09:20:27:137,-3.6897,0.2491,10.1264,0.0411,0.0868,9.8062,0.0731,-0.4044,0.1479,-19.87,-43.37,30.88,348.61,-79.8,-156.05
52.5595,-1.482788,138.52,12.92,4,29.26,25 / 25,3608,2019-11-08 09:20:27:237,-3.1513,-5.104,10.9235,-0.0368,-0.0983,9.806,-0.0465,0.8213,-0.5959,-20.06,-43.12,30.81,347.64,-79.62,-156.75
52.5595,-1.482788,138.52,12.92,4,29.26,25 / 25,3707,2019-11-08 09:20:27:336,3.4935,5.4789,8.1041,0.0626,0.0166,9.8063,-0.1401,0.249,-0.0747,-19.81,-44,30.94,345.86,-79.2,-157.94
52.5595,-1.482788,138.52,12.92,4,29.26,25 / 25,3807,2019-11-08 09:20:27:436,-1.191,1.0914,10.3851,-0.0318,-0.0675,9.8063,-0.1337,0.3878,-0.223,-19.94,-43.12,31.06,347.63,-79.12,-156.63
52.5595,-1.482788,138.52,12.92,4,29.26,25 / 25,3907,2019-11-08 09:20:27:536,-2.3564,-2.2971,10.8067,-0.0198,-0.0244,9.8066,-0.1413,0.4365,-0.3244,-19.75,-43.69,31.31,347.99,-79.45,-156.38
52.5595,-1.482788,138.52,12.92,4,29.26,25 / 25,4007,2019-11-08 09:20:27:636,-1.8511,-2.2558,10.6703,0.0047,-0.0611,9.8064,-0.1216,-0.0593,-0.0411,-20.06,-44.19,30.81,347.09,-79.63,-157.13
52.5595,-1.482788,138.52,12.92,4,29.26,25 / 25,4107,2019-11-08 09:20:27:736,-0.0605,-1.2188,9.9382,0.0026,0.014,9.8066,0.17,-0.0191,0.081,-19.87,-43.75,31.06,345.98,-79.46,-157.93
52.5595,-1.482788,138.52,12.92,4,29.26,25 / 25,4208,2019-11-08 09:20:27:837,-3.2297,-3.0246,11.1728,0.0148,0.0317,9.8066,0.2054,-0.3042,0.2344,-19.44,-43.81,32,347.47,-79.08,-158.83
52.5595,-1.482788,138.52,12.92,4,29.26,25 / 25,4307,2019-11-08 09:20:27:936,-0.9119,0.0535,9.6111,-0.0226,-0.0142,9.8066,0.0352,-0.2953,-0.0729,-19.62,-43.5,32,344.89,-79.03,-159.6
52.5595,-1.482788,138.52,12.92,4,29.26,25 / 25,4408,2019-11-08 09:20:28:037,0.8616,2.4787,9.1966,0.0112,0.0471,9.8064,-0.0158,-0.2044,0.1685,-19.87,-43.75,31.81,343.31,-79.21,-160.81
52.5595,-1.482788,138.52,12.92,4,29.26,24 / 25,4508,2019-11-08 09:20:28:137,-0.6027,-0.8596,10.3671,0.0046,0.023,9.8066,0.0007,-0.2527,0.1645,-20.44,-43.87,31.56,344.35,-79.23,-160.01
52.5595,-1.482788,138.52,12.92,4,29.26,24 / 25,4607,2019-11-08 09:20:28:236,1.7393,1.7406,9.1829,-0.0022,-0.0026,9.8066,-0.0426,0.2202,-0.1356,-20.37,-43.81,32.13,344.77,-79.27,-159.69
52.5595,-1.482788,138.52,12.92,4,29.26,24 / 25,4707,2019-11-08 09:20:28:336,0.875,-0.8211,10.8317,-0.0114,0.0114,9.8066,0.092,-0.039,-0.0349,-20,-43.44,31.94,344.33,-79.32,-160.13
52.5595,-1.482788,138.52,12.92,4,29.26,24 / 25,4807,2019-11-08 09:20:28:436,-2.3093,-1.0922,9.7106,-0.0466,-0.0203,9.8065,0.0141,0.374,-0.2818,-20.69,-43.94,32.13,342,-79.31,-160.65
52.5595,-1.482788,138.52,12.92,4,29.26,24 / 25,4907,2019-11-08 09:20:28:536,2.7554,1.8259,9.2847,-0.0006,-0.0118,9.8065,-0.0677,0.1007,0.0121,-20.5,-44,32.06,345.1,-79.29,-159.45
52.5595,-1.482788,138.52,12.92,4,29.26,24 / 25,5008,2019-11-08 09:20:28:637,0.4084,0.6292,9.4759,-0.0326,-0.0295,9.8065,-0.0525,0.2327,-0.1329,-20.37,-43.56,32,346.65,-79.42,-158.29
52.5595,-1.482788,138.52,12.92,4,29.26,24 / 25,5108,2019-11-08 09:20:28:737,0.6586,0.5212,10.1153,-0.0174,0.0056,9.8066,0.0127,0.0225,-0.1046,-20.69,-43.56,31.38,345.76,-79.46,-156.86
52.5595,-1.482788,138.52,12.92,4,29.26,24 / 25,5207,2019-11-08 09:20:28:836,-1.6838,-0.2979,9.5707,-0.0206,-0.0074,9.8065,0.0869,0.1575,-0.2025,-20.69,-43.81,31.13,344.82,-79.53,-157.61
52.5595,-1.482788,138.52,12.92,4,29.26,24 / 25,5308,2019-11-08 09:20:28:937,0.6526,1.0061,8.9919,0.0237,-0.0205,9.8065,-0.1047,0.1396,-0.0181,-20.62,-44.31,31.5,345.13,-79.45,-158.26
52.5595,-1.482788,138.52,12.92,4,29.26,24 / 25,5408,2019-11-08 09:20:29:037,1.7684,-0.7348,10.9245,0.002,-0.0284,9.8066,-0.0286,-0.1194,0.0484,-19.94,-43.62,31.63,346.98,-79.59,-158.08
52.5595,-1.482788,138.52,12.92,4,29.26,25 / 25,5508,2019-11-08 09:20:29:137,0.7637,1.0723,9.8211,0.0006,0.0017,9.8066,-0.0201,-0.0561,0.1348,-20.31,-44,31.81,347.63,-79.48,-157.55
52.5595,-1.482788,138.52,12.92,4,29.26,25 / 25,5608,2019-11-08 09:20:29:237,1.2617,0.26,9.7113,0.0182,0.0207,9.8065,-0.0553,-0.189,0.1788,-20.12,-43.19,31.69,349.3,-79.51,-156.31
52.5595,-1.482788,138.52,12.92,4,29.26,25 / 25,5708,2019-11-08 09:20:29:337,-2.9291,-0.265,9.38,0.0138,0.0064,9.8066,-0.0838,-0.0146,0.1235,-20.56,-43.56,31.63,347.85,-79.64,-156.18
52.5595,-1.482788,138.52,12.92,4,29.26,25 / 25,5807,2019-11-08 09:20:29:436,2.096,1.2386,10.6489,0.0408,0.0116,9.8065,-0.0254,-0.0753,0.1757,-20.19,-43.94,31.44,349.73,-79.77,-155.12
52.5595,-1.482788,138.52,12.92,4,29.26,25 / 25,5908,2019-11-08 09:20:29:537,1.2402,0.5344,10.8802,-0.018,-0.006,9.8065,0.1434,0.0131,-0.0662,-20.44,-44.06,31.75,349.53,-79.72,-156.13
52.5595,-1.482788,138.52,12.92,4,29.26,25 / 25,6007,2019-11-08 09:20:29:636,1.2875,1.5665,8.5615,-0.0125,0.0302,9.8065,0.06,0.0381,0.0345,-19.81,-43.56,31.19,347.33,-79.57,-156.92
52.5595,-1.482788,138.52,12.92,4,29.26,25 / 25,6107,2019-11-08 09:20:29:736,1.315,0.1579,10.2329,-0.0186,0.0099,9.8066,-0.0592,0.1806,-0.0925,-20.25,-43.94,31.25,347.97,-79.83,-156.5
52.5595,-1.482788,138.52,12.92,4,29.26,25 / 25,6208,2019-11-08 09:20:29:837,0.3289,0.7367,9.7115,-0.007,-0.0048,9.8066,0.0692,0.2046,-0.0889,-20.37,-44,30.69,348.04,-79.97,-156.48
52.5595,-1.482788,138.52,12.92,4,29.26,25 / 25,6308,2019-11-08 09:20:29:937,2.5451,1.3852,9.6601,-0.0049,-0.0161,9.8066,-0.0529,0.1402,-0.0767,-20.44,-43.62,30.38,346.49,-79.85,-156.73
52.5595,-1.482788,138.52,12.92,4,29.26,25 / 25,6407,2019-11-08 09:20:30:036,-0.4874,0.8094,9.8619,0.0035,-0.008,9.8066,0.0345,0.0506,-0.1071,-19.87,-43.44,31.38,347.26,-79.78,-157.1
52.5595,-1.482788,138.52,12.92,4,29.26,24 / 25,6507,2019-11-08 09:20:30:136,2.0735,2.2625,9.2625,0.0507,-0.0016,9.8065,-0.001,0.0389,0.1432,-19.69,-43.69,31.25,345.36,-79.72,-158.5
52.5595,-1.482788,138.52,12.92,4,29.26,24 / 25,6607,2019-11-08 09:20:30:236,3.0929,1.7841,9.1594,0.0079,0.0215,9.8066,-0.1404,0.1304,0.0102,-19.5,-43.06,30.88,347.21,-79.77,-158.43
52.5595,-1.482788,138.52,12.92,4,29.26,24 / 25,6707,2019-11-08 09:20:30:336,0.5463,1.1355,9.2654,0.0021,0.0456,9.8065,-0.0125,-0.1391,0.1613,-19.31,-43.62,30.56,347.55,-80.14,-158.2
52.5595,-1.482788,138.52,12.92,4,29.26,24 / 25,6807,2019-11-08 09:20:30:436,2.019,1.3987,9.4617,0.0148,-0.0199,9.8066,-0.0644,0.2592,0.0236,-19.87,-44,30.19,346.59,-80.22,-156.78
52.5595,-1.482788,138.52,12.92,4,29.26,24 / 25,6907,2019-11-08 09:20:30:536,3.3547,1.5572,10.6315,-0.0145,0.0105,9.8066,0.1075,0.229,-0.1148,-18.94,-43.87,30.69,350.03,-80.14,-156.27
52.5595,-1.482788,138.52,12.92,4,29.26,24 / 25,7008,2019-11-08 09:20:30:637,1.9904,1.864,8.9214,-0.0142,0.0169,9.8065,0.1259,-0.0137,0.1036,-18.62,-43.56,30.38,347.52,-79.91,-157.26
52.5595,-1.482788,138.52,12.92,4,29.26,24 / 25,7108,2019-11-08 09:20:30:737,1.2524,2.2761,9.2478,-0.0274,-0.0058,9.8065,-0.062,0.117,-0.1277,-18.87,-43.62,30.56,349.87,-80,-156.35
52.5595,-1.482788,138.52,12.92,4,29.26,24 / 25,7207,2019-11-08 09:20:30:836,2.8912,1.4477,10.0635,-0.0255,0.0048,9.8066,-0.0601,0.1693,-0.1514,-18.75,-44.19,29.94,350.38,-80.33,-155.14
52.5595,-1.482788,138.52,12.92,4,29.26,24 / 25,7308,2019-11-08 09:20:30:937,0.8974,1.5603,8.8849,0.0243,0.0152,9.8065,-0.1469,0.1505,0.1395,-18.12,-43.69,29.94,351.76,-80.54,-155.47
52.5595,-1.482788,138.52,12.92,4,29.26,24 / 25,7408,2019-11-08 09:20:31:037,2.5344,1.9671,9.4092,0.0262,0.0204,9.8066,-0.0261,0.0327,0.2003,-18.12,-43.19,29.25,353.44,-80.59,-153.3
52.5595,-1.482788,138.52,12.92,4,29.26,23 / 23,7507,2019-11-08 09:20:31:136,0.3392,0.5614,11.0199,-0.0322,0.0023,9.8065,0.12,-0.044,0.0062,-18.12,-44.12,29.63,355.51,-80.62,-152.55
52.5595,-1.482788,138.52,12.92,4,29.26,23 / 23,7608,2019-11-08 09:20:31:237,1.4095,1.4129,10.5116,-0.0036,-0.0165,9.8066,-0.0313,0.1182,0.005,-18.56,-43.5,29.44,352.82,-80.41,-152.37
52.5595,-1.482788,138.52,12.92,4,29.26,23 / 23,7708,2019-11-08 09:20:31:337,2.4757,1.8262,9.2206,-0.0113,-0.0048,9.8065,-0.0371,0.2192,-0.1178,-18,-43,29.94,356.47,-80.4,-151.79
52.5595,-1.482788,138.52,12.92,4,29.26,23 / 23,7808,2019-11-08 09:20:31:437,1.7751,1.0851,10.3463,-0.0071,0.0022,9.8066,-0.0413,0.1595,-0.1219,-18.37,-43.19,29.31,354.63,-80.46,-152.35
52.5595,-1.482788,138.52,12.92,4,29.26,23 / 23,7907,2019-11-08 09:20:31:536,0.6404,1.3713,9.9315,0.0169,0.0207,9.8066,0.0184,0.0634,0.05,-17.56,-43.5,29.13,353.88,-80.66,-152.96
52.5595,-1.482788,138.52,12.92,4,29.26,23 / 23,8007,2019-11-08 09:20:31:636,2.6493,0.1599,10.2644,-0.0059,0.0101,9.8066,0.014,0.2253,-0.0213,-17.5,-43.19,29.5,357.56,-80.75,-152.38
52.5595,-1.482788,138.52,12.92,4,29.26,23 / 23,8108,2019-11-08 09:20:31:737,1.3182,3.5344,8.8643,-0.0122,0.0027,9.8066,0.0301,0.0151,0.0277,-17.06,-43.25,29.75,358.96,-80.95,-151.28
52.5595,-1.482788,138.52,12.92,4,29.26,23 / 23,8207,2019-11-08 09:20:31:836,2.4043,1.1702,9.8428,-0.0181,-0.0108,9.8066,-0.0061,-0.0294,0.1328,-16.94,-43.12,29.25,359.66,-81.12,-149.89
52.5595,-1.482788,138.52,12.92,4,29.26,23 / 23,8307,2019-11-08 09:20:31:936,3.5754,2.0415,9.9382,-0.0242,-0.0046,9.8065,0.0642,0.0757,0.0668,-17.19,-43.69,29,1.22,-81.12,-148.66
52.5595,-1.482788,138.52,12.92,4,29.26,23 / 23,8408,2019-11-08 09:20:32:037,1.1896,1.1582,9.4397,-0.0077,-0.0024,9.8066,-0.021,0.0461,0.0556,-17.12,-43.56,28.94,1.37,-81.11,-148.55
52.5595,-1.482788,138.52,12.92,4,29.26,24 / 24,8508,2019-11-08 09:20:32:137,2.0454,2.098,9.8624,-0.0251,-0.0069,9.8065,-0.0734,0.2828,-0.1219,-16.81,-43.31,28.44,0.84,-81.08,-148.07
52.5595,-1.482788,138.52,12.92,4,29.26,24 / 24,8608,2019-11-08 09:20:32:237,3.0293,2.7353,9.9236,0.0073,0.0266,9.8066,0.0074,0.1176,-0.0172,-16.37,-43.69,28.81,4.35,-81.29,-147.69
52.5595,-1.482788,138.52,12.92,4,29.26,24 / 24,8708,2019-11-08 09:20:32:337,3.455,2.2794,10.0582,-0.0035,0.0187,9.8065,0.0012,0.3876,-0.2336,-16.44,-43,28,4.35,-81.63,-146.8
52.5595,-1.482788,138.52,12.92,4,29.26,24 / 24,8807,2019-11-08 09:20:32:436,3.677,1.0443,9.9192,0.0202,0.0323,9.8065,-0.007,0.2575,-0.0467,-15.69,-44.06,28.19,3.44,-81.72,-147.53
52.5595,-1.482788,138.52,12.92,4,29.26,24 / 24,8907,2019-11-08 09:20:32:536,1.5205,1.8343,9.6002,0.0043,0.0108,9.8066,0.031,0.2998,-0.0518,-15.69,-44.5,27.56,3.5,-81.78,-147.47
52.5595,-1.482788,138.52,12.92,4,29.26,24 / 24,9008,2019-11-08 09:20:32:637,2.9484,2.0097,8.9606,-0.002,0.0375,9.8065,-0.1503,0.3844,-0.1541,-15.81,-44,28.44,3.85,-81.85,-147.19
52.5595,-1.482788,138.52,12.92,4,29.26,24 / 24,9108,2019-11-08 09:20:32:737,2.9541,1.0408,9.6458,0.0134,0.0282,9.8065,-0.0111,0.1235,-0.0325,-15.12,-43.56,27.63,5.47,-82.17,-147.44
52.5595,-1.482788,138.52,12.92,4,29.26,24 / 24,9207,2019-11-08 09:20:32:836,2.9496,1.9368,9.5816,0.0078,-0.0082,9.8065,0.0825,0.1929,-0.0792,-14.5,-44.31,27.81,7.32,-82.3,-147.55
52.5595,-1.482788,138.52,12.92,4,29.26,24 / 24,9307,2019-11-08 09:20:32:936,3.762,0.6331,9.9816,0.0074,0.0134,9.8065,0.0513,0.0534,-0.063,-14.56,-44.56,27.38,4.65,-82.5,-147.22
52.5595,-1.482788,138.52,12.92,4,29.26,24 / 24,9408,2019-11-08 09:20:33:037,2.6802,1.1697,9.9236,0.0111,0.0046,9.8065,-0.0176,-0.0017,0.0585,-13.69,-43.69,27.88,8.22,-82.57,-146.78
52.5595,-1.482788,138.52,12.92,4,29.26,23 / 25,9508,2019-11-08 09:20:33:137,1.766,1.1492,9.9703,-0.0146,-0.014,9.8066,0.04,0.2051,-0.0647,-13.12,-44.12,27.81,9.57,-82.55,-147.37
52.5595,-1.482788,138.52,12.92,4,29.26,23 / 25,9607,2019-11-08 09:20:33:236,2.5302,-0.206,9.8702,0.0102,0.0061,9.8066,-0.0085,0.1716,-0.0256,-12.69,-44.5,28.19,6.81,-82.53,-149.6
52.5595,-1.482788,138.52,12.92,4,29.26,23 / 25,9707,2019-11-08 09:20:33:336,2.0651,0.7435,10.1987,0.0106,-0.0021,9.8066,-0.0316,0.3878,-0.1837,-13.12,-44.69,28.25,6.17,-82.49,-150.15
52.5595,-1.482788,138.52,12.92,4,29.26,23 / 25,9808,2019-11-08 09:20:33:437,3.5516,0.9519,9.5417,0.0161,0.0088,9.8066,-0.0197,0.2661,-0.0329,-12.31,-43.87,27.88,8.33,-82.49,-150.11
52.5595,-1.482788,138.52,12.92,4,29.26,23 / 25,9908,2019-11-08 09:20:33:537,2.7717,-0.2121,9.3516,-0.0022,0.0166,9.8066,-0.0676,0.2765,-0.1184,-12.25,-44.19,27.88,8.27,-82.57,-150.14
52.5595,-1.482788,138.52,12.92,4,29.26,23 / 25,10007,2019-11-08 09:20:33:636,1.3153,1.9239,9.1835,0.0123,0.0068,9.8065,0.0286,0.4783,-0.1526,-12.19,-44,27.69,7.69,-82.52,-150.62
52.5595,-1.482788,138.52,12.92,4,29.26,23 / 25,10107,2019-11-08 09:20:33:736,-1.6845,-1.6043,10.6696,0.0631,0.0411,9.8063,0.0053,0.1722,-0.0674,-11.62,-44.12,27.13,3.98,-82.64,-152.85
52.5595,-1.482788,138.52,12.92,4,29.26,23 / 25,10208,2019-11-08 09:20:33:837,1.4888,0.5104,9.9551,0.0106,-0.0001,9.8066,0.0349,0.3203,-0.1502,-11.69,-44,27.69,5.47,-82.42,-152.42
52.5595,-1.482788,138.52,12.92,4,29.26,23 / 25,10308,2019-11-08 09:20:33:937,-1.8955,-1.3957,11.7266,0.0186,-0.0181,9.8066,0.2207,-0.228,0.2994,-11.81,-43.94,27.56,5.37,-82.31,-152.51
52.5595,-1.482788,138.52,12.92,4,29.26,23 / 25,10408,2019-11-08 09:20:34:037,3.6015,-0.3252,9.6258,-0.0205,-0.042,9.8065,-0.0121,0.1908,-0.114,-12,-44.37,27.81,5.75,-82.25,-152.22
52.5595,-1.482788,138.52,12.92,4,29.26,23 / 24,10508,2019-11-08 09:20:34:137,3.0427,-0.3355,11.2634,-0.0037,-0.0101,9.8065,0.0258,-0.5274,0.3323,-11.44,-43.81,27.94,8.64,-81.87,-151.78
52.5595,-1.482788,138.52,12.92,4,29.26,23 / 24,10608,2019-11-08 09:20:34:237,-4.246,-1.6082,10.2927,-0.0757,-0.0484,9.8062,0.0962,-0.4075,0.3542,-11.81,-44.12,28,3.06,-81.89,-154.39
52.5595,-1.482788,138.52,12.92,4,29.26,23 / 24,10707,2019-11-08 09:20:34:336,2.0208,-0.8501,11.4685,-0.0185,-0.0778,9.8062,-0.0152,-0.1865,0.1943,-11.19,-43.5,27.88,6.63,-81.51,-153.39
52.5595,-1.482788,138.52,12.92,4,29.26,23 / 24,10807,2019-11-08 09:20:34:436,-0.7288,-3.7982,9.9946,-0.0192,-0.0277,9.8066,0.1824,-0.3354,0.2332,-11.12,-43.19,28.38,6.41,-81.82,-153.5
52.5595,-1.482788,138.52,12.92,4,29.26,23 / 24,10907,2019-11-08 09:20:34:536,-2.7729,0.7201,8.5294,-0.0332,-0.0177,9.8065,0.1158,0.5058,-0.367,-11.19,-42.25,28.31,8.93,-81.89,-151.47
52.5595,-1.482788,138.52,12.92,4,29.26,23 / 24,11007,2019-11-08 09:20:34:636,5.1403,0.5639,9.4769,0.0662,0.0359,9.8063,-0.0523,0.4705,-0.1418,-12.75,-41.12,27.38,3.1,-82.1,-151.81
52.5595,-1.482788,138.52,12.92,4,29.26,23 / 24,11108,2019-11-08 09:20:34:737,-0.9596,-3.2097,12.2743,0.0516,0.0156,9.8064,0.046,0.2267,-0.0793,-11.75,-40.81,28.38,3.62,-81.8,-153.92
52.5595,-1.482788,138.52,12.92,4,29.26,23 / 24,11207,2019-11-08 09:20:34:836,5.3495,0.321,9.9861,0.0212,0.0013,9.8066,-0.0483,0.472,-0.2327,-10.94,-40.69,28.38,4.9,-81.64,-154.68
52.5595,-1.482788,138.52,12.92,4,29.26,23 / 24,11308,2019-11-08 09:20:34:937,1.1569,-0.4429,9.5644,0.0416,0.0368,9.8065,0.0135,-0.199,0.1038,-10.44,-39.56,28.38,6.79,-81.7,-154.94
52.5595,-1.482788,138.52,12.92,4,29.26,23 / 24,11408,2019-11-08 09:20:35:037,-0.9177,-0.0767,9.9131,-0.0182,-0.0171,9.8066,0.0401,-0.0179,0.0212,-12.06,-39.5,29,3.06,-82.12,-155.01
52.560585,-1.482209,138.01,16.81,6,350.26,23 / 25,11507,2019-11-08 09:20:35:136,3.1992,1.0645,8.974,0.0043,0.0044,9.8066,0.0552,-0.0615,0.1193,-11.19,-41,28.06,3.09,-82.35,-156.05
52.560585,-1.482209,138.01,16.81,6,350.26,23 / 25,11608,2019-11-08 09:20:35:237,3.6566,0.641,10.3074,-0.018,-0.0207,9.8065,-0.0466,0.0645,-0.0059,-10,-42.56,27.81,2.5,-82.46,-158.34
52.560585,-1.482209,138.01,16.81,6,350.26,23 / 25,11707,2019-11-08 09:20:35:336,4.0077,0.767,9.7695,0.0078,-0.0122,9.8066,0.1064,-0.2761,0.1742,-9.06,-43.69,28.19,3,-82.25,-159.81
52.560585,-1.482209,138.01,16.81,6,350.26,23 / 25,11807,2019-11-08 09:20:35:436,-0.9092,-1.8445,10.3798,-0.0393,-0.027,9.8064,0.076,-0.2761,0.2449,-8.25,-44.31,28.19,2.34,-82.19,-162.22
52.560585,-1.482209,138.01,16.81,6,350.26,23 / 25,11907,2019-11-08 09:20:35:536,3.7796,0.9131,8.7999,-0.0323,-0.0027,9.8065,-0.0273,-0.0026,0.0507,-8.62,-44.75,28.31,0.68,-82.23,-161.65
52.560585,-1.482209,138.01,16.81,6,350.26,23 / 25,12007,2019-11-08 09:20:35:636,-0.069,0.1115,9.3537,-0.0133,0.0158,9.8065,-0.022,-0.1014,0.1331,-7.56,-44.69,28,2.16,-82.54,-162.35
52.560585,-1.482209,138.01,16.81,6,350.26,23 / 25,12107,2019-11-08 09:20:35:736,3.6157,-0.2547,8.9184,-0.0133,-0.0274,9.8065,-0.0444,0.1349,0.0376,-7.37,-44.37,28.5,4.14,-82.56,-163.12
52.560585,-1.482209,138.01,16.81,6,350.26,23 / 25,12208,2019-11-08 09:20:35:837,2.7314,1.1135,9.2466,0,0.0044,9.8065,0.023,-0.0561,0.0709,-7.62,-44.56,28.13,359.21,-82.6,-164.68
52.560585,-1.482209,138.01,16.81,6,350.26,23 / 25,12308,2019-11-08 09:20:35:937,3.45,-0.3208,8.7906,-0.0042,-0.0178,9.8065,-0.082,0.271,-0.0674,-7.31,-44.56,27.63,0.41,-82.58,-165.64
52.560585,-1.482209,138.01,16.81,6,350.26,23 / 25,12407,2019-11-08 09:20:36:036,2.4599,0.0842,9.7816,0.0086,0.0068,9.8066,0.0156,0.1579,-0.036,-7.37,-44.87,28.69,359.8,-82.59,-166.59
52.560585,-1.482209,138.01,16.81,6,350.26,25 / 26,12508,2019-11-08 09:20:36:137,-0.5469,-0.5141,10.2519,0.0165,0.0223,9.8065,-0.0278,0.3609,-0.1352,-7.37,-44.37,29,359.64,-82.75,-166.72
52.560585,-1.482209,138.01,16.81,6,350.26,25 / 26,12608,2019-11-08 09:20:36:237,1.6845,0.0968,9.8586,0.0399,-0.0144,9.8065,0.0082,0.3333,-0.1705,-7.31,-44.56,28.5,1.39,-82.57,-165.32
52.560585,-1.482209,138.01,16.81,6,350.26,25 / 26,12708,2019-11-08 09:20:36:337,-2.0838,-1.4129,10.1641,0.0313,0.0116,9.8066,0.0749,0.1766,-0.0678,-7.12,-44.56,28.31,358.52,-82.4,-167.12
52.560585,-1.482209,138.01,16.81,6,350.26,25 / 26,12808,2019-11-08 09:20:36:437,2.1842,0.442,10.0743,0.0157,0.0158,9.8066,-0.0361,0.4145,-0.2234,-7,-44.56,28.63,1.49,-82.42,-165.25
52.560585,-1.482209,138.01,16.81,6,350.26,25 / 26,12908,2019-11-08 09:20:36:537,-0.0864,-0.1171,9.6579,0.0417,0.0211,9.8065,-0.0067,-0.0528,0.0741,-6.75,-44.81,28.56,2.17,-82.52,-164.7
52.560585,-1.482209,138.01,16.81,6,350.26,25 / 26,13007,2019-11-08 09:20:36:636,-1.4094,-0.3106,10.2789,-0.0021,0.0087,9.8066,0.0057,0.1744,-0.1368,-7.25,-44.5,28.19,2.01,-82.45,-164.37
52.560585,-1.482209,138.01,16.81,6,350.26,25 / 26,13108,2019-11-08 09:20:36:737,-2.0605,-0.5581,10.2565,0.0317,0.018,9.8065,0,-0.246,0.1606,-7.31,-45,28.25,1.33,-82.59,-164.91
52.560585,-1.482209,138.01,16.81,6,350.26,25 / 26,13208,2019-11-08 09:20:36:837,0.0438,-0.7388,10.1189,-0.0102,-0.0107,9.8066,0.0161,-0.049,-0.0379,-6.81,-44.81,28.31,357.15,-82.79,-168.23
52.560585,-1.482209,138.01,16.81,6,350.26,25 / 26,13308,2019-11-08 09:20:36:937,4.8153,0.2473,9.59,0.011,-0.0137,9.8066,0.0054,-0.2658,0.1942,-6.87,-44.62,28.38,353.98,-82.85,-170.77
52.560585,-1.482209,138.01,16.81,6,350.26,25 / 26,13408,2019-11-08 09:20:37:037,0.6648,0.0988,10.9531,-0.0278,-0.016,9.8066,0.0682,-0.1756,0.1534,-6,-44.81,28.56,353.8,-82.9,-173.3
52.560585,-1.482209,138.01,16.81,6,350.26,24 / 26,13508,2019-11-08 09:20:37:137,4.222,-0.4831,10.7013,-0.0158,-0.0155,9.8066,0.0485,-0.087,0.0287,-6.06,-44.81,28.94,353.27,-82.77,-173.7
52.560585,-1.482209,138.01,16.81,6,350.26,24 / 26,13608,2019-11-08 09:20:37:237,-0.5322,-1.12,10.1258,-0.0127,-0.006,9.8066,-0.0533,-0.2893,0.2371,-6.12,-44.69,28.88,352.27,-82.66,-174.48
52.560585,-1.482209,138.01,16.81,6,350.26,24 / 26,13707,2019-11-08 09:20:37:336,-0.961,0.0924,10.3505,-0.0394,-0.0088,9.8065,-0.0203,0.3027,-0.2127,-5.31,-44.62,28.69,355.13,-82.61,-174.09
52.560585,-1.482209,138.01,16.81,6,350.26,24 / 26,13807,2019-11-08 09:20:37:436,-3.2977,0.5794,9.5629,0.0477,0.02,9.8064,-0.0608,0.0458,-0.0212,-5.5,-44.94,28.94,353.15,-82.56,-175.66
52.560585,-1.482209,138.01,16.81,6,350.26,24 / 26,13907,2019-11-08 09:20:37:536,-1.537,-0.7911,9.9907,0.0067,0.0339,9.8066,-0.1299,0.4945,-0.3306,-5.06,-45.12,28.88,350.05,-82.76,-178.18
52.560585,-1.482209,138.01,16.81,6,350.26,24 / 26,14007,2019-11-08 09:20:37:636,3.5816,0.7156,8.6425,0.0475,0.0434,9.8064,-0.1095,0.4851,-0.2275,-5.19,-45.12,28.31,346.47,-83,179.28
52.560585,-1.482209,138.01,16.81,6,350.26,24 / 26,14107,2019-11-08 09:20:37:736,-2.5458,-0.2016,10.079,0.0516,0.02,9.8064,0.0148,0.0583,-0.0541,-5.37,-44.12,27.88,345.51,-82.95,178.47
52.560585,-1.482209,138.01,16.81,6,350.26,24 / 26,14208,2019-11-08 09:20:37:837,4.0185,0.9909,9.6017,0.0202,-0.0145,9.8066,0.0441,0.471,-0.2844,-5.19,-45.06,28.56,346.39,-82.86,178.84
52.560585,-1.482209,138.01,16.81,6,350.26,24 / 26,14308,2019-11-08 09:20:37:937,-2.9441,0.715,9.081,0.0621,-0.0024,9.8064,0.1417,-0.1352,-0.0197,-5.44,-44.31,28.81,344.12,-82.84,176.94
52.560585,-1.482209,138.01,16.81,6,350.26,24 / 26,14407,2019-11-08 09:20:38:036,-1.0087,0.5739,10.7209,0.0312,-0.0233,9.8065,0.0962,-0.1906,-0.1182,-5.25,-44.12,29.19,343.13,-82.61,176.25
52.560585,-1.482209,138.01,16.81,6,350.26,24 / 26,14507,2019-11-08 09:20:38:136,-1.7401,1.0926,9.6325,-0.0114,-0.0255,9.8066,0.0707,0.0808,-0.0563,-5,-44.31,28.56,344.27,-82.54,177.2
52.560585,-1.482209,138.01,16.81,6,350.26,24 / 26,14607,2019-11-08 09:20:38:236,-1.2792,-0.1909,10.7392,0.0099,-0.014,9.8066,0.0551,-0.0239,0.0611,-4.75,-44.81,28.81,344.31,-82.5,177.31
52.560585,-1.482209,138.01,16.81,6,350.26,24 / 26,14707,2019-11-08 09:20:38:336,-1.842,-0.5241,9.4763,0.0074,-0.0001,9.8066,0.0207,0.0131,-0.0217,-4.87,-44.37,28.63,343.36,-82.44,176.51
52.560585,-1.482209,138.01,16.81,6,350.26,24 / 26,14807,2019-11-08 09:20:38:436,-1.0555,0.4363,9.6775,0.0349,0.0152,9.8065,-0.0189,-0.2154,-0.0522,-4.81,-44.62,29,343.21,-82.54,176.42
52.560585,-1.482209,138.01,16.81,6,350.26,24 / 26,14908,2019-11-08 09:20:38:537,-2.6463,-1.1042,9.6975,-0.0017,0.0054,9.8066,-0.0235,0.1406,-0.1135,-4.31,-44.94,28.06,342.33,-82.68,174.12
52.560585,-1.482209,138.01,16.81,6,350.26,24 / 26,15007,2019-11-08 09:20:38:636,-1.4668,-1.0035,9.782,0.0365,0.0186,9.8065,0.0016,0.0039,-0.129,-4.94,-44.19,28,334.13,-82.73,169.34
52.560585,-1.482209,138.01,16.81,6,350.26,24 / 26,15107,2019-11-08 09:20:38:736,-3.049,0.6867,9.8635,0.0385,0.0026,9.8065,-0.0455,0.0919,-0.1505,-4.81,-44.25,27.63,331.93,-82.63,167.62
52.560585,-1.482209,138.01,16.81,6,350.26,24 / 26,15207,2019-11-08 09:20:38:836,-0.085,0.834,9.4512,0.0367,0.0085,9.8065,-0.001,-0.0168,-0.1173,-4.12,-44.25,28.5,333.44,-82.57,166.49
52.560585,-1.482209,138.01,16.81,6,350.26,24 / 26,15307,2019-11-08 09:20:38:936,-2.3742,0.3485,10.2907,0.0031,-0.0098,9.8066,-0.0466,-0.0048,-0.0666,-4.31,-44.37,28.56,332.03,-82.4,165.45
52.560585,-1.482209,138.01,16.81,6,350.26,24 / 26,15408,2019-11-08 09:20:39:037,-0.7355,0.4004,9.4741,-0.0015,0.0059,9.8066,-0.0216,-0.0398,0.0313,-4.5,-44.94,28.94,331.61,-82.36,165.26
52.560585,-1.482209,138.01,16.81,6,350.26,24 / 25,15508,2019-11-08 09:20:39:137,-1.1726,-0.7178,9.5423,0.0168,-0.0021,9.8065,-0.0538,0.0365,-0.0979,-4.69,-44.94,29.19,328.94,-82.31,165.03
52.560585,-1.482209,138.01,16.81,6,350.26,24 / 25,15608,2019-11-08 09:20:39:237,-1.9931,-0.6919,10.0449,0.0284,0.0202,9.8065,-0.0166,0.0519,-0.0589,-5.19,-44.19,28.56,326.95,-82.26,163.29
52.560585,-1.482209,138.01,16.81,6,350.26,24 / 25,15708,2019-11-08 09:20:39:337,-2.3145,0.0837,9.578,0.0354,0.0085,9.8065,-0.0224,0.1434,-0.133,-4.19,-45.06,28.69,326.97,-82.11,161.7
52.560585,-1.482209,138.01,16.81,6,350.26,24 / 25,15807,2019-11-08 09:20:39:436,1.1618,0.4546,10.0599,0.0657,0.0174,9.8064,-0.002,-0.283,0.1348,-4.37,-44.62,28.5,325.58,-82.09,160.57
52.560585,-1.482209,138.01,16.81,6,350.26,24 / 25,15907,2019-11-08 09:20:39:536,-0.7434,0.452,10.2802,0.0317,0.0108,9.8065,0.0664,-0.2745,0.1166,-4.62,-44.87,28.25,317.89,-81.87,156.97
52.560585,-1.482209,138.01,16.81,6,350.26,24 / 25,16008,2019-11-08 09:20:39:637,0.7832,1.9592,9.7297,0.0433,0.0213,9.8065,0.0744,-0.301,0.1189,-4.25,-44.31,28.06,319.74,-81.73,156.52
52.560585,-1.482209,138.01,16.81,6,350.26,24 / 25,16107,2019-11-08 09:20:39:736,-3.5753,-1.1671,10.6644,0.0288,0.0194,9.8065,0.066,-0.374,0.1778,-4.75,-44,27.94,316.78,-81.64,156.11
52.560585,-1.482209,138.01,16.81,6,350.26,24 / 25,16207,2019-11-08 09:20:39:836,-3.7837,-0.6625,9.6135,0.0016,0.0089,9.8066,0.1116,-0.1319,-0.0763,-4.94,-44.12,28.13,315.39,-81.53,155.09
52.560585,-1.482209,138.01,16.81,6,350.26,24 / 25,16307,2019-11-08 09:20:39:936,-5.8449,-2.1039,9.9823,0.0542,0.0204,9.8064,0.1025,-0.5136,0.2991,-4.44,-43.69,28.56,317.27,-81.3,154.37
52.560585,-1.482209,138.01,16.81,6,350.26,24 / 25,16407,2019-11-08 09:20:40:036,-3.8661,-1.6296,10.0595,-0.007,-0.0181,9.8066,-0.0425,0.2915,-0.2328,-4.69,-44.75,28.31,315.23,-81.27,155.48
52.560585,-1.482209,138.01,16.81,6,350.26,23 / 24,16507,2019-11-08 09:20:40:136,0.748,1.1043,9.6725,0.0489,-0.0066,9.8065,-0.0719,-0.1904,0.0625,-4.87,-44.75,28.5,315.15,-81.03,155.03
52.560585,-1.482209,138.01,16.81,6,350.26,23 / 24,16607,2019-11-08 09:20:40:236,-2.9087,-0.6458,9.9887,-0.0006,-0.0231,9.8065,-0.0925,0.2028,-0.1428,-4.94,-44.69,27.69,312.84,-81.04,153.79
52.560585,-1.482209,138.01,16.81,6,350.26,23 / 24,16707,2019-11-08 09:20:40:336,-0.1288,-0.414,9.5968,0.0174,-0.0074,9.8066,0.0039,0.0727,-0.0983,-5.37,-44.62,27.81,312.02,-80.88,153.32
52.560585,-1.482209,138.01,16.81,6,350.26,23 / 24,16807,2019-11-08 09:20:40:436,-2.184,-0.3791,10.4076,0.003,-0.0306,9.8065,-0.0596,-0.1795,-0.0167,-5.56,-44.69,28.31,308.5,-80.72,152.49
52.560585,-1.482209,138.01,16.81,6,350.26,23 / 24,16908,2019-11-08 09:20:40:537,-1.0071,-0.6262,10.1107,0.0063,-0.0066,9.8066,-0.0077,0.0478,-0.0022,-5.12,-44.12,28.38,311.02,-80.54,152.68
52.560585,-1.482209,138.01,16.81,6,350.26,23 / 24,17007,2019-11-08 09:20:40:636,-1.8047,-0.7657,9.6741,0.03,0.0187,9.8065,0.0063,-0.2867,0.2499,-5.62,-44.06,28.56,310.22,-80.61,153.04
52.560585,-1.482209,138.01,16.81,6,350.26,23 / 24,17107,2019-11-08 09:20:40:736,-0.2642,-0.2207,10.2439,-0.0326,-0.0084,9.8065,0.0226,-0.1032,-0.12,-5.94,-44,28.31,308.55,-80.65,152.37
52.560585,-1.482209,138.01,16.81,6,350.26,23 / 24,17208,2019-11-08 09:20:40:837,-1.9244,-1.2425,10.1398,0.0367,0.0088,9.8065,0.0083,-0.5185,0.2179,-5.81,-44.06,28,306.31,-80.35,150.89
52.560585,-1.482209,138.01,16.81,6,350.26,23 / 24,17307,2019-11-08 09:20:40:936,-6.3155,-1.9036,9.6887,0.0058,0.0126,9.8065,0.0762,-0.3345,0.1638,-5.56,-43.5,28.69,308.24,-80.44,151.33
52.560585,-1.482209,138.01,16.81,6,350.26,23 / 24,17407,2019-11-08 09:20:41:036,-3.5157,0.1457,9.3421,0.0246,0.0123,9.8065,0.0259,-0.2477,0.1581,-7.31,-43.31,29.19,306.84,-80.42,151.97
52.560585,-1.482209,138.01,16.81,6,350.26,25 / 25,17508,2019-11-08 09:20:41:137,-3.6098,-1.6905,10.0606,-0.0184,0.0133,9.8066,0.08,-0.3153,0.0237,-6.75,-44,28,305.17,-80.29,151.85
52.560585,-1.482209,138.01,16.81,6,350.26,25 / 25,17608,2019-11-08 09:20:41:237,-4.5656,-2.037,8.8902,-0.0339,-0.0111,9.8065,0.0489,0.0271,-0.1025,-7.37,-44.44,28.25,305.05,-80.34,151.67
52.560585,-1.482209,138.01,16.81,6,350.26,25 / 25,17707,2019-11-08 09:20:41:336,-3.0102,-1.7209,10.2067,-0.0189,0.008,9.8065,0.0457,0.0875,-0.1074,-7.75,-44.62,28.44,303.64,-80.42,152.45
52.560585,-1.482209,138.01,16.81,6,350.26,25 / 25,17808,2019-11-08 09:20:41:437,-2.3315,-0.0376,8.6682,-0.0338,-0.0017,9.8065,0.1826,-0.177,-0.0479,-8.06,-44.62,28.69,302.72,-80.25,150.96
52.560585,-1.482209,138.01,16.81,6,350.26,25 / 25,17907,2019-11-08 09:20:41:536,-2.9057,-1.7659,10.1023,-0.0145,-0.0178,9.8066,-0.0003,-0.3315,-0.1065,-8.19,-44.5,29.31,304.46,-80.27,152.15
52.560585,-1.482209,138.01,16.81,6,350.26,25 / 25,18007,2019-11-08 09:20:41:636,-1.4874,-0.7392,10.1385,0.0329,-0.0154,9.8065,-0.0146,-0.1139,-0.1123,-7.44,-44.62,29.19,303.01,-79.7,150.23
52.560585,-1.482209,138.01,16.81,6,350.26,25 / 25,18107,2019-11-08 09:20:41:736,-1.4041,-2.6845,9.794,0.017,0.0191,9.8066,0.0569,-0.1959,0.0703,-8.37,-44.31,29.5,301.39,-79.62,149.5
52.560585,-1.482209,138.01,16.81,6,350.26,25 / 25,18207,2019-11-08 09:20:41:836,-2.1928,-0.8759,8.88,-0.0192,-0.0057,9.8065,-0.0668,-0.121,0.0843,-8.25,-44.94,29.5,301.73,-79.6,150.1
52.560585,-1.482209,138.01,16.81,6,350.26,25 / 25,18308,2019-11-08 09:20:41:937,-2.407,-2.0962,10.3658,-0.0128,0.0108,9.8066,0.1073,-0.0944,0.023,-9.31,-44.56,29.13,300.09,-79.85,150.95
52.560585,-1.482209,138.01,16.81,6,350.26,25 / 25,18407,2019-11-08 09:20:42:036,-3.1498,-1.6864,9.6499,0.0082,0.0103,9.8066,0.0835,-0.1003,0.0076,-8.62,-44.31,29.06,301.05,-79.78,151.57
52.560585,-1.482209,138.01,16.81,6,350.26,24 / 25,18507,2019-11-08 09:20:42:136,-3.2495,-1.1476,10.7441,0.0118,-0.0126,9.8066,0.0649,-0.1062,0.0206,-8.87,-44.12,29.69,301.76,-79.6,151.49
52.560585,-1.482209,138.01,16.81,6,350.26,24 / 25,18608,2019-11-08 09:20:42:237,-2.1055,-2.952,10.3121,-0.0211,-0.0118,9.8065,-0.0914,-0.2096,0.1649,-9.44,-45,29.88,301.51,-79.53,151.65
52.560585,-1.482209,138.01,16.81,6,350.26,24 / 25,18707,2019-11-08 09:20:42:336,-2.1431,-1.897,9.7219,-0.0447,0.0047,9.8065,0.0482,-0.1551,0.0876,-10.5,-44.5,29.81,303.36,-80.15,153.78
52.560585,-1.482209,138.01,16.81,6,350.26,24 / 25,18807,2019-11-08 09:20:42:436,-2.4341,-1.7615,9.5647,-0.0092,0.0038,9.8066,0.0388,-0.1049,0.0434,-10.81,-44.5,30,303.34,-80.23,155.23
52.560585,-1.482209,138.01,16.81,6,350.26,24 / 25,18908,2019-11-08 09:20:42:537,-2.7172,-2.5205,9.6845,-0.0187,-0.0093,9.8065,0.0151,-0.2014,0.0324,-11,-44.31,29.25,303.73,-80.33,156.43
52.560585,-1.482209,138.01,16.81,6,350.26,24 / 25,19008,2019-11-08 09:20:42:637,-3.7393,-1.8274,9.6655,-0.0117,-0.0079,9.8066,-0.0946,-0.0985,0.0149,-11.25,-44.5,30.38,305.72,-80.47,157
52.560585,-1.482209,138.01,16.81,6,350.26,24 / 25,19108,2019-11-08 09:20:42:737,-2.9013,-1.7256,9.198,-0.0231,0.0135,9.8065,-0.0606,-0.11,0.1009,-11.87,-44.44,29.94,304.87,-80.81,157.39
52.560585,-1.482209,138.01,16.81,6,350.26,24 / 25,19207,2019-11-08 09:20:42:836,-0.3321,-2.7339,9.8753,0.0284,0.006,9.8065,-0.027,-0.0552,0.0474,-12.5,-44.94,29.94,306.11,-81.09,158.35
52.560585,-1.482209,138.01,16.81,6,350.26,24 / 25,19307,2019-11-08 09:20:42:936,-1.8608,-2.1098,9.4121,-0.0007,0.0017,9.8066,-0.0426,-0.1259,0.0038,-11.94,-44.69,30.13,304.43,-80.98,157.03
52.560585,-1.482209,138.01,16.81,6,350.26,24 / 25,19407,2019-11-08 09:20:43:036,-1.1609,-1.6785,9.095,-0.0106,0.011,9.8066,0.0034,-0.1254,0.0378,-12.25,-44.56,29.31,303.18,-81.09,156.78
52.560585,-1.482209,138.01,16.81,6,350.26,24 / 25,19508,2019-11-08 09:20:43:137,-1.0294,-1.4924,9.3791,-0.0218,-0.0018,9.8065,-0.004,-0.0482,0.0806,-12.25,-44.44,29.63,304.22,-81.09,156.47
52.560585,-1.482209,138.01,16.81,6,350.26,24 / 25,19608,2019-11-08 09:20:43:237,-1.4512,-1.5391,9.8257,-0.0087,0.0044,9.8066,0.0431,-0.1685,0.039,-12.25,-45,29.63,305.91,-81.26,157.98
52.560585,-1.482209,138.01,16.81,6,350.26,24 / 25,19707,2019-11-08 09:20:43:336,-1.3125,-2.089,9.1784,-0.0352,0.0042,9.8065,-0.0178,-0.0966,0.1074,-13.19,-45.19,30,305.73,-81.33,159.25
52.560585,-1.482209,138.01,16.81,6,350.26,24 / 25,19807,2019-11-08 09:20:43:436,-1.0299,-1.4229,9.1269,-0.0172,0.0021,9.8066,-0.0108,-0.0222,-0.0264,-13.62,-44.94,30.31,306.93,-81.7,161.32
52.560585,-1.482209,138.01,16.81,6,350.26,24 / 25,19908,2019-11-08 09:20:43:537,-1.9011,-1.27,9.5301,-0.0067,0.012,9.8066,0.0586,-0.1599,-0.029,-13,-44.19,29.94,309.58,-81.83,161.82
52.560585,-1.482209,138.01,16.81,6,350.26,24 / 25,20012,2019-11-08 09:20:43:641,-1.5064,-2.0221,9.9116,0.0119,-0.005,9.8066,-0.0313,-0.1613,-0.0494,-13.31,-44.25,30.63,309.73,-81.87,161
52.560585,-1.482209,138.01,16.81,6,350.26,24 / 25,20107,2019-11-08 09:20:43:736,-0.9416,-1.715,9.9898,-0.0038,0.0043,9.8066,-0.0602,0.0806,-0.0005,-13.87,-45.31,29.81,305.91,-81.82,160.28
52.560585,-1.482209,138.01,16.81,6,350.26,24 / 25,20207,2019-11-08 09:20:43:836,-0.021,-0.3677,10.1886,0.0248,-0.0138,9.8066,-0.066,-0.0326,0.1822,-13.62,-44.87,30.06,305.99,-81.86,160.3
52.560585,-1.482209,138.01,16.81,6,350.26,24 / 25,20308,2019-11-08 09:20:43:937,0.1598,-1.0722,10.048,-0.0369,-0.0297,9.8065,0.0516,-0.0688,-0.1156,-13.56,-44.56,29.69,308.04,-81.97,161.98
52.560585,-1.482209,138.01,16.81,6,350.26,24 / 25,20407,2019-11-08 09:20:44:036,0.2907,-0.2745,8.4667,-0.0257,0.0124,9.8065,0.001,-0.2298,0.0951,-13.75,-44.25,29.94,308.34,-81.9,162.14
52.561913,-1.482568,138.03,17.17,4,16.2,24 / 25,20507,2019-11-08 09:20:44:136,-0.9107,-0.3469,9.0052,-0.0394,0.0106,9.8065,0.0347,-0.0762,0.0676,-14.69,-44.44,30.19,309.21,-82.27,163.93
52.561913,-1.482568,138.03,17.17,4,16.2,24 / 25,20608,2019-11-08 09:20:44:237,-0.099,-0.2655,9.8811,-0.0287,0.0114,9.8065,0.1103,-0.1611,-0.0413,-14.62,-44.56,29,309.65,-82.46,165.29
52.561913,-1.482568,138.03,17.17,4,16.2,24 / 25,20708,2019-11-08 09:20:44:337,-0.0158,-1.5577,11.2929,0.0359,0.002,9.8065,0.0935,-0.2584,0.1656,-14.87,-44.37,29.63,310.99,-82.43,165.34
52.561913,-1.482568,138.03,17.17,4,16.2,24 / 25,20808,2019-11-08 09:20:44:437,-2.6562,-2.0473,9.5205,-0.0171,-0.0251,9.8066,0.0607,0.246,-0.1568,-15,-44.37,30.06,314.1,-82.2,168.31
52.561913,-1.482568,138.03,17.17,4,16.2,24 / 25,20908,2019-11-08 09:20:44:537,-0.3846,0.755,8.3552,0.0167,-0.0077,9.8066,-0.147,-0.0237,0.0148,-15.06,-44.44,29.5,314.92,-82.15,169.08
52.561913,-1.482568,138.03,17.17,4,16.2,24 / 25,21008,2019-11-08 09:20:44:637,-1.9264,-4.3139,11.1668,-0.0294,-0.077,9.8062,-0.1292,0.4115,-0.1619,-15.5,-44.31,29.5,316.61,-82.25,170.45
52.561913,-1.482568,138.03,17.17,4,16.2,24 / 25,21109,2019-11-08 09:20:44:738,0.7349,-0.3011,9.3245,-0.0086,-0.0479,9.8065,-0.2045,0.3999,-0.1022,-15.87,-44.31,29.5,320.63,-82.05,175.52
52.561913,-1.482568,138.03,17.17,4,16.2,24 / 25,21207,2019-11-08 09:20:44:836,-3.9301,-3.5188,11.0481,-0.0189,-0.0429,9.8064,-0.0452,0.1337,-0.0076,-16.06,-43.94,29.31,321.56,-82.3,177.08
52.561913,-1.482568,138.03,17.17,4,16.2,24 / 25,21308,2019-11-08 09:20:44:937,0.393,-1.2741,9.376,-0.041,-0.0708,9.8063,-0.0738,0.4015,-0.1982,-15.06,-43.81,30,328.28,-82.15,-179.5
52.561913,-1.482568,138.03,17.17,4,16.2,24 / 25,21408,2019-11-08 09:20:45:037,-3.9483,-2.3038,10.0404,0.0203,0.0308,9.8066,0.0368,-0.4936,0.3532,-16.19,-43.69,30.19,326.44,-82.16,-179.62
52.561913,-1.482568,138.03,17.17,4,16.2,24 / 24,21508,2019-11-08 09:20:45:137,-0.662,-2.0568,9.7915,-0.0255,-0.0176,9.8065,0.0141,-0.0368,0.1934,-16.44,-44.06,29.56,329.6,-82.11,-176.92
52.561913,-1.482568,138.03,17.17,4,16.2,24 / 24,21608,2019-11-08 09:20:45:237,5.4344,2.7032,9.2774,0.0494,0.0648,9.8062,0.0585,-0.7296,0.5113,-16.44,-44.37,29.88,332.81,-82.09,-174.22
52.561913,-1.482568,138.03,17.17,4,16.2,24 / 24,21708,2019-11-08 09:20:45:337,-2.3865,-1.763,9.7964,0.025,0.0206,9.8065,0.0772,-0.6946,0.4485,-17,-44.37,30.19,330.5,-82.18,-174.82
52.561913,-1.482568,138.03,17.17,4,16.2,24 / 24,21808,2019-11-08 09:20:45:437,4.1658,2.5667,9.2558,0.0417,0.0103,9.8065,-0.1281,-0.0813,0.1709,-16.56,-45,30,332.99,-82.14,-172.6
52.561913,-1.482568,138.03,17.17,4,16.2,24 / 24,21908,2019-11-08 09:20:45:537,-1.0394,-1.9838,9.1559,0.0299,0.0377,9.8065,0.0343,-0.4094,0.2979,-16.75,-44.44,30.25,333.06,-82.13,-172.64
52.561913,-1.482568,138.03,17.17,4,16.2,24 / 24,22007,2019-11-08 09:20:45:636,-1.7824,-1.3213,10.2127,0,-0.0146,9.8066,-0.0087,0.1364,-0.0689,-16.94,-44.69,29.38,332.92,-81.98,-171.59
52.561913,-1.482568,138.03,17.17,4,16.2,24 / 24,22108,2019-11-08 09:20:45:737,-0.2326,-1.0607,10.1359,0.0087,0.0245,9.8066,0.0247,-0.1128,0.0282,-16.87,-43.75,30.06,334.06,-82,-171.72
52.561913,-1.482568,138.03,17.17,4,16.2,24 / 24,22208,2019-11-08 09:20:45:837,-1.257,-1.2219,10.2898,-0.0218,-0.0146,9.8066,-0.0118,0.2503,-0.1986,-17,-44.62,30,333.98,-81.95,-171.65
52.561913,-1.482568,138.03,17.17,4,16.2,24 / 24,22307,2019-11-08 09:20:45:936,2.4278,1.0115,9.4202,-0.0015,0.0059,9.8066,-0.0289,0.0518,0.0184,-17.19,-44,29.81,335.04,-82,-170.9
52.561913,-1.482568,138.03,17.17,4,16.2,24 / 24,22408,2019-11-08 09:20:46:037,-1.7289,-0.7144,10.1655,-0.0293,-0.0505,9.8064,-0.0356,0.3199,-0.202,-17.44,-44.69,30.38,335.57,-82.04,-170.39
52.561913,-1.482568,138.03,17.17,4,16.2,25 / 25,22510,2019-11-08 09:20:46:139,2.6772,1.0736,9.2846,-0.0066,-0.0298,9.8065,-0.0718,0.2958,-0.173,-17.12,-44.5,30,337.36,-81.77,-168.85
52.561913,-1.482568,138.03,17.17,4,16.2,25 / 25,22607,2019-11-08 09:20:46:236,-1.8204,-0.2267,10.6133,-0.0078,0.0018,9.8065,0.0316,-0.0493,0.043,-16.5,-43.75,29.81,338.84,-81.81,-169.07
52.561913,-1.482568,138.03,17.17,4,16.2,25 / 25,22707,2019-11-08 09:20:46:336,1.2044,-0.3348,9.9994,-0.02,-0.005,9.8066,-0.0025,0.0493,-0.0044,-17.31,-44.06,30.31,338.39,-81.88,-168.06
52.561913,-1.482568,138.03,17.17,4,16.2,25 / 25,22807,2019-11-08 09:20:46:436,1.4139,0.4687,9.6315,-0.0099,0.0244,9.8066,0.0469,-0.1377,0.0955,-17.25,-43.81,30.44,339.59,-81.91,-167.09
52.561913,-1.482568,138.03,17.17,4,16.2,25 / 25,22907,2019-11-08 09:20:46:536,0.6139,-0.228,9.5209,-0.0157,0.0112,9.8066,0.05,-0.0366,0.001,-17.37,-44.37,29.69,340.88,-82.09,-166.11
52.561913,-1.482568,138.03,17.17,4,16.2,25 / 25,23007,2019-11-08 09:20:46:636,0.647,-0.6339,9.0736,-0.0117,0.0178,9.8066,0.0632,0.0241,0.0042,-17.06,-44.37,30.06,341.96,-82.07,-165.21
52.561913,-1.482568,138.03,17.17,4,16.2,25 / 25,23107,2019-11-08 09:20:46:736,-0.0994,-0.5185,10.6128,-0.0259,-0.0013,9.8065,0.0407,-0.0489,-0.0082,-17.37,-43.56,29.94,342.9,-82.03,-164.43
52.561913,-1.482568,138.03,17.17,4,16.2,25 / 25,23208,2019-11-08 09:20:46:837,-0.6204,-0.0692,10.0872,-0.0072,0.0301,9.8066,0.0694,-0.1517,0.1101,-16.94,-43.25,30.13,343.77,-82.05,-163.77
52.561913,-1.482568,138.03,17.17,4,16.2,25 / 25,23308,2019-11-08 09:20:46:937,-0.7314,0.8398,10.0634,-0.0066,0.0181,9.8066,0.0489,-0.0574,0.0504,-17.37,-43.37,29.75,344.83,-82.21,-162.96
52.561913,-1.482568,138.03,17.17,4,16.2,25 / 25,23407,2019-11-08 09:20:47:036,2.1841,0.1181,9.7555,0.0106,0.0085,9.8066,0.0009,-0.0876,0.1126,-17.37,-44,29.38,343.91,-82.15,-162.73
52.561913,-1.482568,138.03,17.17,4,16.2,25 / 25,23507,2019-11-08 09:20:47:136,-0.3104,-1.1201,10.974,-0.0164,0.0071,9.8066,0.1009,-0.0851,-0.0179,-17.75,-43.56,30.06,344.96,-82.17,-161.39
52.561913,-1.482568,138.03,17.17,4,16.2,25 / 25,23607,2019-11-08 09:20:47:236,0.0054,0.2764,8.7006,-0.0204,-0.005,9.8066,-0.0153,0.1837,-0.2034,-17.37,-43.81,29.69,345.94,-82.02,-161.92
52.561913,-1.482568,138.03,17.17,4,16.2,25 / 25,23708,2019-11-08 09:20:47:337,1.3413,1.879,10.3742,-0.0168,0.0406,9.8065,0.0586,0.1282,-0.0956,-16.44,-44.56,29.81,347.13,-82.24,-162.4
52.561913,-1.482568,138.03,17.17,4,16.2,25 / 25,23808,2019-11-08 09:20:47:437,1.1642,1.5492,10.6501,-0.0098,-0.0029,9.8066,0.048,0.2152,-0.167,-16.5,-44.06,29.38,344.62,-82.39,-163.68
52.561913,-1.482568,138.03,17.17,4,16.2,25 / 25,23907,2019-11-08 09:20:47:536,3.1906,0.8858,9.7254,-0.0011,-0.0222,9.8065,-0.031,0.2644,-0.1185,-16.44,-44.5,29.81,344.96,-82.3,-164.26
52.561913,-1.482568,138.03,17.17,4,16.2,25 / 25,24007,2019-11-08 09:20:47:636,0.8259,0.4023,10.1668,-0.0073,-0.0113,9.8066,-0.0696,0.0969,0.0619,-16.12,-44.62,29.81,344.71,-82.34,-164.42
52.561913,-1.482568,138.03,17.17,4,16.2,25 / 25,24108,2019-11-08 09:20:47:737,1.854,0.4921,9.1536,-0.0412,-0.032,9.8065,-0.0072,0.3558,-0.1862,-16.25,-44.25,29,346.78,-82.28,-161.88
52.561913,-1.482568,138.03,17.17,4,16.2,25 / 25,24208,2019-11-08 09:20:47:837,0.5463,0.1972,9.1413,-0.0106,-0.0016,9.8066,0.0265,-0.0235,0.0999,-15.75,-44,28.88,347.09,-82.24,-161.61
52.561913,-1.482568,138.03,17.17,4,16.2,25 / 25,24308,2019-11-08 09:20:47:937,4.5293,1.8113,8.8895,-0.0532,-0.0344,9.8064,0.0925,0.3954,-0.2804,-16.44,-44.44,29.19,348.6,-82.14,-160.35
52.561913,-1.482568,138.03,17.17,4,16.2,25 / 25,24408,2019-11-08 09:20:48:037,-0.7902,0.4028,9.7666,-0.0182,0.0369,9.8065,0.2482,-0.2268,0.0419,-16.44,-43.62,28.94,346.13,-81.98,-162.3
52.561913,-1.482568,138.03,17.17,4,16.2,24 / 24,24508,2019-11-08 09:20:48:137,0.0693,-0.6743,11.2454,0.0036,-0.0207,9.8065,0.0098,0.0133,-0.04,-16.19,-44.44,29.25,345.03,-81.93,-163.18
52.561913,-1.482568,138.03,17.17,4,16.2,24 / 24,24608,2019-11-08 09:20:48:237,0.8607,1.4803,9.876,0.026,0.0076,9.8066,0.0601,-0.0613,0.0479,-15.44,-44.56,29.88,346.76,-81.76,-164.02
52.561913,-1.482568,138.03,17.17,4,16.2,24 / 24,24707,2019-11-08 09:20:48:336,0.3709,0.098,9.942,0.0294,-0.0141,9.8065,-0.0457,0.0055,0.0934,-15.56,-44.44,29.44,342.65,-81.6,-164.97
52.561913,-1.482568,138.03,17.17,4,16.2,24 / 24,24807,2019-11-08 09:20:48:436,2.0556,0.7935,9.7091,0.0151,0.0018,9.8066,-0.025,-0.0151,0.1096,-15.75,-44.62,30.13,344.22,-81.53,-164.5
52.561913,-1.482568,138.03,17.17,4,16.2,24 / 24,24907,2019-11-08 09:20:48:536,-0.2164,-0.6758,10.388,-0.0274,0.0246,9.8065,0.2041,-0.1459,0.0173,-15.94,-44.25,30.38,345.73,-81.49,-163.34
52.561913,-1.482568,138.03,17.17,4,16.2,24 / 24,25007,2019-11-08 09:20:48:636,-0.5703,-1.8833,11.3947,-0.0395,-0.0026,9.8066,0.1084,0.306,-0.2495,-16.06,-44.81,30.19,344.94,-81.23,-163.81
52.561913,-1.482568,138.03,17.17,4,16.2,24 / 24,25107,2019-11-08 09:20:48:736,1.2971,-0.8842,10.114,0.0104,0.0024,9.8066,0.0329,0.0375,0.0069,-15.69,-44.25,30.13,345.09,-81.02,-163.68
52.561913,-1.482568,138.03,17.17,4,16.2,24 / 24,25208,2019-11-08 09:20:48:837,-0.9326,0.6093,9.3399,-0.03,0.0026,9.8065,0.0483,0.2771,-0.1707,-15.75,-44.56,29.44,343.34,-81.03,-164.1
52.561913,-1.482568,138.03,17.17,4,16.2,24 / 24,25308,2019-11-08 09:20:48:937,1.2564,0.8864,8.8743,0.003,-0.0133,9.8066,0.0175,0.2597,-0.1099,-15.25,-44.06,29.94,346.96,-81.05,-163.68
52.561913,-1.482568,138.03,17.17,4,16.2,24 / 24,25407,2019-11-08 09:20:49:036,-0.3273,-0.2983,10.1906,-0.0213,-0.0014,9.8066,-0.0833,0.258,-0.1323,-15.44,-44.25,29.75,347.55,-81.24,-163.28
52.561913,-1.482568,138.03,17.17,4,16.2,24 / 25,25508,2019-11-08 09:20:49:137,3.932,2.0892,8.7266,-0.0135,-0.0072,9.8066,-0.1016,0.3614,-0.2117,-14.81,-44.69,28.94,345.94,-81.49,-163.72
52.561913,-1.482568,138.03,17.17,4,16.2,24 / 25,25608,2019-11-08 09:20:49:237,1.0991,0.5199,9.6804,-0.0236,-0.0235,9.8065,-0.1053,0.3289,-0.1762,-15,-44.56,28.94,345.21,-81.7,-164.38
52.561913,-1.482568,138.03,17.17,4,16.2,24 / 25,25708,2019-11-08 09:20:49:337,4.2272,2.8861,8.6473,-0.0251,-0.0261,9.8065,-0.0613,0.486,-0.2131,-14.37,-44.62,29.69,349.43,-81.8,-163.4
52.561913,-1.482568,138.03,17.17,4,16.2,24 / 25,25808,2019-11-08 09:20:49:437,1.8022,0.364,9.5631,-0.0215,0.0017,9.8066,-0.0264,0.0207,0.0485,-14.37,-44.25,29,348.23,-81.9,-163.64
52.561913,-1.482568,138.03,17.17,4,16.2,24 / 25,25908,2019-11-08 09:20:49:537,-2.0984,-0.0413,10.0871,-0.0369,-0.0402,9.8064,-0.0204,0.2602,-0.0381,-14.12,-45.12,28.31,349.88,-81.92,-161.42
52.561913,-1.482568,138.03,17.17,4,16.2,24 / 25,26007,2019-11-08 09:20:49:636,2.0112,1.2466,9.8582,0.0241,0.0069,9.8066,-0.0398,-0.2231,0.2667,-14.5,-43.94,28.44,350.61,-81.95,-160.9
52.561913,-1.482568,138.03,17.17,4,16.2,24 / 25,26107,2019-11-08 09:20:49:736,-1.5377,-0.8513,10.7573,-0.0089,0.0076,9.8066,0.1361,-0.2262,0.1796,-14.25,-44.19,29.44,353.94,-81.88,-159.06
52.561913,-1.482568,138.03,17.17,4,16.2,24 / 25,26207,2019-11-08 09:20:49:836,0.4325,0.9326,10.1034,0.0093,0.0277,9.8065,0.0752,0.1035,0.0019,-14.31,-44.62,28.19,353.39,-81.6,-158.59
52.561913,-1.482568,138.03,17.17,4,16.2,24 / 25,26308,2019-11-08 09:20:49:937,-0.2861,-0.7398,10.2074,0.0281,0.0172,9.8066,-0.0008,-0.188,0.1692,-14.19,-44.56,28.63,353.51,-81.66,-159.34
52.561913,-1.482568,138.03,17.17,4,16.2,24 / 25,26408,2019-11-08 09:20:50:037,-0.9788,0.3321,10.8894,-0.0133,-0.0255,9.8065,-0.0813,0.4234,-0.2265,-13.94,-44.37,28.31,353.36,-81.59,-158.64
52.561913,-1.482568,138.03,17.17,4,16.2,25 / 25,26509,2019-11-08 09:20:50:138,4.7884,2.9774,8.0636,0.031,0.0316,9.8065,-0.036,0.0938,0.0058,-14.06,-45.12,28.44,352.68,-81.73,-159.17
52.561913,-1.482568,138.03,17.17,4,16.2,25 / 25,26608,2019-11-08 09:20:50:237,-1.5673,-0.4335,10.2919,-0.0386,-0.0301,9.8065,-0.0471,0.6334,-0.2609,-13.5,-44.75,27.69,356.66,-81.7,-157.7
52.561913,-1.482568,138.03,17.17,4,16.2,25 / 25,26707,2019-11-08 09:20:50:336,5.6343,2.6633,9.0601,-0.0251,-0.0528,9.8064,-0.0435,0.5794,-0.3603,-12.87,-44.62,28,355.84,-81.75,-158.34
52.561913,-1.482568,138.03,17.17,4,16.2,25 / 25,26808,2019-11-08 09:20:50:437,2.3575,2.0155,10.0133,-0.0259,-0.0523,9.8064,0.1407,0.2288,-0.053,-13.56,-44.5,29.25,353.03,-81.63,-159.74
52.561913,-1.482568,138.03,17.17,4,16.2,25 / 25,26908,2019-11-08 09:20:50:537,3.7754,2.2335,9.6196,-0.0659,-0.0765,9.806,-0.0485,0.4176,-0.2593,-13.44,-44.31,28.88,357.28,-80.99,-157.95
52.561913,-1.482568,138.03,17.17,4,16.2,25 / 25,27008,2019-11-08 09:20:50:637,1.964,1.6789,9.7015,-0.0038,-0.0021,9.8066,0.0327,-0.1648,0.1967,-13.06,-45.19,29,357.37,-80.94,-157.87
52.561913,-1.482568,138.03,17.17,4,16.2,25 / 25,27108,2019-11-08 09:20:50:737,3.2231,1.5442,10.4493,-0.0204,-0.0381,9.8065,-0.0188,0.1127,-0.0035,-13.56,-45.37,28.94,357.13,-80.74,-156.42
52.561913,-1.482568,138.03,17.17,4,16.2,25 / 25,27208,2019-11-08 09:20:50:837,1.1726,0.2416,10.121,0.0444,-0.0073,9.8065,0.0362,-0.1942,0.277,-13.06,-44.56,28.69,357.5,-80.66,-157.75
52.561913,-1.482568,138.03,17.17,4,16.2,25 / 25,27308,2019-11-08 09:20:50:937,-1.5607,0.1625,9.8495,-0.0056,-0.0057,9.8065,-0.0344,-0.0869,0.0551,-13.12,-45,29.25,358.8,-80.53,-156.76
52.561913,-1.482568,138.03,17.17,4,16.2,25 / 25,27407,2019-11-08 09:20:51:036,1.2755,1.4711,9.853,0.0164,0.012,9.8066,0.0333,-0.0349,0.0515,-13.06,-44.44,28.81,359.26,-80.63,-156.42
52.561913,-1.482568,138.03,17.17,4,16.2,26 / 26,27507,2019-11-08 09:20:51:136,-0.4931,0.5597,9.4857,0.0159,0.0099,9.8065,-0.0108,-0.1042,0.0491,-12.56,-44.25,27.81,356.68,-80.72,-157.61
52.561913,-1.482568,138.03,17.17,4,16.2,26 / 26,27607,2019-11-08 09:20:51:236,1.4469,0.4325,10.4719,0.0275,-0.0026,9.8065,0.0081,0.0418,0.0069,-12,-44.87,29.63,359.82,-80.65,-158.34
52.561913,-1.482568,138.03,17.17,4,16.2,26 / 26,27707,2019-11-08 09:20:51:336,2.9458,0.6467,9.4571,0.0097,0.0042,9.8065,0.0604,0.0528,0.0323,-12.25,-45.06,28.81,356.87,-80.65,-159.88
52.561913,-1.482568,138.03,17.17,4,16.2,26 / 26,27808,2019-11-08 09:20:51:437,2.005,1.66,8.9661,0.0172,0.0417,9.8065,0.0801,-0.2467,0.1982,-11.81,-44.87,28.69,355.99,-80.77,-160.56
52.561913,-1.482568,138.03,17.17,4,16.2,26 / 26,27908,2019-11-08 09:20:51:537,-1.855,-1.3848,11.2149,-0.0048,0.0127,9.8066,0.1142,-0.2499,0.1416,-12,-44.5,29.13,357.07,-80.68,-159.74
52.561913,-1.482568,138.03,17.17,4,16.2,26 / 26,28007,2019-11-08 09:20:51:636,1.2638,0.1103,9.5253,0.0163,0.0364,9.8065,0.1037,-0.187,0.1827,-11.69,-44.56,28.19,356.41,-80.57,-159.48
52.561913,-1.482568,138.03,17.17,4,16.2,26 / 26,28107,2019-11-08 09:20:51:736,-2.4114,-2.0956,10.9129,0.026,0.0585,9.8064,0.1042,-0.382,0.2198,-11.69,-44.75,28.75,356.46,-80.81,-160.2
52.561913,-1.482568,138.03,17.17,4,16.2,26 / 26,28208,2019-11-08 09:20:51:837,3.1297,0.8002,8.8952,0.0246,0.0342,9.8065,-0.0103,-0.0187,0.0675,-12.06,-45.19,28.25,356.32,-80.89,-159.58
52.561913,-1.482568,138.03,17.17,4,16.2,26 / 26,28307,2019-11-08 09:20:51:936,-2.0114,-0.9917,11.4246,0.031,0.0524,9.8064,0.1376,-0.3499,0.1832,-11.12,-45.5,28.44,357.24,-81.14,-160.64
52.561913,-1.482568,138.03,17.17,4,16.2,26 / 26,28408,2019-11-08 09:20:52:037,2.355,0.9562,9.3623,-0.0007,-0.0166,9.8065,0.014,0.2496,-0.0901,-11.25,-44.62,28.88,357.13,-80.86,-161.4
52.561913,-1.482568,138.03,17.17,4,16.2,25 / 25,28508,2019-11-08 09:20:52:137,2.8461,0.022,10.1892,0.006,0.0133,9.8066,0.0191,0.0269,-0.047,-11.19,-45.44,28.38,356.03,-80.83,-161.53
52.561913,-1.482568,138.03,17.17,4,16.2,25 / 25,28608,2019-11-08 09:20:52:237,1.0805,0.5239,10.0294,-0.0465,0.0141,9.8065,0.1089,0.328,-0.2557,-10.75,-45.44,28.44,354.81,-81.09,-162.48
52.561913,-1.482568,138.03,17.17,4,16.2,25 / 25,28708,2019-11-08 09:20:52:337,2.0684,1.8876,8.0247,-0.0095,-0.0109,9.8066,-0.0687,0.2213,-0.2163,-10.37,-44.94,27.94,356.94,-81.22,-162.66
52.561913,-1.482568,138.03,17.17,4,16.2,25 / 25,28808,2019-11-08 09:20:52:437,-0.6389,0.8386,9.0788,-0.0431,0.0013,9.8065,-0.0568,0.2677,-0.2184,-10.44,-45.81,27.31,354.72,-81.49,-163.66
52.561913,-1.482568,138.03,17.17,4,16.2,25 / 25,28908,2019-11-08 09:20:52:537,1.6141,1.4418,9.1454,-0.0023,0.0156,9.8066,-0.0709,0.1605,-0.0613,-10.44,-44.37,27.63,356.82,-81.84,-162.83
52.561913,-1.482568,138.03,17.17,4,16.2,25 / 25,29007,2019-11-08 09:20:52:636,0.9545,-0.2268,9.1911,-0.0142,0.0026,9.8065,-0.0141,0.2214,-0.1245,-10.75,-43.94,26.38,352.9,-82.22,-162.61
52.561913,-1.482568,138.03,17.17,4,16.2,25 / 25,29107,2019-11-08 09:20:52:736,0.4597,0.6737,9.6779,-0.0024,0.0059,9.8066,-0.0072,0.1213,-0.095,-10.19,-44.81,26.94,354.67,-82.38,-163.85
52.561913,-1.482568,138.03,17.17,4,16.2,25 / 25,29208,2019-11-08 09:20:52:837,-1.5497,-0.0998,10.1287,-0.0048,-0.0081,9.8066,-0.0439,0.2276,-0.1304,-10.12,-44.44,26.56,352.55,-82.61,-165.61
52.561913,-1.482568,138.03,17.17,4,16.2,25 / 25,29307,2019-11-08 09:20:52:936,1.3417,-0.3156,10.8833,-0.0217,-0.0023,9.8066,0.0011,0.2549,-0.2172,-9.5,-44.56,26.94,353.78,-82.65,-166.48
52.561913,-1.482568,138.03,17.17,4,16.2,25 / 25,29408,2019-11-08 09:20:53:037,-3.419,-2.1442,9.7315,-0.0092,-0.0121,9.8066,-0.0128,0.0583,0.047,-9.12,-44.5,26.63,350.98,-82.72,-168.75
52.56332,-1.482195,138.53,18.65,4,352.07,25 / 25,29508,2019-11-08 09:20:53:137,0.0268,-0.3109,10.8072,-0.0556,-0.0225,9.8064,0.002,0.3188,-0.2419,-9.25,-44.19,26.56,352.25,-82.77,-167.75
52.56332,-1.482195,138.53,18.65,4,352.07,25 / 25,29608,2019-11-08 09:20:53:237,0.9363,1.1423,9.4616,0.0193,0.0194,9.8066,0.0824,-0.1498,0.1305,-9.44,-44.56,26.13,349.35,-83.06,-169.38
52.56332,-1.482195,138.53,18.65,4,352.07,25 / 25,29707,2019-11-08 09:20:53:336,-2.6052,-1.4125,11.264,-0.045,-0.0566,9.8063,-0.0275,0.4379,-0.2225,-9.44,-44.94,26.31,352.91,-82.61,-166.45
52.56332,-1.482195,138.53,18.65,4,352.07,25 / 25,29807,2019-11-08 09:20:53:436,1.596,0.2694,10.76,-0.0224,-0.0171,9.8065,0.0554,0.1351,-0.1646,-9.69,-44.25,27.13,350.83,-82.48,-166.94
52.56332,-1.482195,138.53,18.65,4,352.07,25 / 25,29907,2019-11-08 09:20:53:536,-4.2499,-1.259,10.4324,-0.0405,-0.0229,9.8065,-0.0903,0.3901,-0.2072,-9.94,-44.19,26.56,350,-82.41,-167.58
52.56332,-1.482195,138.53,18.65,4,352.07,25 / 25,30007,2019-11-08 09:20:53:636,0.4527,-0.623,9.2702,-0.0298,0.0124,9.8065,-0.05,0.2422,-0.1755,-9,-44.5,27,354.45,-82.67,-165.98
52.56332,-1.482195,138.53,18.65,4,352.07,25 / 25,30107,2019-11-08 09:20:53:736,-2.7026,-1.3134,10.6796,-0.0116,-0.0103,9.8066,0.071,0.1735,-0.1722,-9.75,-44.75,26.63,350.59,-82.8,-167.18
52.56332,-1.482195,138.53,18.65,4,352.07,25 / 25,30208,2019-11-08 09:20:53:837,-0.2739,-0.2134,9.9149,-0.0084,-0.0432,9.8065,-0.0324,0.1596,-0.1637,-9.25,-44.06,26.69,351.39,-82.61,-168.4
52.56332,-1.482195,138.53,18.65,4,352.07,25 / 25,30308,2019-11-08 09:20:53:937,0.4799,0.6849,9.3155,-0.0003,0.0126,9.8066,0.1186,0.0007,-0.0122,-9.25,-44,27.19,348.34,-82.7,-170.86
52.56332,-1.482195,138.53,18.65,4,352.07,25 / 25,30408,2019-11-08 09:20:54:037,0.5292,1.1519,9.43,0.0051,-0.0349,9.8065,-0.0131,0.1187,-0.0619,-9.44,-43.94,26.56,347.13,-82.52,-171.76
52.56332,-1.482195,138.53,18.65,4,352.07,25 / 26,30508,2019-11-08 09:20:54:137,1.0518,-0.0592,9.1245,-0.0018,0.0304,9.8066,0.0671,-0.197,0.1016,-9.87,-44.5,26.38,343.86,-82.48,-171.68
52.56332,-1.482195,138.53,18.65,4,352.07,25 / 26,30607,2019-11-08 09:20:54:236,1.2315,0.3532,8.7449,0.013,-0.0194,9.8065,-0.0413,-0.0487,0.1383,-9.06,-44.5,26.19,346.43,-82.58,-171.59
52.56332,-1.482195,138.53,18.65,4,352.07,25 / 26,30707,2019-11-08 09:20:54:336,0.5579,0.3342,10.7837,0.0256,0.0073,9.8065,0.0935,-0.1138,0.1272,-9.5,-44.75,26.81,348.41,-82.41,-170.65
52.56332,-1.482195,138.53,18.65,4,352.07,25 / 26,30808,2019-11-08 09:20:54:437,-1.258,-1.1048,9.7441,0.0222,-0.0205,9.8065,-0.048,-0.111,0.0863,-9.69,-44.56,27.5,345.45,-82.16,-171.79
52.56332,-1.482195,138.53,18.65,4,352.07,25 / 26,30908,2019-11-08 09:20:54:537,0.1221,0.0653,8.186,0.0232,0.015,9.8065,-0.1149,-0.0619,0.0184,-9.81,-43.87,26.5,343.4,-82.2,-172.73
52.56332,-1.482195,138.53,18.65,4,352.07,25 / 26,31008,2019-11-08 09:20:54:637,-0.916,-0.164,10.3652,0.0229,0.0309,9.8065,0.0289,-0.0364,0.0061,-9.87,-44.37,26.56,342.23,-82.36,-173.75
52.56332,-1.482195,138.53,18.65,4,352.07,25 / 26,31108,2019-11-08 09:20:54:737,-0.5873,0.6499,9.1679,0.0204,0.0185,9.8066,0.043,-0.0137,-0.0925,-9.44,-44.69,27.13,342.62,-82.34,-175.19
52.56332,-1.482195,138.53,18.65,4,352.07,25 / 26,31207,2019-11-08 09:20:54:836,1.5579,-0.5176,10.8388,0.0251,0.021,9.8066,0.0677,-0.0968,-0.0193,-9,-44.5,27,338.35,-82.31,-178.66
52.56332,-1.482195,138.53,18.65,4,352.07,25 / 26,31307,2019-11-08 09:20:54:936,0.8656,0.4053,9.9259,-0.0094,-0.0009,9.8066,0.0428,0.0651,-0.1647,-9.06,-44.19,26.38,335.79,-82.11,-179.74
52.56332,-1.482195,138.53,18.65,4,352.07,25 / 26,31407,2019-11-08 09:20:55:036,0.9813,-0.0915,10.3044,0.0282,-0.0035,9.8065,0.0038,0.0686,-0.0193,-9.56,-44.62,26.63,333.52,-81.99,179.64
52.56332,-1.482195,138.53,18.65,4,352.07,26 / 26,31507,2019-11-08 09:20:55:136,0.5297,0.3521,9.833,-0.0237,0.0212,9.8065,0.0343,0.1366,-0.1306,-8.94,-44.44,26.69,335.73,-82.12,179.38
52.56332,-1.482195,138.53,18.65,4,352.07,26 / 26,31607,2019-11-08 09:20:55:236,-0.2118,0.1415,9.8206,-0.0045,0.0003,9.8066,-0.0129,0.1229,-0.2072,-9.19,-44.31,26.44,334.46,-82.35,179.03
52.56332,-1.482195,138.53,18.65,4,352.07,26 / 26,31707,2019-11-08 09:20:55:336,-2.6105,-0.5336,9.3804,-0.0303,-0.0033,9.8066,0.0099,0.2624,-0.2638,-8.94,-44.5,26.63,332.17,-82.43,176.27
52.56332,-1.482195,138.53,18.65,4,352.07,26 / 26,31807,2019-11-08 09:20:55:436,3.08,0.5835,8.8721,-0.005,0.0117,9.8066,-0.0572,0.1452,-0.186,-9.25,-44.12,26.44,329.29,-82.5,174.73
52.56332,-1.482195,138.53,18.65,4,352.07,26 / 26,31908,2019-11-08 09:20:55:537,-1.3106,-0.3844,11.1657,0.0057,-0.0194,9.8066,0.0246,0.0271,-0.0479,-8.56,-43.94,26.5,327.56,-82.41,172.53
52.56332,-1.482195,138.53,18.65,4,352.07,26 / 26,32008,2019-11-08 09:20:55:637,-0.2143,0.1478,8.7704,0.017,-0.0311,9.8065,-0.1378,0.1168,-0.1185,-9,-44.12,27.06,326.48,-82.15,171.87
52.56332,-1.482195,138.53,18.65,4,352.07,26 / 26,32108,2019-11-08 09:20:55:737,-0.0553,0.561,8.1792,0.0088,0.0446,9.8065,0.0008,-0.1443,0.0944,-8.75,-44.37,26.44,321.13,-82.55,167.96
52.56332,-1.482195,138.53,18.65,4,352.07,26 / 26,32208,2019-11-08 09:20:55:837,-0.1718,0.5702,8.8114,-0.0036,0.0124,9.8066,0.0225,-0.0189,-0.0654,-8.44,-44.37,26.13,322.44,-82.65,167.04
52.56332,-1.482195,138.53,18.65,4,352.07,26 / 26,32308,2019-11-08 09:20:55:937,-0.798,-0.0074,10.009,-0.0084,0.0114,9.8066,0.1154,-0.1847,-0.0282,-8.31,-44.31,25.88,321.36,-82.52,166.28
52.56332,-1.482195,138.53,18.65,4,352.07,26 / 26,32408,2019-11-08 09:20:56:037,-1.0803,-1.616,11.144,0.0266,0.0007,9.8066,0.1126,-0.1557,0.1546,-8.5,-44.19,25.81,320.06,-82.34,165.4
52.56332,-1.482195,138.53,18.65,4,352.07,25 / 25,32507,2019-11-08 09:20:56:136,-1.886,-0.3724,10.7321,0.0094,-0.026,9.8066,-0.0352,0.0007,-0.0519,-8.31,-44.25,26.19,321.01,-82.02,166.54
52.56332,-1.482195,138.53,18.65,4,352.07,25 / 25,32608,2019-11-08 09:20:56:237,-1.8474,-3.1294,11.1287,0.0073,0.0152,9.8065,0.0555,-0.3353,0.0838,-9.19,-44.12,26.31,318.89,-81.89,166.83
52.56332,-1.482195,138.53,18.65,4,352.07,25 / 25,32708,2019-11-08 09:20:56:337,-3.3317,-2.1493,10.2563,-0.0281,-0.0321,9.8065,-0.0255,0.3625,-0.3101,-8.69,-44.56,26.25,320.52,-81.9,168.36
52.56332,-1.482195,138.53,18.65,4,352.07,25 / 25,32808,2019-11-08 09:20:56:437,-3.1804,-2.3856,9.6473,0.0303,0.0108,9.8066,-0.043,-0.0429,-0.0105,-8.69,-44.81,26.88,319.36,-81.82,166.55
52.56332,-1.482195,138.53,18.65,4,352.07,25 / 25,32907,2019-11-08 09:20:56:536,-4.0481,-2.7425,9.996,-0.0204,-0.0388,9.8065,-0.1207,0.3898,-0.1551,-8.69,-44.44,27.06,318.54,-81.88,165.62
52.56332,-1.482195,138.53,18.65,4,352.07,25 / 25,33008,2019-11-08 09:20:56:637,1.0862,1.4795,9.8025,-0.0467,-0.0338,9.8064,-0.0702,0.3231,-0.2789,-8.5,-44.19,27.13,322.82,-81.93,167.24
52.56332,-1.482195,138.53,18.65,4,352.07,25 / 25,33108,2019-11-08 09:20:56:737,-1.4322,-2.1085,10.0616,-0.0327,-0.0469,9.8064,0.0073,0.1457,-0.168,-9,-44.25,26.69,319.53,-81.94,166.36
52.56332,-1.482195,138.53,18.65,4,352.07,25 / 25,33208,2019-11-08 09:20:56:837,1.7948,0.6021,10.4279,-0.0213,-0.04,9.8065,0.0261,0.2963,-0.1147,-9.25,-44.62,27,320.94,-81.63,168.04
52.56332,-1.482195,138.53,18.65,4,352.07,25 / 25,33308,2019-11-08 09:20:56:937,-1.0495,-1.0806,10.0839,0.0126,0.0063,9.8066,-0.0649,-0.1206,0.1658,-9.87,-44.06,27.06,318.94,-81.55,168.1
52.56332,-1.482195,138.53,18.65,4,352.07,25 / 25,33407,2019-11-08 09:20:57:036,0.5217,1.6121,9.6283,-0.0608,-0.0277,9.8063,-0.1722,0.1712,-0.1686,-10.12,-44.75,26.88,322.16,-81.87,170.59
52.56332,-1.482195,138.53,18.65,4,352.07,24 / 25,33509,2019-11-08 09:20:57:138,-1.1913,-1.9749,9.9843,-0.0038,-0.0253,9.8065,-0.1909,-0.1322,0.0414,-10.06,-44.37,26.19,320.06,-82.12,169.39
52.56332,-1.482195,138.53,18.65,4,352.07,24 / 25,33607,2019-11-08 09:20:57:236,-1.2292,-0.3101,8.5538,-0.0079,-0.0107,9.8066,-0.0956,0.0926,-0.0337,-9.81,-44.56,26.38,321.26,-82.22,170.45
52.56332,-1.482195,138.53,18.65,4,352.07,24 / 25,33707,2019-11-08 09:20:57:336,-2.0539,-1.6351,9.2743,0.0116,-0.01,9.8066,-0.0464,-0.1451,0.1745,-10.62,-44.06,27.06,320.46,-82.4,170.21
52.56332,-1.482195,138.53,18.65,4,352.07,24 / 25,33807,2019-11-08 09:20:57:436,1.2566,-1.0249,10.0333,-0.0389,0.0037,9.8065,-0.0099,0.0226,-0.1165,-10.31,-44.31,27.06,324.8,-82.49,171.98
52.56332,-1.482195,138.53,18.65,4,352.07,24 / 25,33908,2019-11-08 09:20:57:537,-1.866,0.4839,9.826,-0.0266,0.0037,9.8066,-0.0057,-0.032,-0.032,-10.62,-44.56,27,324.48,-82.7,173.43
52.56332,-1.482195,138.53,18.65,4,352.07,24 / 25,34007,2019-11-08 09:20:57:636,-1.4554,-1.7527,10.4608,0.0133,0.0155,9.8065,-0.0319,-0.1103,0.1523,-10.69,-44.12,26.69,323.81,-82.76,172.67
52.56332,-1.482195,138.53,18.65,4,352.07,24 / 25,34108,2019-11-08 09:20:57:737,-1.2561,-0.2664,9.6438,0.0108,-0.0092,9.8066,-0.0167,0.0448,0.0543,-11.12,-44.37,27.25,325.66,-82.71,174.26
52.56332,-1.482195,138.53,18.65,4,352.07,24 / 25,34208,2019-11-08 09:20:57:837,-0.5465,-1.154,10.3633,-0.0145,-0.0114,9.8066,0.0241,-0.0222,-0.0029,-11.12,-44.31,26.69,326.81,-82.6,175.32
52.56332,-1.482195,138.53,18.65,4,352.07,24 / 25,34308,2019-11-08 09:20:57:937,-0.7306,-1.1957,10.5693,-0.0343,-0.0112,9.8065,0.0318,0.0047,-0.1238,-11.5,-44.75,26.69,326.78,-82.55,175.48
52.56332,-1.482195,138.53,18.65,4,352.07,24 / 25,34408,2019-11-08 09:20:58:037,-1.3215,-0.2461,9.9897,-0.0197,0.001,9.8066,0.0067,-0.0659,-0.0207,-10.62,-44.44,26.88,328.61,-82.72,176.7
52.56332,-1.482195,138.53,18.65,4,352.07,25 / 25,34507,2019-11-08 09:20:58:136,-0.9352,-1.4783,9.9811,-0.0073,-0.0105,9.8066,-0.0119,0.0545,0.0285,-11.81,-44.94,26.88,326.37,-82.72,176.7
52.56332,-1.482195,138.53,18.65,4,352.07,25 / 25,34608,2019-11-08 09:20:58:237,-2.4134,-0.6865,9.8181,-0.0258,0.0088,9.8066,-0.1488,-0.0284,0.0593,-10.81,-43.94,26.69,329.34,-82.69,177.34
