GPS LATITUDE (degrees), GPS LONGITUDE (degrees), GPS ALTITUDE (m), GPS SPEED (Kmh), GPS ACCURACY (m), GPS ORIENTATION (Â°),GPS SATELLITES IN RANGE, TIME SINCE START (ms), DATE (YYYY-MO-DD HH-MI-SS_SSS), ACCELEROMETER X (m/s²) , ACCELEROMETER Y (m/s²), ACCELEROMETER Z (m/s²), GRAVITY X (m/s²), GRAVITY Y (m/s²), GRAVITY Z (m/s²), GYROSCOPE Yaw (rad/s), GYROSCOPE Pitch (rad/s), GYROSCOPE Roll (rad/s), MAGNETIC FIELD X (Î¼T), MAGNETIC FIELD Y (Î¼T), MAGNETIC FIELD Z (Î¼T), ORIENTATION (Yaw) (Â°), ORIENTATION (Pitch) (Â°), ORIENTATION (Roll ) (Â°)
53.05154,-1.799703,227.74,11.14,4,58.28,23 / 23,519114,2019-11-06 12:51:00:822,3.9608,0.8025,9.7793,-0.0525,-0.0429,9.8064,-0.1149,-0.1001,0.1582,0.75,-40.37,-22.81,12.55,-81.81,11.83
53.05154,-1.799703,227.74,11.14,4,58.28,23 / 23,519214,2019-11-06 12:51:00:922,-3.3162,1.3792,9.4798,0.0815,-0.0215,9.8062,-0.2207,0.6905,-0.3474,1.25,-39.75,-22.75,8.57,-81.83,8.86
53.05154,-1.799703,227.74,11.14,4,58.28,23 / 23,519314,2019-11-06 12:51:01:022,-5.5011,-0.745,8.8964,-0.0926,-0.0537,9.8061,-0.1303,0.2091,0.0289,1.88,-40.06,-23.5,5.62,-81.56,9.1
53.05154,-1.799703,227.74,11.14,4,58.28,23 / 23,519414,2019-11-06 12:51:01:122,-1.2456,-0.208,9.3779,-0.0244,-0.0192,9.8065,-0.1334,0.4775,-0.2297,1.44,-40.25,-24.19,11.76,-81.11,11
53.05154,-1.799703,227.74,11.14,4,58.28,23 / 23,519514,2019-11-06 12:51:01:222,-4.1868,0.9805,9.7838,-0.0532,-0.0191,9.8064,-0.0258,0.5106,-0.2093,1.63,-39.56,-23.37,5.86,-81.06,9.19
53.05154,-1.799703,227.74,11.14,4,58.28,23 / 23,519615,2019-11-06 12:51:01:323,1.7408,-1.8149,10.8321,-0.0585,-0.0136,9.8064,0.0197,0.0197,0.0211,1.44,-40,-23.44,10.73,-80.81,10.12
53.05154,-1.799703,227.74,11.14,4,58.28,23 / 23,519714,2019-11-06 12:51:01:422,-2.0289,-1.0971,9.9013,0.0052,0.0073,9.8066,-0.0511,0.2515,-0.0701,1.56,-39.94,-23.19,4.91,-80.78,8.46
53.05154,-1.799703,227.74,11.14,4,58.28,23 / 23,519814,2019-11-06 12:51:01:522,0.1786,1.6898,9.8509,-0.0435,-0.0166,9.8064,0.0512,-0.1835,0.1499,1.81,-40.37,-23.12,7.86,-80.77,10.55
53.05154,-1.799703,227.74,11.14,4,58.28,23 / 23,519914,2019-11-06 12:51:01:622,0.168,0.7885,9.5372,0.0071,-0.0106,9.8066,-0.042,0.0946,-0.1339,1.19,-39.87,-22.69,12.58,-80.78,11.43
53.05154,-1.799703,227.74,11.14,4,58.28,23 / 23,520015,2019-11-06 12:51:01:723,-2.0458,2.0888,8.1617,-0.0421,-0.0036,9.8065,-0.0361,-0.1813,-0.029,1.94,-39.81,-23.75,10.84,-80.67,12.56
53.05154,-1.799703,227.74,11.14,4,58.28,23 / 23,520115,2019-11-06 12:51:01:823,4.8087,2.7111,11.063,0.033,0.0339,9.8065,0.2697,-0.6532,0.3433,1.75,-39.94,-23.62,12.44,-80.9,13.8
53.05154,-1.799703,227.74,11.14,4,58.28,23 / 23,520214,2019-11-06 12:51:01:922,2.3675,1.5056,10.6,0.1215,0.0365,9.8058,-0.1487,0.6964,-0.3214,1.88,-40.12,-23.5,10.28,-80.84,12.3
53.05154,-1.799703,227.74,11.14,4,58.28,23 / 23,520314,2019-11-06 12:51:02:022,-0.707,-2.055,11.5493,-0.0778,-0.0217,9.8063,0.0774,0.5042,-0.1483,2.5,-40.37,-23.62,7.88,-80.57,12.77
53.05154,-1.799703,227.74,11.14,4,58.28,23 / 23,520414,2019-11-06 12:51:02:122,4.7629,-0.1228,10.699,-0.1133,-0.0102,9.8059,0.1739,0.209,-0.0623,2.25,-40.94,-23.25,16.97,-80.52,16.82
53.05154,-1.799703,227.74,11.14,4,58.28,22 / 23,520514,2019-11-06 12:51:02:222,-1.0097,1.1247,10.587,-0.033,0.0337,9.8065,-0.0422,0.1157,-0.1118,2.31,-39.75,-22.87,14.41,-80.83,15.26
53.05154,-1.799703,227.74,11.14,4,58.28,22 / 23,520614,2019-11-06 12:51:02:322,-0.8942,3.2871,10.4032,0.0251,-0.06,9.8064,0.0149,-0.1284,-0.0507,2.25,-40.25,-23.19,14.41,-80.81,15.25
53.05154,-1.799703,227.74,11.14,4,58.28,22 / 23,520714,2019-11-06 12:51:02:422,3.6563,0.8329,10.9271,0.0771,-0.0128,9.8063,0.089,-0.4215,0.3923,2.94,-40.37,-22.94,11.15,-80.94,15.43
53.05154,-1.799703,227.74,11.14,4,58.28,22 / 23,520814,2019-11-06 12:51:02:522,-4.097,-1.9178,10.7009,0.0559,0.0079,9.8064,-0.036,0.0214,0.0657,3.25,-40.56,-23.56,13.09,-80.98,16.61
53.05154,-1.799703,227.74,11.14,4,58.28,22 / 23,520914,2019-11-06 12:51:02:622,10.0106,1.2164,9.0593,-0.0735,-0.0132,9.8063,0.0119,-0.6477,0.2638,2.69,-40.5,-23.06,13.67,-80.89,17.24
53.05154,-1.799703,227.74,11.14,4,58.28,22 / 23,521014,2019-11-06 12:51:02:722,-3.6717,0.019,8.1402,0.0954,-0.0297,9.8061,-0.0569,1.0134,-0.7492,4.13,-40,-23.31,10.06,-80.71,17.03
53.05154,-1.799703,227.74,11.14,4,58.28,22 / 23,521115,2019-11-06 12:51:02:823,-11.2082,-0.7798,8.3399,-0.248,-0.056,9.8033,-0.1334,0.2189,-0.0626,3.06,-40.87,-23.81,9.7,-80.47,13.98
53.05154,-1.799703,227.74,11.14,4,58.28,22 / 23,521214,2019-11-06 12:51:02:922,-1.849,0.6424,9.0829,-0.1152,-0.0775,9.8056,-0.1837,1.1796,-0.6247,3.56,-40,-23.81,16.24,-79.56,20.67
53.05154,-1.799703,227.74,11.14,4,58.28,22 / 23,521314,2019-11-06 12:51:03:022,-10.6691,-1.3875,9.5486,-0.2263,-0.0613,9.8038,-0.1772,1.2808,-0.7849,4.88,-40.37,-24.37,21.57,-79.25,26.56
53.05154,-1.799703,227.74,11.14,4,58.28,22 / 23,521415,2019-11-06 12:51:03:123,3.8787,0.0072,9.9271,-0.1947,0.0175,9.8046,0.1103,0.2535,-0.205,4.44,-40.37,-23.31,26.79,-79.71,28.33
53.05154,-1.799703,227.74,11.14,4,58.28,22 / 23,521514,2019-11-06 12:51:03:222,-4.4271,0.3322,9.4439,-0.0609,0.0252,9.8064,-0.0435,0.7354,-0.4109,5.25,-39.69,-23.5,21.62,-80.01,27.34
53.05154,-1.799703,227.74,11.14,4,58.28,22 / 23,521614,2019-11-06 12:51:03:322,5.1684,0.1819,10.46,-0.1258,-0.0156,9.8057,0.1121,-0.1048,0.0926,5.31,-40.5,-23.31,26.54,-79.91,30.78
53.05154,-1.799703,227.74,11.14,4,58.28,22 / 23,521714,2019-11-06 12:51:03:422,-0.7596,0.8893,10.0348,-0.0134,0.0183,9.8066,0.0038,0.5788,-0.3574,5.31,-39.81,-23,25.3,-80.22,30.14
53.05154,-1.799703,227.74,11.14,4,58.28,22 / 23,521814,2019-11-06 12:51:03:522,6.4835,-1.0716,10.4541,-0.1117,0.0081,9.8059,0.1062,-0.2659,0.2443,5,-40.06,-23.31,28.35,-80.19,32.33
53.05154,-1.799703,227.74,11.14,4,58.28,22 / 23,521914,2019-11-06 12:51:03:622,-3.9284,0.7745,9.4818,0.0502,0.0175,9.8064,-0.0106,0.3842,-0.2727,5.69,-40.12,-23,20.85,-80.43,29.48
53.05154,-1.799703,227.74,11.14,4,58.28,22 / 23,522014,2019-11-06 12:51:03:722,-5.8188,0.3483,9.8962,-0.0537,-0.0172,9.8064,0.0441,-0.8284,0.5347,4.75,-40.37,-23.5,24.79,-80.23,29.78
53.05154,-1.799703,227.74,11.14,4,58.28,22 / 23,522114,2019-11-06 12:51:03:822,-3.3476,0.9527,9.2643,0.1773,0.0083,9.805,0.0084,-0.3453,0.2437,4.81,-40.5,-22.87,26.25,-80.11,30.74
53.05154,-1.799703,227.74,11.14,4,58.28,22 / 23,522214,2019-11-06 12:51:03:922,-5.4721,-0.1359,9.7852,0.0639,-0.0025,9.8064,-0.0436,-0.5207,0.2968,4.88,-39.87,-23,20.61,-80.35,26.84
53.05154,-1.799703,227.74,11.14,4,58.28,22 / 23,522314,2019-11-06 12:51:04:022,4.2099,-0.3629,10.4518,0.0864,-0.0091,9.8062,0.0862,-0.6252,0.3659,5,-39.75,-23.56,23.75,-80.12,28.71
53.05154,-1.799703,227.74,11.14,4,58.28,22 / 23,522414,2019-11-06 12:51:04:122,-2.8238,-1.1221,10.2071,0.0599,0.0267,9.8064,0.0421,0.0877,-0.0846,5.5,-39.87,-23.44,17.1,-80.15,26.62
53.05154,-1.799703,227.74,11.14,4,58.28,21 / 23,522514,2019-11-06 12:51:04:222,2.3633,-0.6414,10.1407,-0.0201,-0.0029,9.8065,0.0491,-0.2498,0.1092,5.31,-39.75,-23.5,23.2,-79.95,28.42
53.05154,-1.799703,227.74,11.14,4,58.28,21 / 23,522614,2019-11-06 12:51:04:322,-2.0348,1.9284,10.0394,0.0444,0.0191,9.8065,0.0324,0.0232,0.0369,5.31,-40.25,-23,24.39,-80.13,29.41
53.05154,-1.799703,227.74,11.14,4,58.28,21 / 23,522714,2019-11-06 12:51:04:422,1.8382,-0.0876,9.9683,0.0103,0.0177,9.8066,0.0769,-0.2092,0.1493,5.31,-39.87,-23.25,27.84,-80.24,32.01
53.05154,-1.799703,227.74,11.14,4,58.28,21 / 23,522814,2019-11-06 12:51:04:522,-3.7576,-0.4206,9.2784,0.0512,0.0249,9.8065,-0.0293,0.1149,-0.0488,5.63,-40.44,-22.94,24.97,-80.53,32.57
53.05154,-1.799703,227.74,11.14,4,58.28,21 / 23,522914,2019-11-06 12:51:04:622,-0.5023,-1.6226,10.6587,0.0202,-0.0086,9.8065,-0.0181,-0.1741,0.2792,5.63,-40.37,-22.25,24.01,-80.47,32.17
53.05154,-1.799703,227.74,11.14,4,58.28,21 / 23,523014,2019-11-06 12:51:04:722,-0.4229,-1.0337,10.0331,-0.0109,-0.0228,9.8065,-0.0245,0.3698,-0.1853,5,-40.5,-22.75,26.04,-80.3,30.75
53.05154,-1.799703,227.74,11.14,4,58.28,21 / 23,523114,2019-11-06 12:51:04:822,-2.6443,-1.2893,9.4121,-0.1016,-0.026,9.806,-0.106,0.3216,-0.2117,5.25,-40.56,-22.87,28.33,-80.1,32.04
53.05154,-1.799703,227.74,11.14,4,58.28,21 / 23,523214,2019-11-06 12:51:04:922,4.0254,2.3396,11.9664,-0.0293,-0.0241,9.8065,-0.1795,0.416,-0.2595,5.5,-39.25,-23.19,21.44,-80.35,30
53.05154,-1.799703,227.74,11.14,4,58.28,21 / 23,523314,2019-11-06 12:51:05:022,-0.3692,1.7064,12.2621,0.0033,-0.0395,9.8065,-0.0338,0.0608,0.1596,4.69,-40.87,-22.94,23.54,-80.96,29.26
53.05154,-1.799703,227.74,11.14,4,58.28,21 / 23,523414,2019-11-06 12:51:05:122,-3.4894,-2.3897,7.519,0.0393,0.0484,9.8064,-0.1147,-0.0637,0.3861,5.13,-40.44,-22.69,24.63,-81.15,30.37
53.052258,-1.799392,214.79,10.23,4,351.48,21 / 23,523514,2019-11-06 12:51:05:222,0.6468,-2.3715,7.5973,-0.0112,0.0106,9.8066,-0.315,0.2732,0.1547,5.25,-40.75,-23.12,24.07,-80.92,29.61
53.052258,-1.799392,214.79,10.23,4,351.48,21 / 23,523614,2019-11-06 12:51:05:322,3.9802,-2.1734,8.4229,-0.042,-0.0012,9.8065,-0.249,-0.1444,0.3082,4.81,-40,-22.5,20.31,-80.45,26.99
53.052258,-1.799392,214.79,10.23,4,351.48,21 / 23,523714,2019-11-06 12:51:05:422,0.2932,-0.6106,8.5808,-0.0686,0.0014,9.8063,-0.0939,-0.0895,0.1229,5.56,-40.5,-23.19,16.54,-80.07,26.18
53.052258,-1.799392,214.79,10.23,4,351.48,21 / 23,523814,2019-11-06 12:51:05:522,-0.1107,1.3986,10.0948,-0.0118,-0.0188,9.8066,0.1091,-0.1324,-0.0612,5.88,-40.5,-22.69,16.36,-80,26.02
53.052258,-1.799392,214.79,10.23,4,351.48,21 / 23,523915,2019-11-06 12:51:05:623,0.9159,-1.3507,9.9876,0.0246,-0.0159,9.8065,0.0404,0.0708,0.0087,6.13,-39.69,-23.81,17.94,-80.03,26.77
53.052258,-1.799392,214.79,10.23,4,351.48,21 / 23,524015,2019-11-06 12:51:05:723,1.126,-1.296,9.5204,0.0044,0.0153,9.8066,-0.0216,-0.1142,0.0486,4.94,-40.25,-23.44,19.34,-80.03,25.74
53.052258,-1.799392,214.79,10.23,4,351.48,21 / 23,524114,2019-11-06 12:51:05:822,1.3734,-0.1678,11.3901,0.0427,-0.0064,9.8065,0.1066,0.0715,-0.1238,5.31,-39.62,-23.62,20.1,-79.92,25.94
53.052258,-1.799392,214.79,10.23,4,351.48,21 / 23,524214,2019-11-06 12:51:05:922,1.5789,-1.0823,10.4726,-0.036,0.0382,9.8064,-0.0441,0.0897,0.0916,5.19,-40.06,-23.37,20.5,-80.03,26.56
53.052258,-1.799392,214.79,10.23,4,351.48,21 / 23,524315,2019-11-06 12:51:06:023,1.833,0.8276,9.6094,-0.0671,-0.001,9.8063,0.1071,-0.4106,0.2208,4.88,-40.44,-23.31,24.06,-80.01,29.08
53.052258,-1.799392,214.79,10.23,4,351.48,21 / 23,524415,2019-11-06 12:51:06:123,2.104,-1.1109,9.2172,-0.0219,-0.0165,9.8066,-0.0138,-0.2674,0.1456,5.69,-40.44,-23.06,19.98,-80.1,28.64
53.052258,-1.799392,214.79,10.23,4,351.48,22 / 23,524515,2019-11-06 12:51:06:223,-1.1127,-0.9232,9.5166,-0.0236,-0.0229,9.8065,0.0422,0.1557,0.0665,5.25,-40,-23.12,21.77,-80.33,27.66
53.052258,-1.799392,214.79,10.23,4,351.48,22 / 23,524614,2019-11-06 12:51:06:322,0.0723,-1.1479,10.3991,0.0024,-0.003,9.8065,0.0438,0.1469,-0.2141,5.25,-39.87,-22.69,21.96,-80.35,27.82
53.052258,-1.799392,214.79,10.23,4,351.48,22 / 23,524714,2019-11-06 12:51:06:422,1.5181,-1.3846,9.3227,-0.0096,-0.0062,9.8066,0.2086,-0.1325,0.0917,5.06,-40.25,-22.06,24.18,-80.5,29.79
53.052258,-1.799392,214.79,10.23,4,351.48,22 / 23,524814,2019-11-06 12:51:06:522,-0.5736,-1.8238,9.5187,-0.0268,-0.0004,9.8066,-0.0614,0.1021,-0.0026,5.88,-40.75,-23,24.48,-80.63,32.11
53.052258,-1.799392,214.79,10.23,4,351.48,22 / 23,524914,2019-11-06 12:51:06:622,-2.8268,-0.337,10.0153,-0.075,0.0101,9.8063,-0.0544,-0.3071,0.2904,5.5,-40.56,-21.81,27.83,-80.57,34.83
53.052258,-1.799392,214.79,10.23,4,351.48,22 / 23,525014,2019-11-06 12:51:06:722,-3.0616,-0.9305,10.806,0.0564,-0.0103,9.8065,0.0284,-0.0257,0.0473,6,-40.25,-22.44,23.54,-80.68,31.98
53.052258,-1.799392,214.79,10.23,4,351.48,22 / 23,525114,2019-11-06 12:51:06:822,1.194,1.6125,11.0512,-0.1308,-0.0184,9.8057,0.1315,-0.9192,0.6084,5.56,-39.87,-22.19,21.61,-80.76,30.64
53.052258,-1.799392,214.79,10.23,4,351.48,22 / 23,525214,2019-11-06 12:51:06:922,8.6887,-0.3709,8.4318,-0.0421,0.028,9.8064,-0.0982,-0.3927,0.3874,6.31,-40.62,-22.44,27.06,-80.55,34.26
53.052258,-1.799392,214.79,10.23,4,351.48,22 / 23,525314,2019-11-06 12:51:07:022,2.7959,0.6462,8.9549,-0.1795,-0.0037,9.805,0.0023,-0.982,0.6076,5.69,-40.12,-23,22.3,-80.76,30.77
53.052258,-1.799392,214.79,10.23,4,351.48,22 / 23,525415,2019-11-06 12:51:07:123,9.2661,-0.2396,9.6782,-0.0916,-0.0208,9.8061,0.0193,-0.8752,0.69,4.63,-40.62,-23.12,29.96,-80.49,33.59
53.052258,-1.799392,214.79,10.23,4,351.48,20 / 22,525514,2019-11-06 12:51:07:222,-6.819,-1.4493,10.6736,0.0925,-0.0118,9.8062,0.0264,-0.4764,0.3502,5.5,-39.56,-22.69,19.15,-80.66,28.39
53.052258,-1.799392,214.79,10.23,4,351.48,20 / 22,525615,2019-11-06 12:51:07:323,6.1694,-1.5068,9.7378,0.1295,-0.0037,9.8058,-0.0205,-0.8863,0.5149,5.19,-40.56,-22.87,27.95,-80.27,31.92
53.052258,-1.799392,214.79,10.23,4,351.48,20 / 22,525714,2019-11-06 12:51:07:422,-4.1079,-3.2074,9.6831,0.1377,0.0408,9.8055,-0.0786,0.1179,-0.0354,5.56,-40.12,-22.94,19.55,-80.82,28.77
53.052258,-1.799392,214.79,10.23,4,351.48,20 / 22,525816,2019-11-06 12:51:07:524,4.1292,0.119,9.2949,0.0165,0.0043,9.8066,-0.0028,-0.0995,0.0071,5,-40.69,-22.81,25.81,-80.71,30.73
53.052258,-1.799392,214.79,10.23,4,351.48,20 / 22,525915,2019-11-06 12:51:07:623,0.7002,0.0224,9.4603,0.0039,-0.0016,9.8066,-0.0283,0.4813,-0.2911,5.31,-40.56,-22.75,25.81,-80.71,30.73
53.052258,-1.799392,214.79,10.23,4,351.48,20 / 22,526014,2019-11-06 12:51:07:722,3.9379,0.1213,9.1887,-0.0079,-0.0169,9.8066,0.0022,-0.2643,0.1095,4.94,-40.56,-23.06,26.63,-80.4,31.07
53.052258,-1.799392,214.79,10.23,4,351.48,20 / 22,526117,2019-11-06 12:51:07:825,-2.8791,-0.5505,10.1413,0.0729,-0.0201,9.8063,0.0344,0.169,-0.1142,5.56,-39.5,-23.44,20.31,-80.34,29.17
53.052258,-1.799392,214.79,10.23,4,351.48,20 / 22,526215,2019-11-06 12:51:07:923,1.3675,-1.1789,9.2223,-0.0225,-0.0311,9.8065,0.0664,-0.218,0.109,5.5,-40.06,-22.94,19.84,-80.27,28.65
53.052258,-1.799392,214.79,10.23,4,351.48,20 / 22,526315,2019-11-06 12:51:08:023,3.1277,-0.9986,10.1163,0.0384,-0.0006,9.8065,-0.0096,-0.1193,0.0598,4.81,-39.81,-24.19,22.55,-80.19,27.88
53.052258,-1.799392,214.79,10.23,4,351.48,20 / 22,526415,2019-11-06 12:51:08:123,1.9452,-0.7315,9.8924,-0.0309,-0.0214,9.8065,0.0438,-0.2204,0.2032,4.75,-39.75,-23.69,22.71,-79.97,27.86
53.052258,-1.799392,214.79,10.23,4,351.48,20 / 21,526514,2019-11-06 12:51:08:222,-0.0498,0.4084,10.1385,0.0358,-0.0057,9.8066,0.0445,0.004,-0.0818,5.06,-40.19,-23.69,20.08,-80.18,26.08
53.052258,-1.799392,214.79,10.23,4,351.48,20 / 21,526614,2019-11-06 12:51:08:322,0.1051,-0.6451,10.507,0.0055,-0.0081,9.8066,0.0012,-0.1925,0.0243,4.5,-39.44,-23.94,19.85,-80.21,26.07
53.052258,-1.799392,214.79,10.23,4,351.48,20 / 21,526714,2019-11-06 12:51:08:422,0.3209,0.8713,9.7151,-0.0105,0.0037,9.8065,0.0346,-0.0416,0.092,4.88,-40.06,-23.62,19.38,-80.24,25.61
53.052258,-1.799392,214.79,10.23,4,351.48,20 / 21,526815,2019-11-06 12:51:08:523,2.1889,0.0265,10.0725,-0.0068,0.0109,9.8066,0.034,-0.1408,0.0854,4.88,-39.81,-23.37,17.53,-80.53,24.73
53.052258,-1.799392,214.79,10.23,4,351.48,20 / 21,526915,2019-11-06 12:51:08:623,1.7267,0.9035,9.3292,0.0408,0.0073,9.8065,-0.0016,0.0387,0.0614,3.5,-40.31,-23.19,19.95,-80.7,24.14
53.052258,-1.799392,214.79,10.23,4,351.48,20 / 21,527014,2019-11-06 12:51:08:722,4.4401,0.271,9.6295,-0.0716,-0.0039,9.8063,-0.045,-0.6278,0.4274,3.81,-39.69,-23.31,18.77,-80.77,23.33
53.052258,-1.799392,214.79,10.23,4,351.48,20 / 21,527114,2019-11-06 12:51:08:822,4.1998,0.2489,9.984,0.0001,0.0028,9.8066,-0.0043,-0.4352,0.2637,3.63,-40.06,-23.44,14.05,-80.84,19.94
53.052258,-1.799392,214.79,10.23,4,351.48,20 / 21,527215,2019-11-06 12:51:08:923,-1.584,-2.213,11.0212,-0.0678,-0.0069,9.8063,0.0062,-0.1769,0.1436,4.13,-39.75,-23.75,10.51,-80.86,17.11
53.052258,-1.799392,214.79,10.23,4,351.48,20 / 21,527315,2019-11-06 12:51:09:023,5.3014,0.8028,9.5683,-0.1095,-0.0169,9.8059,0.1011,-0.5568,0.2068,3.19,-39.81,-23.56,18.74,-80.69,20.7
53.052258,-1.799392,214.79,10.23,4,351.48,20 / 21,527415,2019-11-06 12:51:09:123,-3.5717,-0.6453,9.4007,-0.0173,0.0312,9.8065,-0.1819,0.4334,-0.1875,4,-40.5,-23.94,16.57,-80.85,21.56
53.052258,-1.799392,214.79,10.23,4,351.48,21 / 21,527515,2019-11-06 12:51:09:223,-1.898,-2.4982,8.686,-0.0702,-0.0194,9.8063,-0.0369,-0.2324,0.0201,3.56,-39.69,-23.69,19.96,-80.71,23.98
53.052258,-1.799392,214.79,10.23,4,351.48,21 / 21,527618,2019-11-06 12:51:09:326,-0.5011,-1.6594,10.8184,0.0386,0.0175,9.8065,-0.2224,0.2419,0.0781,3.25,-40,-23.81,21.96,-80.49,22.94
53.052258,-1.799392,214.79,10.23,4,351.48,21 / 21,527714,2019-11-06 12:51:09:422,2.8706,-1.3734,10.9477,-0.0133,-0.0034,9.8066,0.0433,-0.1328,0.0593,3.81,-39.94,-24.69,17.4,-80.19,21.63
53.052258,-1.799392,214.79,10.23,4,351.48,21 / 21,527814,2019-11-06 12:51:09:522,0.3795,-1.938,10.7927,0.0222,0.023,9.8065,0.1016,0.1614,-0.2335,3.5,-39.37,-23.94,18.48,-80.1,22.67
53.052258,-1.799392,214.79,10.23,4,351.48,21 / 21,527915,2019-11-06 12:51:09:623,-1.2037,-2.1988,9.9598,-0.0425,0.059,9.8063,0.0477,0.0958,0.0719,4.5,-40.44,-23.62,19.73,-80.66,26.12
53.052258,-1.799392,214.79,10.23,4,351.48,21 / 21,528015,2019-11-06 12:51:09:723,-0.6898,-0.7684,10.3368,0.0094,0.0036,9.8066,0.1146,0.1767,-0.0487,3.44,-40.37,-23.25,26.93,-81.14,27.16
53.052258,-1.799392,214.79,10.23,4,351.48,21 / 21,528115,2019-11-06 12:51:09:823,-1.5321,-0.6298,10.3264,0.0407,0.0284,9.8065,0.0032,0.2785,-0.1663,3.81,-40.5,-22.94,23.38,-81.57,27.29
53.052258,-1.799392,214.79,10.23,4,351.48,21 / 21,528214,2019-11-06 12:51:09:922,-0.2582,0.381,9.9767,-0.0249,0.0129,9.8065,0.0144,-0.0431,0.0546,4.06,-40.75,-22.87,26.11,-81.65,29.27
53.052258,-1.799392,214.79,10.23,4,351.48,21 / 21,528314,2019-11-06 12:51:10:022,-1.5147,-0.3164,10.1228,-0.0068,-0.0287,9.8066,-0.0012,0.1582,-0.1026,4.63,-40.75,-23.31,23.08,-81.48,29.3
53.052258,-1.799392,214.79,10.23,4,351.48,21 / 21,528414,2019-11-06 12:51:10:122,1.9394,0.2985,9.6758,-0.0368,0.0327,9.8064,-0.0622,-0.194,0.2195,3.75,-41.5,-22.5,27.21,-81.74,30.34
53.052258,-1.799392,214.79,10.23,4,351.48,21 / 21,528515,2019-11-06 12:51:10:223,0.2102,1.349,9.8998,0.0028,0.0113,9.8066,-0.0094,-0.0013,-0.0189,4.06,-40.87,-22.56,28.85,-81.94,31.64
53.052258,-1.799392,214.79,10.23,4,351.48,21 / 21,528615,2019-11-06 12:51:10:323,-1.8714,1.365,7.9763,-0.0272,-0.0103,9.8065,-0.0614,-0.2593,0.1048,4.13,-40.44,-22.56,28.96,-81.96,31.91
53.052258,-1.799392,214.79,10.23,4,351.48,21 / 21,528715,2019-11-06 12:51:10:423,9.9097,-2.3322,11.5366,-0.0781,0.0527,9.8062,0.0154,-0.9913,0.2964,2.81,-41.81,-23.19,36.5,-81.89,34.89
53.052258,-1.799392,214.79,10.23,4,351.48,21 / 21,528815,2019-11-06 12:51:10:523,-9.7751,8.1974,12.122,0.0351,0.1181,9.8058,-0.4826,0.8381,-0.5258,2.69,-42.56,-23.37,34.46,-82.64,33.93
53.052258,-1.799392,214.79,10.23,4,351.48,21 / 21,528914,2019-11-06 12:51:10:622,-5.9263,-0.9697,8.0083,-0.2114,0.0564,9.8042,-0.0943,-0.403,0.3409,0,-44.25,-23.19,47.46,-81.72,35.38
53.052258,-1.799392,214.79,10.23,4,351.48,21 / 21,529015,2019-11-06 12:51:10:723,-6.3162,-0.6756,10.1004,0.171,-0.0121,9.8051,0.0647,1.4654,-0.611,-2.37,-46.12,-23.19,56.4,-81.63,37.05
53.052258,-1.799392,214.79,10.23,4,351.48,21 / 21,529115,2019-11-06 12:51:10:823,-7.8235,2.7206,11.3446,0.0492,-0.1918,9.8046,0.0019,1.1473,-0.3415,-5.87,-45.94,-20.19,63.13,-82.25,30.73
53.052258,-1.799392,214.79,10.23,4,351.48,21 / 21,529214,2019-11-06 12:51:10:922,7.6135,0.8646,10.8065,0.1153,-0.0247,9.8059,-0.0426,-0.168,0.0611,-8.94,-45.12,-17.94,77.82,-82.21,33.76
53.052258,-1.799392,214.79,10.23,4,351.48,21 / 21,529314,2019-11-06 12:51:11:022,0.4077,0.5816,8.344,0.1199,-0.1198,9.8052,-0.0607,0.9771,-0.6565,-6.75,-43.06,-18.69,62.9,-82.93,28.96
53.052258,-1.799392,214.79,10.23,4,351.48,21 / 21,529414,2019-11-06 12:51:11:122,8.2914,1.8835,9.539,-0.0608,-0.0337,9.8064,0.17,-0.5588,0.2181,-2.37,-41.12,-19,58.66,-81.91,37.33
53.052258,-1.799392,214.79,10.23,4,351.48,21 / 22,529514,2019-11-06 12:51:11:222,-3.4239,1.4867,8.8722,0.0867,-0.0054,9.8062,0.0163,0.3762,-0.1678,0.69,-40.81,-21.19,45.12,-82.43,37.05
53.052258,-1.799392,214.79,10.23,4,351.48,21 / 22,529614,2019-11-06 12:51:11:322,-2.1171,-1.5639,9.2923,-0.0028,-0.1122,9.806,0.1299,-0.5087,0.2896,1.81,-40,-22.06,40.47,-82.12,36.09
53.052258,-1.799392,214.79,10.23,4,351.48,21 / 22,529714,2019-11-06 12:51:11:422,-5.0528,0.1178,8.9356,0.0336,0.0602,9.8063,-0.2288,0.4958,-0.1569,3.38,-40.62,-22.25,34.89,-81.7,33.57
53.052258,-1.799392,214.79,10.23,4,351.48,21 / 22,529814,2019-11-06 12:51:11:522,5.584,0.9812,10.9357,-0.0144,-0.0081,9.8065,0.1465,-0.3387,-0.1143,4.19,-40.62,-22.62,33.13,-81.67,34.7
53.052258,-1.799392,214.79,10.23,4,351.48,21 / 22,529914,2019-11-06 12:51:11:622,2.1375,0.1095,10.2974,0.1158,0.0166,9.8059,0.0663,0.3243,-0.266,4.63,-40.25,-21.5,30.74,-81.64,35.93
53.052258,-1.799392,214.79,10.23,4,351.48,21 / 22,530014,2019-11-06 12:51:11:722,4.7676,1.9016,10.0803,-0.034,-0.0222,9.8065,0.1617,-0.6449,0.3812,4.69,-40.94,-21.87,33.82,-81.59,37.81
53.052258,-1.799392,214.79,10.23,4,351.48,21 / 22,530114,2019-11-06 12:51:11:822,3.0159,0.4561,9.816,0.0241,0.0312,9.8065,0.109,-0.3301,0.1825,4.31,-40.87,-21.44,34.62,-82.18,36.6
53.052258,-1.799392,214.79,10.23,4,351.48,21 / 22,530215,2019-11-06 12:51:11:923,-0.7354,1.7199,10.5378,-0.0121,0.0039,9.8066,-0.0478,-0.3986,0.1369,4.06,-41.19,-20.37,31.5,-82.72,34.94
53.052258,-1.799392,214.79,10.23,4,351.48,21 / 22,530314,2019-11-06 12:51:12:022,3.3516,0.9371,9.4369,-0.056,-0.0055,9.8064,0.047,-0.285,0.1202,3.81,-41.87,-20.69,32,-82.54,34.77
53.052258,-1.799392,214.79,10.23,4,351.48,21 / 22,530414,2019-11-06 12:51:12:122,0.9822,2.6338,10.6495,0.0191,0.0765,9.8063,-0.1629,-0.354,0.2426,3.25,-41,-20.06,33.87,-82.83,34.07
53.052258,-1.799392,214.79,10.23,4,351.48,22 / 22,530515,2019-11-06 12:51:12:223,1.4335,1.1698,9.7687,0.1132,-0.063,9.8058,0.0109,-0.1616,0.1102,2.31,-41.25,-20.25,30.31,-83.3,28.94
53.052258,-1.799392,214.79,10.23,4,351.48,22 / 22,530614,2019-11-06 12:51:12:322,3.9182,0.6878,10.6192,0.0722,0.0128,9.8063,0.035,-0.3217,-0.0876,1.81,-41.69,-20,24.39,-83.48,24.32
53.052258,-1.799392,214.79,10.23,4,351.48,22 / 22,530714,2019-11-06 12:51:12:422,1.3183,2.1485,8.4943,-0.0191,-0.0151,9.8065,0.0124,-0.1305,-0.1396,2.38,-41.37,-20.37,24.07,-83.52,24.25
53.052258,-1.799392,214.79,10.23,4,351.48,22 / 22,530814,2019-11-06 12:51:12:522,2.122,1.6023,9.1389,0.0562,-0.0369,9.8064,-0.2977,-0.0775,0.1382,1.56,-41,-20.56,24.97,-83.69,25.1
53.052258,-1.799392,214.79,10.23,4,351.48,22 / 22,530915,2019-11-06 12:51:12:623,-1.2882,2.2747,9.6106,0.0023,0.0088,9.8066,0.211,0.1264,-0.214,1.38,-41.94,-20.5,21.49,-83.39,19.15
53.052258,-1.799392,214.79,10.23,4,351.48,22 / 22,531014,2019-11-06 12:51:12:722,4.8297,0.9058,10.3774,0.0923,-0.0484,9.806,0.0689,0.0597,-0.1192,0.38,-40.94,-20.69,18.51,-83.62,14.45
53.052258,-1.799392,214.79,10.23,4,351.48,22 / 22,531115,2019-11-06 12:51:12:823,-3.1834,1.4769,9.1756,0.098,0.0031,9.8061,-0.0772,0.3764,-0.3841,0.44,-41.56,-20.81,18,-83.67,13.99
53.052258,-1.799392,214.79,10.23,4,351.48,22 / 22,531215,2019-11-06 12:51:12:923,1.7661,1.9518,10.3674,0.0044,0.0288,9.8066,-0.1185,-0.2696,0.1379,0.38,-41.19,-20.19,19.69,-83.7,15.22
53.052258,-1.799392,214.79,10.23,4,351.48,22 / 22,531317,2019-11-06 12:51:13:025,5.0718,1.7874,8.8786,0.1258,-0.001,9.8058,-0.0391,0.5128,-0.3723,0.38,-41.81,-19.94,14.38,-84.06,11.21
53.052258,-1.799392,214.79,10.23,4,351.48,22 / 22,531415,2019-11-06 12:51:13:123,12.027,3.1606,9.6898,-0.0335,0.0454,9.8064,0.006,-0.5247,0.3867,-0.44,-41.94,-20.12,15.66,-84.12,12.25
53.052258,-1.799392,214.79,10.23,4,351.48,20 / 21,531515,2019-11-06 12:51:13:223,-6.0123,1.416,9.2327,0.1796,-0.007,9.805,0.0277,0.3353,-0.4802,-0.19,-40.94,-20.19,14.22,-84.52,11.4
53.052258,-1.799392,214.79,10.23,4,351.48,20 / 21,531614,2019-11-06 12:51:13:322,1.5581,3.1724,9.9622,-0.1263,-0.0066,9.8057,0.103,-1.0344,0.5699,-0.19,-41.94,-20.37,19.46,-84.55,15.57
53.052258,-1.799392,214.79,10.23,4,351.48,20 / 21,531714,2019-11-06 12:51:13:422,9.3697,0.0881,9.1797,-0.0126,0.0044,9.8066,-0.0402,-0.3926,0.2,-1,-41.12,-19.5,28.33,-84.26,19.32
53.052258,-1.799392,214.79,10.23,4,351.48,20 / 21,531814,2019-11-06 12:51:13:522,2.1241,2.2532,8.4072,-0.1767,-0.0022,9.805,0.0964,-0.9712,0.3971,-0.94,-41.75,-20.25,38.33,-83.8,27.2
53.052258,-1.799392,214.79,10.23,4,351.48,20 / 21,531914,2019-11-06 12:51:13:622,8.6216,-0.538,11.2508,-0.1059,-0.009,9.806,0.2087,-0.928,0.5391,-1.06,-41.87,-19.75,37.44,-83.95,26.69
53.052258,-1.799392,214.79,10.23,4,351.48,20 / 21,532015,2019-11-06 12:51:13:723,-5.8747,3.3184,9.6729,-0.1178,0.0005,9.8059,0.091,-0.261,0.1866,-0.19,-42,-19.94,29.5,-84.42,23.6
53.052258,-1.799392,214.79,10.23,4,351.48,20 / 21,532115,2019-11-06 12:51:13:823,4.1248,0.4472,9.9556,-0.1244,0.0072,9.8058,0.1324,-1.0348,0.4598,-1,-41.94,-19.5,41.72,-84.08,29.81
53.052258,-1.799392,214.79,10.23,4,351.48,20 / 21,532215,2019-11-06 12:51:13:923,-4.5491,0.8299,9.3105,-0.0476,0.0183,9.8065,-0.0438,0.1499,0.0257,0,-41.75,-19.62,33.15,-84.46,26.65
53.052258,-1.799392,214.79,10.23,4,351.48,20 / 21,532315,2019-11-06 12:51:14:023,4.5428,0.8291,9.6161,-0.1037,0.0152,9.806,0.0024,-0.587,0.166,-0.94,-42.12,-19,42.36,-84.4,30.85
53.052258,-1.799392,214.79,10.23,4,351.48,20 / 21,532415,2019-11-06 12:51:14:123,5.4969,0.928,10.1787,0.0852,-0.003,9.8062,-0.1439,0.6103,-0.4442,-0.31,-42.31,-18.87,33.83,-84.6,27.05
53.052914,-1.799561,203.56,9.5,4,6.66,20 / 21,532514,2019-11-06 12:51:14:222,-2.6819,2.196,9.459,-0.0418,0.012,9.8064,-0.0841,-0.047,0.0463,-0.75,-42.75,-18.87,41.36,-84.31,29.67
53.052914,-1.799561,203.56,9.5,4,6.66,20 / 21,532614,2019-11-06 12:51:14:322,-1.7425,1.476,9.4717,0.0801,0.0039,9.8063,-0.1309,0.5002,-0.3264,-1.25,-42.19,-19,40.27,-84.16,28.74
53.052914,-1.799561,203.56,9.5,4,6.66,20 / 21,532714,2019-11-06 12:51:14:422,-0.3149,0.9261,9.7055,0.0006,0.0087,9.8066,-0.0116,0.0712,-0.1863,-0.75,-42.12,-19.25,39.32,-84.34,28.23
53.052914,-1.799561,203.56,9.5,4,6.66,20 / 21,532814,2019-11-06 12:51:14:522,6.0031,-0.5471,11.0023,0.0986,0.0138,9.806,-0.0817,0.4718,-0.2634,-1.19,-41.69,-19.06,42.28,-84.25,30.54
53.052914,-1.799561,203.56,9.5,4,6.66,20 / 21,532914,2019-11-06 12:51:14:622,-0.3729,1.2041,10.2213,0.0506,-0.016,9.8065,-0.0188,0.515,-0.2733,-1.12,-41.75,-19,37.48,-84.56,27.01
53.052914,-1.799561,203.56,9.5,4,6.66,20 / 21,533014,2019-11-06 12:51:14:722,6.4656,-1.031,10.3873,0.0378,-0.0132,9.8065,0.0701,-0.0854,-0.0305,-1.12,-42,-18.56,37.13,-84.56,26.73
53.052914,-1.799561,203.56,9.5,4,6.66,20 / 21,533114,2019-11-06 12:51:14:822,1.2491,0.905,9.488,0.1017,0.001,9.806,-0.1222,0.5999,-0.2598,-0.75,-42.25,-19.5,37.04,-84.7,26.85
53.052914,-1.799561,203.56,9.5,4,6.66,20 / 21,533214,2019-11-06 12:51:14:922,6.5145,-0.2097,10.047,-0.0693,-0.002,9.8064,0.1397,-0.7392,0.3612,-1.19,-42.12,-19.25,36.32,-84.74,26.3
53.052914,-1.799561,203.56,9.5,4,6.66,20 / 21,533314,2019-11-06 12:51:15:022,2.0139,0.125,10.5214,0.027,-0.0104,9.8065,0.1064,-0.2476,0.1052,-1.12,-41.62,-19.31,38.21,-84.75,27.89
53.052914,-1.799561,203.56,9.5,4,6.66,20 / 21,533414,2019-11-06 12:51:15:122,-6.049,1.0468,9.7201,-0.1084,0.0088,9.806,0.0649,-0.647,0.4479,-1.37,-41.69,-19.19,34.66,-85.05,25.31
53.052914,-1.799561,203.56,9.5,4,6.66,20 / 21,533514,2019-11-06 12:51:15:222,2.4835,0.1211,10.7501,-0.0659,0.0081,9.8064,0.0285,-0.6387,0.3536,-1.87,-41.81,-18.56,41.6,-84.97,28.12
53.052914,-1.799561,203.56,9.5,4,6.66,20 / 21,533614,2019-11-06 12:51:15:322,-3.8328,0.7449,8.8469,-0.0406,0.023,9.8065,-0.0024,-0.166,0.0451,-2,-42.31,-18.87,41.37,-85.11,28.12
53.052914,-1.799561,203.56,9.5,4,6.66,20 / 21,533714,2019-11-06 12:51:15:422,5.3945,-1.2881,10.3945,-0.1116,-0.0042,9.806,0.1083,-0.5964,0.3355,-2.69,-41.81,-19.25,44.45,-85.15,27.93
53.052914,-1.799561,203.56,9.5,4,6.66,20 / 21,533814,2019-11-06 12:51:15:522,1.9864,-1.2509,10.3411,0.0373,-0.0051,9.8065,-0.0866,0.423,-0.2231,-2.31,-42.12,-19.12,38.53,-85.37,26.08
53.052914,-1.799561,203.56,9.5,4,6.66,20 / 21,533914,2019-11-06 12:51:15:622,3.9423,0.4396,10.2722,-0.0332,0.0216,9.8065,0.0249,-0.0689,0.0729,-2.87,-41.81,-18.69,39.2,-85.53,23.96
53.052914,-1.799561,203.56,9.5,4,6.66,20 / 21,534014,2019-11-06 12:51:15:722,0.5533,1.6901,9.321,0.0703,-0.022,9.8063,-0.079,0.3438,-0.2465,-2.37,-42.06,-19.25,34.85,-85.61,23.24
53.052914,-1.799561,203.56,9.5,4,6.66,20 / 21,534114,2019-11-06 12:51:15:822,-0.2342,-2.3002,8.6489,0.0123,0.0283,9.8065,-0.3763,0.2594,0.0976,-2.31,-42.25,-18.37,28.32,-85.73,17.21
53.052914,-1.799561,203.56,9.5,4,6.66,20 / 21,534216,2019-11-06 12:51:15:924,2.1462,-0.8838,9.7212,-0.1461,0.0411,9.8054,-0.1045,-0.8241,0.6269,-2.94,-41.69,-18.69,35.56,-85.5,20.78
53.052914,-1.799561,203.56,9.5,4,6.66,20 / 21,534315,2019-11-06 12:51:16:023,7.3784,1.2607,13.0083,0.0073,0.0424,9.8065,0.1037,-0.7396,0.3292,-3.44,-42.12,-18.25,22.38,-85.83,9.21
53.052914,-1.799561,203.56,9.5,4,6.66,20 / 21,534415,2019-11-06 12:51:16:123,-6.1502,-0.5088,11.0397,-0.1487,0.0802,9.8051,0.0486,-0.3064,0.0475,-3.25,-42.31,-18.25,16.83,-86.04,4.7
53.052914,-1.799561,203.56,9.5,4,6.66,20 / 21,534515,2019-11-06 12:51:16:223,13.1154,-4.2695,10.5183,-0.1912,0.0393,9.8047,0.4113,-1.771,0.9959,-3.81,-41.5,-18.19,37.52,-86.46,20.13
53.052914,-1.799561,203.56,9.5,4,6.66,20 / 21,534615,2019-11-06 12:51:16:323,-5.4491,1.2149,8.7216,0.0533,-0.0378,9.8064,0.0226,0.6212,-0.4337,-3.37,-42.37,-18.31,27.42,-87.04,14.79
53.052914,-1.799561,203.56,9.5,4,6.66,20 / 21,534715,2019-11-06 12:51:16:423,-3.9584,2.7307,9.684,-0.2024,-0.0365,9.8045,0.169,-0.6175,0.3574,-3.94,-42.56,-17.44,37.59,-86.58,19.17
53.052914,-1.799561,203.56,9.5,4,6.66,20 / 21,534815,2019-11-06 12:51:16:523,-6.2914,1.7967,9.3773,0.1624,-0.0415,9.8051,-0.1967,0.9497,-0.662,-4.19,-42.37,-17.69,20.05,-86.64,4.87
53.052914,-1.799561,203.56,9.5,4,6.66,20 / 21,534914,2019-11-06 12:51:16:622,-0.2719,2.3723,8.9116,-0.0495,0.0255,9.8064,-0.2293,0.2178,-0.1527,-4.44,-42,-18.19,30.86,-86.15,13.77
53.052914,-1.799561,203.56,9.5,4,6.66,20 / 21,535014,2019-11-06 12:51:16:722,9.3798,-4.4254,9.0657,0.1748,-0.0381,9.805,-0.0214,1.0245,-0.7419,-4.5,-42.12,-18.5,38.45,-85.87,19.99
53.052914,-1.799561,203.56,9.5,4,6.66,20 / 21,535116,2019-11-06 12:51:16:824,-5.0374,-0.7789,9.4704,0.0833,-0.0493,9.8061,0.125,1.3693,-0.8426,-3.75,-42.69,-17.87,29.43,-86.19,12.49
53.052914,-1.799561,203.56,9.5,4,6.66,20 / 21,535214,2019-11-06 12:51:16:922,12.1949,-0.7777,12.4959,0.1221,-0.0172,9.8058,0.0603,-0.1547,0.0304,-3.81,-42.19,-16.94,44.61,-86.06,24.62
53.052914,-1.799561,203.56,9.5,4,6.66,20 / 21,535314,2019-11-06 12:51:17:022,2.3506,-3.0379,7.8663,0.1596,0.0039,9.8053,-0.2176,0.6909,-0.3857,-3.44,-41.56,-17.31,30.3,-86.48,15.92
53.052914,-1.799561,203.56,9.5,4,6.66,20 / 21,535414,2019-11-06 12:51:17:122,8.0627,-3.532,8.7392,-0.1603,0.0239,9.8052,0.0167,-0.9811,0.8058,-4,-42.12,-17.56,52.07,-85.93,32.13
53.052914,-1.799561,203.56,9.5,4,6.66,20 / 21,535514,2019-11-06 12:51:17:222,2.3641,-1.5642,8.8264,0.0424,-0.0457,9.8064,0.0202,-0.3945,-0.089,-3.44,-42.62,-17.12,40.58,-86.22,24.37
53.052914,-1.799561,203.56,9.5,4,6.66,20 / 21,535614,2019-11-06 12:51:17:322,-5.636,4.48,9.3836,-0.0843,0.039,9.8062,-0.0265,-0.6252,0.214,-2.56,-42.56,-18,42.24,-85.96,26.29
53.052914,-1.799561,203.56,9.5,4,6.66,20 / 21,535714,2019-11-06 12:51:17:422,4.9432,-0.3005,9.6429,-0.1249,0.0205,9.8058,0.0482,-0.6219,0.4592,-2.94,-41.94,-17.81,47.94,-85.78,31.17
53.052914,-1.799561,203.56,9.5,4,6.66,20 / 21,535814,2019-11-06 12:51:17:522,-2.2042,1.3495,10.4298,0.0654,0.0101,9.8063,-0.2787,0.9,-0.4838,-2.44,-42.19,-18,42.92,-85.64,29.59
53.052914,-1.799561,203.56,9.5,4,6.66,20 / 21,535914,2019-11-06 12:51:17:622,-9.5644,1.4104,8.9503,0.0129,0.0213,9.8066,-0.1926,0.5578,-0.212,-3.12,-42.06,-18.06,43.98,-85.74,27.61
53.052914,-1.799561,203.56,9.5,4,6.66,20 / 21,536014,2019-11-06 12:51:17:722,3.4739,1.3301,11.8928,0.1631,-0.0034,9.8053,0.083,0.7231,-0.2803,-2.69,-42.37,-17.81,33.39,-86.39,19.3
53.052914,-1.799561,203.56,9.5,4,6.66,20 / 21,536114,2019-11-06 12:51:17:822,-7.1942,3.5807,8.6813,0.1549,0.019,9.8053,-0.1636,1.027,-0.4211,-3.31,-42.25,-17.37,36.85,-86.61,21.83
53.052914,-1.799561,203.56,9.5,4,6.66,20 / 21,536214,2019-11-06 12:51:17:922,1.0095,0.8931,10.7498,0.0142,0.0044,9.8066,-0.044,-0.3065,0.2504,-3.69,-42.19,-17.19,41.98,-86.63,23.26
53.052914,-1.799561,203.56,9.5,4,6.66,20 / 21,536314,2019-11-06 12:51:18:022,-3.9616,4.353,9.8178,0.0857,-0.0175,9.8062,-0.0625,0.2444,-0.238,-2.87,-42.81,-17.87,31.41,-86.56,17.68
53.052914,-1.799561,203.56,9.5,4,6.66,20 / 21,536416,2019-11-06 12:51:18:124,0.5102,-1.9746,6.4234,-0.0964,-0.0492,9.806,0.3309,-0.7467,0.4202,-4.12,-42.19,-17.12,34.98,-86.5,16.87
53.052914,-1.799561,203.56,9.5,4,6.66,19 / 22,536514,2019-11-06 12:51:18:222,2.2773,-0.8235,11.2089,0.0233,-0.0606,9.8064,0.2121,0.0379,-0.2726,-2.94,-42.5,-17.31,33.95,-86.38,18.96
53.052914,-1.799561,203.56,9.5,4,6.66,19 / 22,536615,2019-11-06 12:51:18:323,2.7594,0.8306,7.7702,-0.1402,0.0848,9.8052,-0.1537,-0.7919,0.4526,-3.87,-42.37,-17.81,57.82,-86.38,38.23
53.052914,-1.799561,203.56,9.5,4,6.66,19 / 22,536714,2019-11-06 12:51:18:422,5.5542,-3.1427,9.7408,-0.0682,0.0269,9.8063,0.0357,-0.6705,0.406,-3.19,-42.12,-16.87,52.15,-86.46,35.28
53.052914,-1.799561,203.56,9.5,4,6.66,19 / 22,536814,2019-11-06 12:51:18:522,-5.4674,3.9086,10.7851,-0.1106,0.0394,9.8059,-0.2912,-0.417,-0.0103,-3.06,-42,-17.31,47.29,-86.54,31.03
53.052914,-1.799561,203.56,9.5,4,6.66,19 / 22,536914,2019-11-06 12:51:18:622,11.0205,0.2998,11.687,-0.2425,-0.0225,9.8035,0.3155,-1.043,0.7561,-3.31,-42,-17.5,56.4,-85.63,37.41
53.052914,-1.799561,203.56,9.5,4,6.66,19 / 22,537014,2019-11-06 12:51:18:722,1.69,-0.1509,9.6644,0.1355,-0.0014,9.8057,-0.1509,1.2919,-0.7099,-2.94,-42.31,-17.69,53.35,-86,36.41
53.052914,-1.799561,203.56,9.5,4,6.66,19 / 22,537114,2019-11-06 12:51:18:822,-9.8917,2.0063,10.9853,-0.0057,-0.0152,9.8066,-0.0013,0.551,-0.3766,-2.31,-42.44,-16.81,50.15,-86.09,35.98
53.052914,-1.799561,203.56,9.5,4,6.66,19 / 22,537215,2019-11-06 12:51:18:923,6.2782,-0.3979,11.5347,0.1801,-0.0813,9.8046,0.1572,0.7136,-0.1748,-3.19,-42.62,-17.5,41.17,-86.32,25.06
53.052914,-1.799561,203.56,9.5,4,6.66,19 / 22,537315,2019-11-06 12:51:19:023,-10.8562,3.8361,10.2805,0.2082,-0.0608,9.8042,0.0671,1.0777,-1.0785,-2.12,-42.44,-17.25,36.12,-86.49,24.27
53.052914,-1.799561,203.56,9.5,4,6.66,19 / 22,537415,2019-11-06 12:51:19:123,2.4129,0.2087,7.2365,0.0748,-0.0788,9.806,0.0839,-0.1431,0.0833,-3.69,-42,-17.44,57.07,-86.2,36.07
53.052914,-1.799561,203.56,9.5,4,6.66,19 / 21,537516,2019-11-06 12:51:19:224,-4.7227,3.121,10.1901,0.172,-0.0801,9.8048,0.0282,0.7319,-0.5176,-3.31,-42.5,-17.87,35.59,-86.51,21.39
53.052914,-1.799561,203.56,9.5,4,6.66,19 / 21,537615,2019-11-06 12:51:19:323,3.2108,-0.4355,8.7254,0.0374,0.0213,9.8065,-0.19,0.1855,-0.2273,-3.44,-41.25,-17.62,42.21,-86.4,27.25
53.052914,-1.799561,203.56,9.5,4,6.66,19 / 21,537715,2019-11-06 12:51:19:423,-1.5086,2.4262,9.6813,0.0662,-0.0234,9.8064,0.1318,0.4229,-0.1955,-3.5,-42.75,-17.62,44.05,-86.7,29.13
53.052914,-1.799561,203.56,9.5,4,6.66,19 / 21,537814,2019-11-06 12:51:19:522,2.425,1.0669,8.3022,0.0457,0.0129,9.8065,-0.2024,0.5211,-0.0317,-2.87,-42.25,-17.12,47.07,-87.16,31.95
53.052914,-1.799561,203.56,9.5,4,6.66,19 / 21,537915,2019-11-06 12:51:19:623,-8.3855,-0.3834,9.1293,0.1718,-0.0212,9.8051,-0.3311,1.0136,-0.5121,-3.06,-42.37,-17.56,37.5,-87.26,24.16
53.052914,-1.799561,203.56,9.5,4,6.66,19 / 21,538015,2019-11-06 12:51:19:723,-1.4183,-0.4334,9.3035,-0.0249,0.0177,9.8066,0.1181,-0.641,0.3755,-3.81,-42.37,-17.81,40.19,-86.96,23.14
53.052914,-1.799561,203.56,9.5,4,6.66,19 / 21,538115,2019-11-06 12:51:19:823,-11.5687,1.1709,7.0006,0.1622,0.007,9.8052,-0.1651,0.3692,-0.1183,-3.75,-42.06,-17.5,32.58,-87.44,16
53.052914,-1.799561,203.56,9.5,4,6.66,19 / 21,538214,2019-11-06 12:51:19:922,-7.724,1.7705,7.3965,-0.282,0.0002,9.8025,0.0051,-1.9566,1.0851,-4.62,-41.81,-17.81,55.7,-86.42,33.45
53.052914,-1.799561,203.56,9.5,4,6.66,19 / 21,538315,2019-11-06 12:51:20:023,15.5685,-6.1968,13.09,-0.142,-0.0561,9.8054,0.3616,-1.5046,0.8536,-4.5,-42.06,-17.31,38.85,-86.52,20.3
53.052914,-1.799561,203.56,9.5,4,6.66,19 / 21,538415,2019-11-06 12:51:20:123,-11.4826,-2.2926,7.5621,-0.1469,0.0647,9.8053,-0.076,-0.0338,-0.0093,-3.31,-41.81,-17.62,27.54,-86.96,14.82
53.052914,-1.799561,203.56,9.5,4,6.66,19 / 21,538514,2019-11-06 12:51:20:222,5.4314,-0.6492,10.9702,-0.1587,0.0532,9.8052,0.1069,-0.6775,0.461,-4.12,-42.12,-16.62,57.22,-87.2,38.28
53.052914,-1.799561,203.56,9.5,4,6.66,19 / 21,538614,2019-11-06 12:51:20:322,4.5663,0.1904,10.3516,0.0393,0.0387,9.8065,-0.0192,0.6493,-0.4044,-4,-41.87,-16.5,63.35,-87.79,44.25
53.052914,-1.799561,203.56,9.5,4,6.66,19 / 21,538714,2019-11-06 12:51:20:422,-1.6411,-0.0358,7.1374,0.0053,0.0115,9.8065,-0.0968,0.5643,-0.3051,-3.56,-42.75,-16.69,72.42,-87.97,54.39
53.052914,-1.799561,203.56,9.5,4,6.66,19 / 21,538814,2019-11-06 12:51:20:522,2.6337,-0.8781,9.6528,-0.0154,-0.0404,9.8065,0.0518,-0.0735,-0.1148,-3.5,-42.75,-16.25,70.27,-87.34,52.99
53.052914,-1.799561,203.56,9.5,4,6.66,19 / 21,538915,2019-11-06 12:51:20:623,0.9371,-0.4321,10.1132,0.0366,-0.0386,9.8065,-0.1244,0.1591,-0.0683,-3.25,-42.25,-17.62,62.84,-86.99,47.17
53.052914,-1.799561,203.56,9.5,4,6.66,19 / 21,539015,2019-11-06 12:51:20:723,-2.9964,-1.5243,8.1175,-0.0325,-0.0228,9.8065,-0.0337,-0.1993,0.1172,-3.25,-42.19,-17.69,57.78,-86.68,41.8
53.052914,-1.799561,203.56,9.5,4,6.66,19 / 21,539114,2019-11-06 12:51:20:822,4.4416,2.3635,11.0607,-0.0416,-0.0133,9.8065,0.2197,-0.3714,0.1633,-4,-41.94,-17.69,57.43,-86.96,39.01
53.052914,-1.799561,203.56,9.5,4,6.66,19 / 21,539214,2019-11-06 12:51:20:922,6.922,-1.3114,11.5958,0.0801,0.0201,9.8063,-0.2193,0.9621,-0.4406,-3.81,-42.12,-17.44,60.6,-87.12,41.27
53.052914,-1.799561,203.56,9.5,4,6.66,19 / 21,539314,2019-11-06 12:51:21:022,-0.0863,2.6717,8.5622,0.0527,-0.01,9.8064,0.0054,0.6999,-0.3893,-2.87,-42.25,-17.56,60.36,-86.84,44.51
53.052914,-1.799561,203.56,9.5,4,6.66,19 / 21,539414,2019-11-06 12:51:21:122,6.5676,-4.3141,10.2688,0.1138,-0.0508,9.8058,-0.032,0.5101,-0.2846,-3.94,-42.81,-16.81,73.01,-86.4,51.23
53.052914,-1.799561,203.56,9.5,4,6.66,19 / 20,539514,2019-11-06 12:51:21:222,-4.5753,-1.2275,8.8427,0.1253,-0.021,9.8058,-0.3286,0.8517,-0.5312,-2.94,-42.75,-16.94,60.36,-86.83,43.42
53.052914,-1.799561,203.56,9.5,4,6.66,19 / 20,539614,2019-11-06 12:51:21:322,9.2098,-3.6962,10.8977,0.0598,0.0278,9.8064,0.0727,-0.5756,0.5094,-4.12,-42.25,-17.31,64.71,-86.37,43.49
53.052914,-1.799561,203.56,9.5,4,6.66,19 / 20,539714,2019-11-06 12:51:21:422,-1.2114,0.1902,10.957,0.1832,-0.0356,9.8048,0.1549,0.3317,-0.228,-3.37,-41.75,-16.75,43.75,-87.57,29.63
53.052914,-1.799561,203.56,9.5,4,6.66,19 / 20,539814,2019-11-06 12:51:21:522,-7.0534,0.1795,8.1076,-0.1369,-0.0215,9.8057,0.1436,-1.0756,0.5407,-3.69,-42.12,-16.5,61.24,-86.95,40.33
53.052914,-1.799561,203.56,9.5,4,6.66,19 / 20,539914,2019-11-06 12:51:21:622,-0.6847,-1.0235,10.5284,-0.0161,-0.0356,9.8065,0.0104,-0.6095,0.4014,-4.81,-43.25,-16.94,53.88,-87.07,31.7
53.052914,-1.799561,203.56,9.5,4,6.66,19 / 20,540014,2019-11-06 12:51:21:722,-8.6684,-0.0169,8.3774,-0.1663,-0.0089,9.8052,0.1973,-0.7093,0.1932,-3.31,-42.44,-17.5,31.06,-87.14,17.42
53.052914,-1.799561,203.56,9.5,4,6.66,19 / 20,540114,2019-11-06 12:51:21:822,3.13,-2.9525,10.2896,-0.1645,0.0137,9.8052,0.3134,-1.0964,0.5982,-4.37,-42.62,-16.69,54.97,-86.69,34.99
53.052914,-1.799561,203.56,9.5,4,6.66,19 / 20,540214,2019-11-06 12:51:21:922,-9.0562,5.8233,8.7257,-0.0039,0.034,9.8065,-0.0911,1.0234,-0.579,-3.94,-42.94,-16.31,62.14,-87.56,42.45
53.052914,-1.799561,203.56,9.5,4,6.66,19 / 20,540314,2019-11-06 12:51:22:022,-2.7853,-0.2613,9.7699,-0.0384,0.0449,9.8064,-0.0797,0.3209,-0.1503,-3.5,-42.44,-16.87,74.17,-87.46,58.19
53.052914,-1.799561,203.56,9.5,4,6.66,19 / 20,540415,2019-11-06 12:51:22:123,9.7465,-1.8352,8.7714,0.1352,-0.0507,9.8055,-0.2638,0.7268,-0.494,-4.37,-41.87,-17.12,66.35,-87.94,48.56
53.052914,-1.799561,203.56,9.5,4,6.66,19 / 21,540515,2019-11-06 12:51:22:223,-1.9536,-0.1285,8.175,0.0718,-0.0645,9.8062,-0.1997,0.6041,-0.373,-3.31,-42.56,-17.12,61.77,-87.3,45.79
53.052914,-1.799561,203.56,9.5,4,6.66,19 / 21,540615,2019-11-06 12:51:22:323,5.0369,-2.6067,10.7338,-0.0194,-0.0016,9.8066,0.1263,-0.3368,0.2903,-4.5,-42.69,-18,66.73,-87.02,47.76
53.052914,-1.799561,203.56,9.5,4,6.66,19 / 21,540714,2019-11-06 12:51:22:422,4.2058,-1.9822,11.9789,0.1123,0.0101,9.8059,0.0832,0.2842,-0.3122,-3.31,-42.56,-17.75,62.33,-87.35,47.31
53.052914,-1.799561,203.56,9.5,4,6.66,19 / 21,540815,2019-11-06 12:51:22:523,-3.1067,1.7924,11.7116,-0.0279,0.0541,9.8064,0.046,-0.6111,0.0833,-3.94,-42.31,-16.81,77.55,-87.33,58.01
53.052914,-1.799561,203.56,9.5,4,6.66,19 / 21,540915,2019-11-06 12:51:22:623,6.044,-0.3802,10.5795,-0.0651,0.0453,9.8063,0.1702,-0.6806,0.5157,-4.44,-42.81,-16.56,92,-87.25,71.98
53.052914,-1.799561,203.56,9.5,4,6.66,19 / 21,541014,2019-11-06 12:51:22:722,0.5366,-2.1913,9.5107,0.0296,-0.0318,9.8065,-0.0308,0.6189,-0.1401,-3.62,-42.19,-17,89.15,-87.68,70.33
53.052914,-1.799561,203.56,9.5,4,6.66,19 / 21,541114,2019-11-06 12:51:22:822,-5.3729,1.5749,10.6532,0.0303,-0.0378,9.8065,0.0113,0.2398,-0.3138,-4.44,-42.44,-17.25,85.48,-87.64,66.58
53.052914,-1.799561,203.56,9.5,4,6.66,19 / 21,541214,2019-11-06 12:51:22:922,4.5244,-0.521,10.244,0.0748,-0.0149,9.8063,0.0864,-0.0613,-0.0289,-4.31,-42.37,-17,84.34,-87.45,64.97
53.052914,-1.799561,203.56,9.5,4,6.66,19 / 21,541315,2019-11-06 12:51:23:023,-0.8035,-1.8023,9.4723,0.0314,0.0285,9.8065,-0.0233,0.0715,-0.0194,-3.81,-42.12,-17.19,88.61,-87.9,70.3
53.052914,-1.799561,203.56,9.5,4,6.66,19 / 21,541414,2019-11-06 12:51:23:122,-4.1977,0.7929,10.6376,-0.0921,0.0498,9.806,-0.087,-0.4267,0.2853,-3.81,-42.37,-16.81,92.87,-87.97,74.74
53.053783,-1.799166,197.75,10.63,4,20.55,21 / 21,541514,2019-11-06 12:51:23:222,-1.9058,-1.1358,9.2049,-0.0337,-0.0305,9.8065,-0.0457,-0.1704,0.0097,-4.31,-42.31,-16.56,95.58,-87.6,76.59
53.053783,-1.799166,197.75,10.63,4,20.55,21 / 21,541615,2019-11-06 12:51:23:323,-0.2977,-0.0849,10.199,0.0086,-0.044,9.8065,-0.0709,0.0187,-0.1168,-4.81,-42.44,-17.94,81.97,-87.17,60.13
53.053783,-1.799166,197.75,10.63,4,20.55,21 / 21,541715,2019-11-06 12:51:23:423,1.1686,0.4188,8.8629,-0.0462,-0.0178,9.8064,-0.0143,-0.181,0.1447,-3.94,-42.12,-17.56,76.52,-86.78,56.82
53.053783,-1.799166,197.75,10.63,4,20.55,21 / 21,541814,2019-11-06 12:51:23:522,1.5687,-1.6767,8.543,0.0504,-0.0396,9.8064,0.0277,0.4809,-0.1992,-4.25,-41.94,-17.37,75.72,-87.06,55.57
53.053783,-1.799166,197.75,10.63,4,20.55,21 / 21,541914,2019-11-06 12:51:23:622,-1.4224,-0.5886,8.7593,0.0589,-0.0095,9.8065,-0.2008,0.4915,-0.0959,-4.94,-41.75,-17.69,64.23,-87.6,43.81
53.053783,-1.799166,197.75,10.63,4,20.55,21 / 21,542014,2019-11-06 12:51:23:722,4.6119,1.9914,9.3018,0.0336,-0.0773,9.8062,-0.1653,0.1506,-0.1418,-5.25,-41.81,-18.12,49.34,-87.43,29.39
53.053783,-1.799166,197.75,10.63,4,20.55,21 / 21,542115,2019-11-06 12:51:23:823,-2.1959,-0.7881,11.5446,0.0163,-0.0366,9.8065,0.0762,0.5624,-0.4125,-4.12,-41.94,-17.81,38.26,-86.78,21.13
53.053783,-1.799166,197.75,10.63,4,20.55,21 / 21,542215,2019-11-06 12:51:23:923,4.0292,0.1716,10.9687,0.0362,0.0034,9.8066,0.0736,-0.0403,-0.0364,-4.19,-42.06,-18.06,46.97,-86.66,28.83
53.053783,-1.799166,197.75,10.63,4,20.55,21 / 21,542314,2019-11-06 12:51:24:022,-0.6717,-0.6785,9.9398,0.0553,0.0106,9.8064,-0.0257,0.2092,-0.1392,-4.31,-42.31,-17.75,51.62,-86.76,33.25
53.053783,-1.799166,197.75,10.63,4,20.55,21 / 21,542414,2019-11-06 12:51:24:122,-0.9781,1.043,10.4722,-0.0201,0.0523,9.8065,0.0441,0.0951,0.0749,-4.06,-41.75,-17.75,59.5,-86.9,40.84
53.053783,-1.799166,197.75,10.63,4,20.55,20 / 21,542514,2019-11-06 12:51:24:222,-2.3954,1.5245,8.872,0.0661,-0.0001,9.8063,-0.0011,0.3721,-0.2099,-3.94,-41.87,-17.44,64.6,-87.32,45.49
53.053783,-1.799166,197.75,10.63,4,20.55,20 / 21,542614,2019-11-06 12:51:24:322,3.2948,0.0733,10.3445,0.0405,-0.0202,9.8065,0.0385,-0.1979,0.0844,-5.06,-42.06,-16.81,68.91,-87.31,46.53
53.053783,-1.799166,197.75,10.63,4,20.55,20 / 21,542715,2019-11-06 12:51:24:423,1.9261,-2.9016,9.367,0.0439,-0.0222,9.8065,-0.1122,0.0284,0.076,-4.56,-42,-16.75,57.5,-87.53,36.13
53.053783,-1.799166,197.75,10.63,4,20.55,20 / 21,542814,2019-11-06 12:51:24:522,0.6241,-0.844,10.5202,-0.0408,0.0026,9.8066,0.0848,-0.2338,0.2009,-5.44,-41.87,-16.69,55.63,-87.42,34.16
53.053783,-1.799166,197.75,10.63,4,20.55,20 / 21,542914,2019-11-06 12:51:24:622,2.8805,1.5924,9.9423,-0.0061,-0.0021,9.8066,0.0652,-0.2752,0.0826,-4.37,-42.06,-16.81,49.41,-87.62,31.8
53.053783,-1.799166,197.75,10.63,4,20.55,20 / 21,543015,2019-11-06 12:51:24:723,-3.6062,1.1973,10.0091,-0.0448,0.0026,9.8065,0.0716,-0.129,0.1744,-4.56,-42.06,-16.81,54.02,-87.81,33.4
53.053783,-1.799166,197.75,10.63,4,20.55,20 / 21,543115,2019-11-06 12:51:24:823,1.1316,2.1889,9.1743,-0.0203,0.027,9.8065,-0.0005,-0.1916,0.1613,-4.44,-42.31,-17.12,48.6,-87.96,31.66
53.053783,-1.799166,197.75,10.63,4,20.55,20 / 21,543215,2019-11-06 12:51:24:923,-2.1291,0.4665,9.4949,0.0083,-0.0117,9.8065,0.036,0.1431,-0.1629,-4,-42.31,-16.44,48.01,-88.21,30.56
53.053783,-1.799166,197.75,10.63,4,20.55,20 / 21,543315,2019-11-06 12:51:25:023,-0.3694,1.9381,9.1523,-0.0353,0.0155,9.8065,-0.0472,0.0392,0.1704,-4.69,-42.69,-17.37,54,-88.25,34.15
53.053783,-1.799166,197.75,10.63,4,20.55,20 / 21,543415,2019-11-06 12:51:25:123,0.9938,0.607,10.5529,0.0139,0.0051,9.8066,-0.0316,0.269,0.0798,-4.62,-42.06,-17.12,44.56,-88.33,25.38
53.053783,-1.799166,197.75,10.63,4,20.55,20 / 21,543515,2019-11-06 12:51:25:223,-1.909,0.5413,9.5801,0.0608,0.0163,9.8064,-0.0235,0.1962,-0.2548,-4.12,-42.12,-16.87,36.28,-88.45,20.82
53.053783,-1.799166,197.75,10.63,4,20.55,20 / 21,543614,2019-11-06 12:51:25:322,0.6934,1.2129,9.5948,0.011,0.0051,9.8066,-0.0001,0.0166,0.0105,-4.19,-43.31,-16.62,46.38,-88.52,30.49
53.053783,-1.799166,197.75,10.63,4,20.55,20 / 21,543714,2019-11-06 12:51:25:422,-4.3636,1.3766,9.4492,0.0152,-0.0127,9.8066,-0.0902,0.3657,-0.1346,-3.87,-42.31,-17.12,42.74,-88.51,27.05
53.053783,-1.799166,197.75,10.63,4,20.55,20 / 21,543814,2019-11-06 12:51:25:522,1.3772,-0.4377,9.6492,-0.0186,-0.018,9.8066,-0.0042,-0.2915,0.0714,-3.87,-42.06,-16.94,38.72,-88.3,22.91
53.053783,-1.799166,197.75,10.63,4,20.55,20 / 21,543914,2019-11-06 12:51:25:622,2.8135,0.1223,9.982,-0.0021,-0.0132,9.8066,0.0368,-0.0707,0.0808,-4,-42.06,-16.62,40.98,-88.04,24.64
53.053783,-1.799166,197.75,10.63,4,20.55,20 / 21,544014,2019-11-06 12:51:25:722,0.1157,-0.0868,10.1687,-0.08,0.0104,9.8062,0.0016,-0.3417,0.2628,-4.19,-42.81,-17,48.83,-87.78,31.45
53.053783,-1.799166,197.75,10.63,4,20.55,20 / 21,544114,2019-11-06 12:51:25:822,4.5633,-0.674,9.9042,-0.035,0.0217,9.8066,0.0265,-0.4541,0.2536,-4.44,-42.62,-17.75,44.5,-87.87,28.47
53.053783,-1.799166,197.75,10.63,4,20.55,20 / 21,544214,2019-11-06 12:51:25:922,-3.1256,-0.4761,10.5587,-0.0413,0.0189,9.8064,-0.0024,-0.0269,-0.0171,-2.81,-43,-17,43.74,-87.91,30.11
53.053783,-1.799166,197.75,10.63,4,20.55,20 / 21,544314,2019-11-06 12:51:26:022,3.8243,-0.3779,10.781,-0.0968,0.0232,9.8061,0.1029,-0.4279,0.2942,-3.56,-42.62,-16.62,57.49,-87.75,39.55
53.053783,-1.799166,197.75,10.63,4,20.55,20 / 21,544415,2019-11-06 12:51:26:123,-3.2193,-0.1636,10.3233,0.0044,0.0207,9.8065,0.0236,0.2335,-0.1697,-2.12,-42.75,-17.25,53.65,-87.83,42.52
53.053783,-1.799166,197.75,10.63,4,20.55,20 / 22,544515,2019-11-06 12:51:26:223,-1.6995,1.5068,10.3401,-0.0754,0.0189,9.8063,0.0919,-0.2057,0.1336,-3.44,-42.25,-17.37,67.52,-87.72,52.36
53.053783,-1.799166,197.75,10.63,4,20.55,20 / 22,544614,2019-11-06 12:51:26:322,-4.3669,2.4306,9.8229,0.0301,0.0318,9.8065,0.1191,0.4979,-0.2575,-2.44,-43.06,-16.81,79.96,-88.06,68.45
53.053783,-1.799166,197.75,10.63,4,20.55,20 / 22,544714,2019-11-06 12:51:26:422,-1.6904,-0.5231,10.2721,-0.0145,0.0479,9.8065,0.0866,0.1597,-0.0765,-2.37,-42.31,-17.19,98.37,-87.92,86.61
53.053783,-1.799166,197.75,10.63,4,20.55,20 / 22,544814,2019-11-06 12:51:26:522,1.1029,0.1793,9.6267,0.0376,-0.0053,9.8065,0.0144,0.3428,-0.2091,-1.87,-43.19,-17.06,108.15,-87.76,96.09
53.053783,-1.799166,197.75,10.63,4,20.55,20 / 22,544914,2019-11-06 12:51:26:622,1.7708,0.5968,9.4255,-0.0284,0.0025,9.8065,-0.0365,0.1051,-0.0034,-2,-43.19,-17.12,109.02,-87.69,96.82
53.053783,-1.799166,197.75,10.63,4,20.55,20 / 22,545014,2019-11-06 12:51:26:722,0.7635,-1.9106,10.7243,0.0308,-0.0027,9.8066,-0.0372,0.4257,-0.1545,-1.75,-43.37,-17.06,107.51,-87.63,95.12
53.053783,-1.799166,197.75,10.63,4,20.55,20 / 22,545114,2019-11-06 12:51:26:822,-3.6373,-1.7188,9.3764,0.0198,0.0209,9.8066,-0.133,0.4294,-0.2243,-1.75,-42.94,-17.12,109.13,-87.66,96.86
53.053783,-1.799166,197.75,10.63,4,20.55,20 / 22,545214,2019-11-06 12:51:26:922,0.266,-1.3006,9.8397,0.015,-0.0009,9.8066,-0.0331,0.2052,-0.0533,-0.94,-42.37,-16.87,105.55,-87.53,96.33
53.053783,-1.799166,197.75,10.63,4,20.55,20 / 22,545314,2019-11-06 12:51:27:022,-3.3478,-0.2395,9.9884,0.0354,-0.0095,9.8065,-0.0391,0.3793,-0.232,-1,-43.12,-16.37,105.09,-87.48,94.99
53.053783,-1.799166,197.75,10.63,4,20.55,20 / 22,545414,2019-11-06 12:51:27:122,-0.834,-0.3029,9.6835,-0.0022,-0.0065,9.8066,0.046,-0.0306,-0.0054,-0.75,-43.44,-16.31,104.7,-87.18,93.8
53.053783,-1.799166,197.75,10.63,4,20.55,20 / 20,545514,2019-11-06 12:51:27:222,-2.4225,0.6668,9.8006,0.0084,0.0141,9.8065,0.0345,0.1715,-0.0383,-1.06,-43.31,-16.44,106.88,-87.05,95.74
53.053783,-1.799166,197.75,10.63,4,20.55,20 / 20,545614,2019-11-06 12:51:27:322,0.2418,0.2645,10.6649,-0.0254,0.0258,9.8065,-0.0131,0.0086,0.0509,-0.44,-43.37,-16.25,107.26,-86.91,99.33
53.053783,-1.799166,197.75,10.63,4,20.55,20 / 20,545714,2019-11-06 12:51:27:422,0.0973,0.6546,9.9647,0.0248,0.0239,9.8065,0.0051,0.195,-0.0325,-0.5,-43.87,-15.75,111.77,-86.68,103.28
53.053783,-1.799166,197.75,10.63,4,20.55,20 / 20,545814,2019-11-06 12:51:27:522,0.5184,0.6744,9.544,-0.0366,0.0201,9.8065,0.0429,-0.0812,0.1502,-0.19,-43,-16.62,112.84,-86.44,104.55
53.053783,-1.799166,197.75,10.63,4,20.55,20 / 20,545914,2019-11-06 12:51:27:622,-0.5415,-0.6035,10.8265,0.0167,0.002,9.8066,0.0798,0.0024,0.0063,0.5,-43.69,-16.81,112.79,-86.47,107.75
53.053783,-1.799166,197.75,10.63,4,20.55,20 / 20,546014,2019-11-06 12:51:27:722,-3.9327,-1.7001,9.9394,-0.024,0.003,9.8066,0.0811,-0.0257,0.0788,0,-43.5,-16.81,117.77,-86.47,109.88
53.053783,-1.799166,197.75,10.63,4,20.55,20 / 20,546115,2019-11-06 12:51:27:823,-1.2709,-2.031,9.2586,-0.0128,0.025,9.8065,-0.0063,0.0963,0.084,0.31,-43.25,-16.06,122.54,-86.36,114.31
53.053783,-1.799166,197.75,10.63,4,20.55,20 / 20,546214,2019-11-06 12:51:27:922,-1.4904,-1.4943,9.9905,-0.0045,0.0059,9.8066,-0.0215,0.1684,0.0683,1.31,-44.19,-16.06,122.15,-86.35,117.26
53.053783,-1.799166,197.75,10.63,4,20.55,20 / 20,546314,2019-11-06 12:51:28:022,-2.6528,-2.7018,9.3776,0.0226,-0.0059,9.8066,-0.0618,0.2964,-0.0699,0.81,-43.37,-16.19,121.49,-86.5,117.07
53.053783,-1.799166,197.75,10.63,4,20.55,20 / 20,546414,2019-11-06 12:51:28:122,-1.1126,-4.0692,10.0369,0.0154,-0.0054,9.8065,-0.0156,0.3702,-0.0732,1.25,-43.06,-16.81,120.16,-86.57,116.06
53.053783,-1.799166,197.75,10.63,4,20.55,21 / 21,546514,2019-11-06 12:51:28:222,-5.3541,-3.6805,9.612,0.045,0.0182,9.8065,-0.0513,0.616,-0.2501,1.81,-43.69,-16.75,118.64,-86.5,117.46
53.053783,-1.799166,197.75,10.63,4,20.55,21 / 21,546614,2019-11-06 12:51:28:322,-1.2144,-2.2912,9.8856,0.0384,0.0152,9.8065,0.0334,0.2092,0.0583,1.25,-43.44,-16.87,120.66,-86.39,116.2
53.053783,-1.799166,197.75,10.63,4,20.55,21 / 21,546714,2019-11-06 12:51:28:422,-4.9876,-3.0389,10.0914,0.0814,0.0124,9.8062,0.0067,0.5281,-0.1257,2.13,-44.25,-16.5,124.64,-86.72,124.42
53.053783,-1.799166,197.75,10.63,4,20.55,21 / 21,546815,2019-11-06 12:51:28:523,1.2128,-2.0818,9.7359,-0.0253,0.0117,9.8066,0.0761,-0.0897,0.3128,1.63,-43.94,-15.75,128.57,-86.8,128.9
53.053783,-1.799166,197.75,10.63,4,20.55,21 / 21,546914,2019-11-06 12:51:28:622,1.0841,-1.57,8.9139,0.0588,0.0195,9.8064,-0.0476,0.2655,-0.102,1.88,-43.44,-16,133.57,-86.77,134.48
53.053783,-1.799166,197.75,10.63,4,20.55,21 / 21,547014,2019-11-06 12:51:28:722,-0.5698,-1.0502,9.4843,-0.0588,0.0133,9.8064,-0.0753,-0.1883,0.2728,2.25,-43.37,-16.37,131.29,-86.46,131.36
53.053783,-1.799166,197.75,10.63,4,20.55,21 / 21,547114,2019-11-06 12:51:28:822,2.6409,-3.6146,9.4521,-0.0165,0.0018,9.8065,-0.0709,-0.205,0.3065,2.13,-43.62,-15,132.46,-86.77,133.16
53.053783,-1.799166,197.75,10.63,4,20.55,21 / 21,547214,2019-11-06 12:51:28:922,-4.1788,-2.87,10.99,-0.028,0.0177,9.8066,-0.1212,0.0376,0.1101,2.06,-43.12,-16.5,134.39,-87.1,136.02
53.053783,-1.799166,197.75,10.63,4,20.55,21 / 21,547314,2019-11-06 12:51:29:022,3.3448,-1.16,10.6893,-0.0516,-0.0117,9.8064,0.0888,-0.2878,0.3768,3,-43.69,-15.56,134.54,-87.1,139.59
53.053783,-1.799166,197.75,10.63,4,20.55,21 / 21,547414,2019-11-06 12:51:29:122,-2.3689,-2.8465,8.743,0.0191,0.0176,9.8066,-0.0274,0.6707,-0.246,3.31,-43.75,-15.81,140.33,-87.13,146.02
53.053783,-1.799166,197.75,10.63,4,20.55,20 / 22,547515,2019-11-06 12:51:29:223,-5.2,-0.9841,10.253,-0.0045,-0.0129,9.8066,0.0309,0.3791,-0.1059,3.06,-43.37,-15.44,141.21,-87.02,147.31
53.053783,-1.799166,197.75,10.63,4,20.55,20 / 22,547614,2019-11-06 12:51:29:322,-2.766,-1.4175,10.1663,0.0579,-0.0102,9.8065,-0.0042,0.5178,-0.2106,3.75,-43.56,-14.87,140.52,-87.15,150.34
53.053783,-1.799166,197.75,10.63,4,20.55,20 / 22,547714,2019-11-06 12:51:29:422,-1.8065,-2.5572,8.6845,-0.0124,0.0225,9.8066,-0.1204,0.3522,0.0568,4.19,-43,-15.37,139.27,-87.02,148.84
53.053783,-1.799166,197.75,10.63,4,20.55,20 / 22,547814,2019-11-06 12:51:29:522,-1.2339,-1.4993,10.4945,0.0229,0.0168,9.8065,-0.0656,0.4885,-0.0151,4.25,-43.44,-15.5,140.87,-87.29,151.09
53.053783,-1.799166,197.75,10.63,4,20.55,20 / 22,547914,2019-11-06 12:51:29:622,-0.4193,-1.7026,11.1243,-0.0174,0.0159,9.8066,0.016,0.3803,-0.0064,4.69,-43.44,-14.44,141.38,-87.23,156.05
53.053783,-1.799166,197.75,10.63,4,20.55,20 / 22,548014,2019-11-06 12:51:29:722,0.3174,-2.098,10.4154,-0.0058,0.0449,9.8065,0.0887,0.5135,-0.1394,4.94,-44.19,-14.12,143.77,-86.93,158.08
53.053783,-1.799166,197.75,10.63,4,20.55,20 / 22,548115,2019-11-06 12:51:29:823,-4.6322,-1.9573,9.2707,-0.0408,0.0179,9.8065,0.1327,0.6001,-0.2155,6,-45.12,-13.44,139.11,-86.1,155.9
53.053783,-1.799166,197.75,10.63,4,20.55,20 / 22,548215,2019-11-06 12:51:29:923,-2.8196,-2.1042,9.3026,0.008,0.0104,9.8066,0.0321,0.5795,-0.1475,6.63,-43.94,-12.87,136.73,-85.49,155.85
53.053783,-1.799166,197.75,10.63,4,20.55,20 / 22,548315,2019-11-06 12:51:30:023,-2.9749,-2.5686,9.4589,-0.0096,0.0261,9.8066,-0.0492,0.6221,-0.0373,7.31,-44.44,-12.06,135.81,-85.26,155.63
53.053783,-1.799166,197.75,10.63,4,20.55,20 / 22,548415,2019-11-06 12:51:30:123,-2.4164,-2.3515,10.0692,-0.002,0.0025,9.8066,-0.0339,0.2876,0.1159,8,-45.37,-12.37,133.4,-85.32,156.52
53.053783,-1.799166,197.75,10.63,4,20.55,20 / 20,548514,2019-11-06 12:51:30:222,-0.6508,-2.2074,11.0288,0.0241,-0.0108,9.8066,-0.069,0.3816,0.0437,8.25,-44.12,-12.25,134.31,-85.56,158.35
53.053783,-1.799166,197.75,10.63,4,20.55,20 / 20,548614,2019-11-06 12:51:30:322,-0.599,-2.1315,9.9979,-0.021,-0.0259,9.8066,0.0139,0.206,0.0567,9.31,-44.12,-11.56,131.07,-85.89,158.87
53.053783,-1.799166,197.75,10.63,4,20.55,20 / 20,548715,2019-11-06 12:51:30:423,1.0884,-0.4909,9.8179,-0.0307,-0.0193,9.8065,0.0983,0.1352,0.0744,9.38,-44.62,-11.19,126.09,-85.76,154.52
53.053783,-1.799166,197.75,10.63,4,20.55,20 / 20,548814,2019-11-06 12:51:30:522,-1.2253,-1.6004,9.4611,-0.0347,0.0069,9.8066,0.0726,0.2465,0.0284,10.44,-44.62,-10.62,124.36,-85.22,154.68
53.053783,-1.799166,197.75,10.63,4,20.55,20 / 20,548914,2019-11-06 12:51:30:622,0.7238,-0.4972,9.1759,-0.0263,-0.014,9.8066,0.0302,0.1747,0.0403,10.38,-44.44,-9.75,123.16,-85.02,155.15
53.053783,-1.799166,197.75,10.63,4,20.55,20 / 20,549014,2019-11-06 12:51:30:722,-0.1925,-0.4368,9.6699,-0.0027,0.0138,9.8065,-0.0271,0.2545,-0.0215,11.31,-44.19,-9,119.31,-84.87,156.12
53.053783,-1.799166,197.75,10.63,4,20.55,20 / 20,549114,2019-11-06 12:51:30:822,1.4555,0.7521,10.4631,-0.0012,-0.0168,9.8066,0.0273,0.0913,0.0333,11.5,-44.5,-8.94,117.03,-84.86,156.68
53.053783,-1.799166,197.75,10.63,4,20.55,20 / 20,549214,2019-11-06 12:51:30:922,1.3699,-1.5212,10.0322,0.0021,-0.003,9.8066,0.0081,0.267,-0.0633,11.5,-44.44,-9.12,116.57,-84.86,156.15
53.053783,-1.799166,197.75,10.63,4,20.55,20 / 20,549314,2019-11-06 12:51:31:022,-1.0324,-0.4682,9.6209,-0.0144,-0.0065,9.8065,0.0155,0.0878,-0.0204,11.94,-43.94,-8.62,115.79,-84.74,154.96
53.053783,-1.799166,197.75,10.63,4,20.55,20 / 20,549414,2019-11-06 12:51:31:122,-0.8671,-0.9316,9.1722,-0.0079,0.0119,9.8066,0.006,0.2594,-0.1085,12.75,-44.06,-7.87,111.4,-84.55,155.06
53.053783,-1.799166,197.75,10.63,4,20.55,20 / 20,549514,2019-11-06 12:51:31:222,0.3893,-0.34,9.4749,-0.0213,-0.0139,9.8066,0.023,0.124,-0.0078,12.19,-43.69,-8.37,113.26,-84.39,153.72
53.053783,-1.799166,197.75,10.63,4,20.55,20 / 20,549614,2019-11-06 12:51:31:322,1.258,0.0944,9.6157,-0.0027,-0.0009,9.8066,-0.0244,0.2562,-0.0937,12.31,-44.25,-8.62,115.25,-84.32,153.22
53.053783,-1.799166,197.75,10.63,4,20.55,20 / 20,549714,2019-11-06 12:51:31:422,0.8446,0.4589,9.735,-0.0204,-0.0069,9.8066,-0.0652,0.1512,-0.0786,13.19,-43.87,-7.94,108.82,-84.2,151.21
53.053783,-1.799166,197.75,10.63,4,20.55,20 / 20,549815,2019-11-06 12:51:31:523,0.9501,-0.3902,10.2904,0.0049,0.0021,9.8066,-0.0302,0.2575,-0.1179,12.94,-43.62,-8.37,106.76,-84.19,148.92
53.053783,-1.799166,197.75,10.63,4,20.55,20 / 20,549915,2019-11-06 12:51:31:623,-0.9782,-1.1027,9.4925,0.0007,-0.0015,9.8066,-0.0319,0.1677,-0.0435,13.06,-43.81,-8.37,105.77,-84.18,147.82
53.053783,-1.799166,197.75,10.63,4,20.55,20 / 20,550014,2019-11-06 12:51:31:722,0.408,0.2624,9.5035,0.0095,0.0103,9.8065,-0.0078,0.2406,-0.1085,12.69,-43.25,-8.06,105.36,-84.2,147.82
53.053783,-1.799166,197.75,10.63,4,20.55,20 / 20,550115,2019-11-06 12:51:31:823,0.0504,-1.3002,10.033,-0.0056,0.0109,9.8066,0.0115,0.2732,-0.1326,13,-43.31,-8.25,104.98,-84.03,146.93
53.053783,-1.799166,197.75,10.63,4,20.55,20 / 20,550215,2019-11-06 12:51:31:923,0.5199,0.9121,9.2637,-0.0048,0.008,9.8066,0.048,0.1248,-0.087,13.88,-43.44,-8.12,101.93,-83.8,145.8
53.053783,-1.799166,197.75,10.63,4,20.55,20 / 20,550315,2019-11-06 12:51:32:023,-0.9585,-0.6892,9.5401,0.0018,0.0068,9.8066,-0.0073,0.2107,-0.0628,13.94,-43.31,-7.75,102.21,-83.6,145.55
53.053783,-1.799166,197.75,10.63,4,20.55,20 / 20,550415,2019-11-06 12:51:32:123,0.5855,0.5341,10.024,0.0071,-0.0092,9.8066,-0.0146,0.0034,0.0455,13.06,-44,-7.87,105.01,-83.63,145.4
53.054424,-1.799072,196.81,4.32,4,308.25,20 / 20,550515,2019-11-06 12:51:32:223,1.1984,0.2825,9.8377,0.0223,0.01,9.8065,-0.0622,0.1081,0.0361,13.56,-43.75,-7.81,101.19,-83.77,144.53
53.054424,-1.799072,196.81,4.32,4,308.25,20 / 20,550617,2019-11-06 12:51:32:325,0.5238,-0.1413,9.6225,-0.0014,-0.0134,9.8066,-0.0178,0.0589,0.0035,13.69,-43.94,-7.81,101.45,-84.1,145.71
53.054424,-1.799072,196.81,4.32,4,308.25,20 / 20,550714,2019-11-06 12:51:32:422,0.0436,0.2071,9.5134,0.0091,-0.0121,9.8066,-0.0665,0.1568,-0.0922,13.81,-43.37,-7.81,99.58,-84.18,144.35
53.054424,-1.799072,196.81,4.32,4,308.25,20 / 20,550814,2019-11-06 12:51:32:522,1.079,-0.5524,9.2837,-0.013,-0.0399,9.8066,-0.0605,0.051,-0.0611,13.88,-43.62,-8.75,99.55,-84.19,141.48
53.054424,-1.799072,196.81,4.32,4,308.25,20 / 20,550914,2019-11-06 12:51:32:622,1.2466,0.481,9.1818,0.018,-0.0221,9.8065,-0.0778,0.0407,-0.0216,13.69,-43.56,-8.62,94.34,-84.34,136.48
53.054424,-1.799072,196.81,4.32,4,308.25,20 / 20,551014,2019-11-06 12:51:32:722,1.949,0.4467,9.3891,0.0267,-0.0318,9.8065,-0.1097,-0.0325,0.0097,14,-42.81,-9.44,88.89,-84.79,132.52
53.054424,-1.799072,196.81,4.32,4,308.25,20 / 20,551114,2019-11-06 12:51:32:822,2.1693,0.9222,9.9465,0.0224,-0.0196,9.8065,-0.0702,0.0071,-0.0563,13.94,-42.62,-9.31,85.99,-85.08,130.42
53.054424,-1.799072,196.81,4.32,4,308.25,20 / 20,551214,2019-11-06 12:51:32:922,0.7056,-0.0994,9.9032,-0.0086,-0.0473,9.8064,-0.083,0.061,-0.1261,13.19,-42.69,-9.75,86.89,-85.15,126.48
53.054424,-1.799072,196.81,4.32,4,308.25,20 / 20,551314,2019-11-06 12:51:33:022,1.0101,0.2922,9.7946,-0.011,-0.0586,9.8064,-0.0702,0.0366,-0.121,13.56,-43,-10.31,74.58,-84.95,116.69
