GPS LATITUDE (degrees), GPS LONGITUDE (degrees), GPS ALTITUDE (m), GPS SPEED (Kmh), GPS ACCURACY (m), GPS ORIENTATION (Â°),GPS SATELLITES IN RANGE, TIME SINCE START (ms), DATE (YYYY-MO-DD HH-MI-SS_SSS), ACCELEROMETER X (m/s²) , ACCELEROMETER Y (m/s²), ACCELEROMETER Z (m/s²), GRAVITY X (m/s²), GRAVITY Y (m/s²), GRAVITY Z (m/s²), GYROSCOPE Yaw (rad/s), GYROSCOPE Pitch (rad/s), GYROSCOPE Roll (rad/s), MAGNETIC FIELD X (Î¼T), MAGNETIC FIELD Y (Î¼T), MAGNETIC FIELD Z (Î¼T), ORIENTATION (Yaw) (Â°), ORIENTATION (Pitch) (Â°), ORIENTATION (Roll ) (Â°)
52.572826,-1.527021,135.85,13.16,4,126.89,20 / 21,7998913,2019-11-06 18:19:39:375,-3.2299,1.6137,9.545,0.0011,-0.0036,9.8066,-0.0778,0.0088,-0.0067,-24.44,-35.94,24.06,353.04,-88.57,-141.78
52.572826,-1.527021,135.85,13.16,4,126.89,20 / 21,7999014,2019-11-06 18:19:39:476,0.2227,1.0724,8.9855,0.0055,0.0045,9.8066,-0.04,0.1583,0.0331,-24.06,-36,24.19,344.08,-88.22,-150.39
52.572826,-1.527021,135.85,13.16,4,126.89,20 / 21,7999114,2019-11-06 18:19:39:576,-3.7006,0.9379,9.4016,-0.0082,0.0301,9.8065,0.0511,0.2793,-0.1941,-24.37,-36.06,24.06,343.87,-88.39,-150.65
52.572826,-1.527021,135.85,13.16,4,126.89,20 / 21,7999214,2019-11-06 18:19:39:676,1.3735,2.6149,10.7055,0.0217,0.0112,9.8065,0.1019,0.2753,-0.183,-24.25,-36.25,24.44,351.97,-88.55,-142.82
52.572826,-1.527021,135.85,13.16,4,126.89,20 / 21,7999313,2019-11-06 18:19:39:775,-0.3413,1.2653,8.9146,0.0433,0.0273,9.8065,0.0464,0.157,-0.0782,-23.94,-36.25,24.06,344.2,-88.71,-150.42
52.572826,-1.527021,135.85,13.16,4,126.89,20 / 21,7999413,2019-11-06 18:19:39:875,0.9564,3.6262,9.7468,0.0031,-0.0463,9.8065,0.1108,-0.14,0.0038,-25,-36.25,23.63,344.8,-88.43,-148.59
52.572826,-1.527021,135.85,13.16,4,126.89,20 / 21,7999513,2019-11-06 18:19:39:975,1.9831,1.7116,9.716,-0.0097,0.0016,9.8066,0.1186,-0.5587,0.2612,-24.06,-35.81,24.31,349.03,-88.61,-145.69
52.572826,-1.527021,135.85,13.16,4,126.89,20 / 21,7999614,2019-11-06 18:19:40:076,-5.2727,-1.3534,9.9524,-0.0552,-0.0393,9.8064,0.0099,-0.6226,0.2935,-23.69,-35.87,24.38,352.23,-88.83,-142.6
52.572826,-1.527021,135.85,13.16,4,126.89,20 / 21,7999714,2019-11-06 18:19:40:176,0.0042,2.9247,9.3813,-0.0422,-0.0437,9.8064,0.0345,-0.5873,0.247,-24,-36.37,24.13,10.77,-88.78,-124.48
52.572826,-1.527021,135.85,13.16,4,126.89,20 / 21,7999814,2019-11-06 18:19:40:276,-4.4227,-2.3393,10.8635,-0.0273,-0.0132,9.8065,0.0503,-0.435,0.1819,-24.37,-35.56,24.44,6.92,-89.04,-128.21
52.572826,-1.527021,135.85,13.16,4,126.89,20 / 21,7999913,2019-11-06 18:19:40:375,-0.2985,3.9686,9.2095,-0.0379,-0.0592,9.8063,0.0762,0.0395,0.0245,-24.37,-35.56,24.13,17.3,-88.94,-118.04
52.572826,-1.527021,135.85,13.16,4,126.89,20 / 21,8000013,2019-11-06 18:19:40:475,-6.4743,-1.2267,10.6061,-0.011,0.0133,9.8066,-0.0663,-0.5682,0.242,-24.87,-36,24.44,21.58,-89.14,-112.58
52.572826,-1.527021,135.85,13.16,4,126.89,20 / 21,8000113,2019-11-06 18:19:40:575,2.5231,4.9228,9.4833,-0.0541,-0.0661,9.8062,-0.087,0.2711,0.0432,-24.12,-36.19,24.06,26.28,-88.95,-109.22
52.572826,-1.527021,135.85,13.16,4,126.89,20 / 21,8000213,2019-11-06 18:19:40:675,-1.3531,3.8022,9.7294,-0.0021,0.0277,9.8066,0.0095,-0.3434,0.0459,-24.19,-36.06,24.13,17.76,-89.15,-117.52
52.572826,-1.527021,135.85,13.16,4,126.89,20 / 21,8000314,2019-11-06 18:19:40:776,0.7897,4.8425,9.1972,-0.0003,-0.0474,9.8064,0.0448,0.402,-0.1879,-24.44,-36.31,23.88,18.52,-89.05,-116.8
52.572826,-1.527021,135.85,13.16,4,126.89,20 / 21,8000414,2019-11-06 18:19:40:876,-2.8561,2.212,9.7369,0.0389,0.0172,9.8065,0.051,-0.0589,-0.0086,-24.5,-35.5,23.94,20.91,-89.07,-114.43
52.572826,-1.527021,135.85,13.16,4,126.89,20 / 21,8000514,2019-11-06 18:19:40:976,-2.6019,0.101,9.7418,-0.0301,0.0038,9.8065,-0.0783,0.3644,-0.179,-24,-36.44,24.06,24.02,-89.15,-111.35
52.572826,-1.527021,135.85,13.16,4,126.89,20 / 21,8000614,2019-11-06 18:19:41:076,-3.6774,-3.1683,9.9506,-0.0077,0.0219,9.8066,0.0793,-0.0104,0.0595,-25.06,-36.06,23.75,44.05,-89.19,-90.37
52.572826,-1.527021,135.85,13.16,4,126.89,20 / 21,8000714,2019-11-06 18:19:41:176,-5.2708,1.8656,7.5317,0.1091,-0.0432,9.8059,0.1841,0.7312,-0.5517,-24.44,-36.06,23.44,31.11,-89.12,-103.17
52.572826,-1.527021,135.85,13.16,4,126.89,20 / 21,8000814,2019-11-06 18:19:41:276,2.0991,5.8427,10.1747,0.0792,0.0643,9.8061,0.0145,0.4266,-0.2171,-24.62,-36,22.88,57.47,-89.1,-75.95
52.572826,-1.527021,135.85,13.16,4,126.89,22 / 22,8000914,2019-11-06 18:19:41:376,1.4431,3.003,8.5143,-0.0479,-0.0078,9.8065,0.061,0.366,-0.2462,-24.5,-36.25,23.63,54.71,-89.11,-81.06
52.572826,-1.527021,135.85,13.16,4,126.89,22 / 22,8001014,2019-11-06 18:19:41:476,-2.0032,0.3112,10.0912,-0.0155,0.0504,9.8065,0.0255,-0.0892,0.0937,-24.5,-36.06,23.69,15.8,-89.18,-119.44
52.572826,-1.527021,135.85,13.16,4,126.89,22 / 22,8001114,2019-11-06 18:19:41:576,-1.2223,-1.9575,10.1389,0.0009,-0.0085,9.8066,-0.0744,0.3818,-0.2266,-24.62,-37.06,23.38,31.49,-89.38,-101.48
52.572826,-1.527021,135.85,13.16,4,126.89,22 / 22,8001213,2019-11-06 18:19:41:675,-1.2346,0.8828,9.084,0.053,0.0299,9.8064,0.0687,0.1724,-0.0922,-25.37,-35.94,22.94,47.12,-89.55,-85.85
52.572826,-1.527021,135.85,13.16,4,126.89,22 / 22,8001314,2019-11-06 18:19:41:776,-0.7309,0.6333,12.4314,-0.0156,0.0066,9.8066,0.056,0.2192,-0.1581,-24.44,-36.19,23.56,56.5,-89.32,-79.1
52.572826,-1.527021,135.85,13.16,4,126.89,22 / 22,8001414,2019-11-06 18:19:41:876,1.0563,-0.0307,10.0418,0.0132,-0.0196,9.8065,0.0961,0.1812,0.0542,-24.25,-36,24.63,9.11,-89.18,-127.2
52.572826,-1.527021,135.85,13.16,4,126.89,22 / 22,8001513,2019-11-06 18:19:41:975,1.9656,0.0612,9.5773,0.0467,-0.0011,9.8065,0.0198,0.0749,-0.1328,-24.25,-36.5,23.44,343.82,-88.96,-149.64
52.572826,-1.527021,135.85,13.16,4,126.89,22 / 22,8001613,2019-11-06 18:19:42:075,-0.0505,-0.1522,10.9658,0.0128,0.0224,9.8065,0.0006,0.0235,0.0756,-24.87,-35.81,23.13,354.22,-88.89,-138.27
52.572826,-1.527021,135.85,13.16,4,126.89,22 / 22,8001714,2019-11-06 18:19:42:176,0.63,0.5435,9.9939,-0.0268,0.0196,9.8066,-0.1537,0.1676,0.0188,-25.06,-36.31,23.5,12.95,-89.26,-121.06
52.572826,-1.527021,135.85,13.16,4,126.89,22 / 22,8001814,2019-11-06 18:19:42:276,-0.1092,0.8943,10.2306,-0.011,0.006,9.8066,0.0615,0.0998,-0.0344,-24.31,-35.75,22.88,52.51,-89.25,-81.91
52.572826,-1.527021,135.85,13.16,4,126.89,22 / 23,8001913,2019-11-06 18:19:42:375,-0.9631,-0.1004,9.5106,-0.0084,-0.0228,9.8065,0.0767,0.1939,-0.0574,-25.37,-35.81,23.25,32.06,-89.3,-100.96
52.572826,-1.527021,135.85,13.16,4,126.89,22 / 23,8002013,2019-11-06 18:19:42:475,0.0262,-0.3482,9.4001,0.0036,-0.0263,9.8066,0.0565,0.1422,-0.0619,-25.5,-36.25,23.5,13.82,-89.06,-120.24
52.572826,-1.527021,135.85,13.16,4,126.89,22 / 23,8002115,2019-11-06 18:19:42:577,-0.3918,0.9542,10.2797,0.0091,-0.0004,9.8066,0.0054,0.177,-0.0752,-25.06,-36,23.56,356.77,-89.07,-137.01
52.572826,-1.527021,135.85,13.16,4,126.89,22 / 23,8002215,2019-11-06 18:19:42:677,1.52,1.1871,9.7327,0.0079,0,9.8066,-0.0056,0.165,-0.0151,-25,-36,22.44,347.13,-89.15,-144.01
52.572826,-1.527021,135.85,13.16,4,126.89,22 / 23,8002314,2019-11-06 18:19:42:776,0.0419,0.2704,9.7286,-0.0102,-0.0046,9.8066,0.0387,0.1216,-0.0142,-25.12,-35.94,22.88,348.24,-89.07,-144.18
52.572826,-1.527021,135.85,13.16,4,126.89,22 / 23,8002414,2019-11-06 18:19:42:876,0.3129,2.2465,8.9492,-0.0165,-0.0058,9.8066,-0.0631,0.2693,-0.0929,-25.19,-36.75,22.75,354.48,-89.1,-138.04
52.572826,-1.527021,135.85,13.16,4,126.89,22 / 23,8002515,2019-11-06 18:19:42:977,0.6917,0.5347,10.6692,0.0043,0.0078,9.8066,-0.0378,0.023,0.0267,-25.37,-36.31,22,348.11,-89.26,-143.08
52.572826,-1.527021,135.85,13.16,4,126.89,22 / 23,8002613,2019-11-06 18:19:43:075,2.6224,3.0385,9.6674,0,-0.0076,9.8066,-0.078,0.2827,-0.0642,-25.06,-36.5,22.06,357.1,-89.4,-134.21
52.572826,-1.527021,135.85,13.16,4,126.89,22 / 23,8002713,2019-11-06 18:19:43:175,0.2515,0.9873,9.6374,0.0193,-0.0013,9.8066,0.0123,-0.1396,0.1248,-25.69,-36.19,21.63,359.25,-89.39,-130.97
52.572826,-1.527021,135.85,13.16,4,126.89,22 / 23,8002813,2019-11-06 18:19:43:275,-0.2078,-1.9835,10.8651,0.0121,0.0078,9.8066,0.1579,-0.0373,-0.0234,-24.94,-36.44,22.31,338.48,-89.18,-152.54
52.572826,-1.527021,135.85,13.16,4,126.89,21 / 23,8002913,2019-11-06 18:19:43:375,1.8579,1.4442,9.5496,0.0398,0.0451,9.8064,-0.008,0.0173,0.0311,-25.25,-36.12,21.75,317.1,-88.92,-173.44
52.572826,-1.527021,135.85,13.16,4,126.89,21 / 23,8003015,2019-11-06 18:19:43:477,0.4574,0.9469,9.1043,0.0346,0.0111,9.8066,-0.1003,0.0521,0.0216,-25.5,-36.44,22.25,289.8,-88.77,159.7
52.572826,-1.527021,135.85,13.16,4,126.89,21 / 23,8003114,2019-11-06 18:19:43:576,1.0229,1.3409,9.8826,0.0098,0.0374,9.8065,-0.0372,0.0865,0.0101,-24.81,-36.44,21.56,286.23,-88.87,156.05
52.572826,-1.527021,135.85,13.16,4,126.89,21 / 23,8003214,2019-11-06 18:19:43:676,1.9296,-0.3169,10.4932,-0.002,0.0076,9.8066,0.0933,0.1066,-0.0356,-25.06,-36.12,21.63,270.37,-88.85,140.27
52.572826,-1.527021,135.85,13.16,4,126.89,21 / 23,8003314,2019-11-06 18:19:43:776,0.4932,-0.8514,9.6727,0.0215,0.0001,9.8066,0.1026,0.0874,-0.0621,-25.37,-36.06,21.44,271.79,-88.53,143.38
52.572826,-1.527021,135.85,13.16,4,126.89,21 / 23,8003414,2019-11-06 18:19:43:876,1.9218,-0.7995,9.4546,0.0424,0.0023,9.8065,0.0174,0.0349,-0.0402,-25.31,-35.56,21.56,270.8,-87.88,141.75
52.572826,-1.527021,135.85,13.16,4,126.89,21 / 23,8003514,2019-11-06 18:19:43:976,2.3348,0.1696,9.4695,-0.0061,0.016,9.8066,0.0066,0.0775,0.0771,-25.25,-35.5,21.5,268.25,-87.83,139.18
52.572826,-1.527021,135.85,13.16,4,126.89,21 / 23,8003613,2019-11-06 18:19:44:075,-0.8272,-3.0611,10.3026,-0.0007,0.0318,9.8065,0.0005,-0.2666,0.0775,-25.19,-35.75,21.63,265.69,-87.92,136.59
52.572826,-1.527021,135.85,13.16,4,126.89,21 / 23,8003713,2019-11-06 18:19:44:175,0.3012,0.8624,9.5654,-0.0221,0.0288,9.8065,-0.0839,0.2342,-0.037,-25.75,-36.62,21.25,256.79,-87.97,130.05
52.572826,-1.527021,135.85,13.16,4,126.89,21 / 23,8003814,2019-11-06 18:19:44:276,-0.1361,-0.9088,9.6944,0.0185,0.018,9.8066,-0.0638,0.0014,0.0136,-25,-35.62,21.31,248.5,-88.13,120.38
52.572826,-1.527021,135.85,13.16,4,126.89,21 / 23,8003917,2019-11-06 18:19:44:379,-0.5619,-0.9185,10.06,-0.0128,-0.0318,9.8065,-0.0398,0.3362,-0.1008,-25.19,-35.87,20.94,246.92,-88.11,118.8
52.572826,-1.527021,135.85,13.16,4,126.89,21 / 23,8004013,2019-11-06 18:19:44:475,2.2971,1.3759,10.1468,-0.0052,-0.0172,9.8066,-0.0257,0.3125,-0.1281,-25.5,-35.81,20.56,252.3,-88.21,124.14
52.572826,-1.527021,135.85,13.16,4,126.89,21 / 23,8004113,2019-11-06 18:19:44:575,-0.9928,-3.1232,9.7528,-0.0311,-0.0586,9.8064,0.0783,0.0346,-0.0222,-25.44,-35.56,21.81,262.12,-88.37,132.52
52.572826,-1.527021,135.85,13.16,4,126.89,21 / 23,8004214,2019-11-06 18:19:44:676,2.0028,0.2997,10.5426,-0.019,-0.0177,9.8066,0.1044,0.3335,-0.0695,-25.69,-36.19,20.88,263.29,-88.28,136.21
52.572826,-1.527021,135.85,13.16,4,126.89,21 / 23,8004314,2019-11-06 18:19:44:776,1.5698,-0.0664,9.8897,-0.0056,0.0336,9.8066,0.05,-0.2268,0.0333,-25.25,-35.56,20.69,262.92,-88.15,134.91
52.572826,-1.527021,135.85,13.16,4,126.89,21 / 23,8004413,2019-11-06 18:19:44:875,3.2791,3.4485,10.3176,-0.0284,-0.0217,9.8065,-0.0503,0.1942,0.0911,-25.5,-36.37,20.44,249.73,-88.31,122.85
52.572826,-1.527021,135.85,13.16,4,126.89,21 / 23,8004513,2019-11-06 18:19:44:975,1.4071,-0.4665,9.5369,0.0502,0.09,9.806,0.1344,-0.621,0.3899,-25.19,-35.87,21.19,253.5,-88.44,125.11
52.572826,-1.527021,135.85,13.16,4,126.89,21 / 23,8004613,2019-11-06 18:19:45:075,-0.5859,-3.783,10.5387,0.0061,-0.0128,9.8066,0.0614,-0.0864,0.0029,-25.62,-35.75,20.56,246.96,-88,120
52.572826,-1.527021,135.85,13.16,4,126.89,21 / 23,8004713,2019-11-06 18:19:45:175,-0.5705,-3.162,10.3095,0.0176,0.0721,9.8063,0.1121,-0.5981,0.3663,-24.56,-35.87,20.94,251.53,-87.94,123.65
52.572826,-1.527021,135.85,13.16,4,126.89,21 / 23,8004813,2019-11-06 18:19:45:275,-0.647,-3.9735,9.8501,0.0098,0.0238,9.8065,0.0047,-0.4217,0.17,-24.37,-36.19,20.31,243.76,-87.82,116.19
52.572826,-1.527021,135.85,13.16,4,126.89,20 / 22,8004913,2019-11-06 18:19:45:375,2.8911,2.7751,9.8291,0.0409,0.0676,9.8063,0.0685,-0.3304,0.2473,-24.31,-36.12,19.5,242.21,-88,114.44
52.572826,-1.527021,135.85,13.16,4,126.89,20 / 22,8005014,2019-11-06 18:19:45:476,1.1496,-1.8658,11.2628,0.03,0.027,9.8065,0.0832,-0.526,0.2165,-25.31,-36.37,21.25,238.22,-87.64,110.37
52.572826,-1.527021,135.85,13.16,4,126.89,20 / 22,8005114,2019-11-06 18:19:45:576,3.8846,2.5994,8.0321,0.0401,0.0643,9.8063,0.1023,-0.2176,0.1365,-24.69,-36.44,20.19,237.07,-87.35,110.88
52.572826,-1.527021,135.85,13.16,4,126.89,20 / 22,8005214,2019-11-06 18:19:45:676,1.1654,-2.6146,10.5315,0.0156,0.063,9.8064,0.0811,-0.5009,0.0932,-24.25,-37,21,239.81,-87.19,111.41
52.572826,-1.527021,135.85,13.16,4,126.89,20 / 22,8005313,2019-11-06 18:19:45:775,0.1787,1.6277,11.0602,0.0005,0.0394,9.8065,0.0393,-0.1178,0.0377,-24.31,-37.44,20.5,237.77,-87.06,109.43
52.572826,-1.527021,135.85,13.16,4,126.89,20 / 22,8005413,2019-11-06 18:19:45:875,-2.056,-4.51,9.6804,0.073,0.0746,9.8061,0.1121,-0.5332,0.1226,-24.06,-37.25,20.31,231.8,-86.63,105.09
52.572826,-1.527021,135.85,13.16,4,126.89,20 / 22,8005513,2019-11-06 18:19:45:975,3.3054,-0.1841,8.8106,-0.0185,-0.0189,9.8065,-0.0074,0.4777,-0.3795,-23.5,-37.5,20.13,234.27,-86.22,106.94
52.572826,-1.527021,135.85,13.16,4,126.89,20 / 22,8005613,2019-11-06 18:19:46:075,2.1772,1.0352,9.7023,0.0104,0.0526,9.8064,-0.0086,-0.0728,0.0302,-23.75,-37.44,21.06,231.7,-85.93,104.15
52.572826,-1.527021,135.85,13.16,4,126.89,20 / 22,8005713,2019-11-06 18:19:46:175,-0.4516,-0.282,9.4366,-0.0247,0.0045,9.8065,-0.1005,0.1028,-0.0212,-24.12,-37.62,20.38,226.75,-86.04,100.38
52.572826,-1.527021,135.85,13.16,4,126.89,20 / 22,8005813,2019-11-06 18:19:46:275,0.3325,-0.9666,9.9866,0.0056,0.0163,9.8065,0.0301,-0.011,0.0414,-23.87,-37.31,19.63,223.8,-85.94,97.26
52.572826,-1.527021,135.85,13.16,4,126.89,23 / 23,8005913,2019-11-06 18:19:46:375,3.0671,-1.3693,9.0182,0.0189,0.0079,9.8066,-0.1603,-0.0748,-0.0114,-23.56,-37.44,20.13,227.53,-85.85,101.28
52.572826,-1.527021,135.85,13.16,4,126.89,23 / 23,8006014,2019-11-06 18:19:46:476,-0.4486,-3.5436,10.8182,-0.0153,0.0518,9.8065,0.2889,-0.2132,-0.0468,-23.5,-37.75,19.69,225.96,-85.49,98.9
52.572826,-1.527021,135.85,13.16,4,126.89,23 / 23,8006114,2019-11-06 18:19:46:576,2.1483,-0.3056,10.2244,-0.0721,-0.0287,9.8063,0.0835,0.5189,-0.4982,-22.94,-37.62,20.13,226.59,-85.61,99.48
52.572826,-1.527021,135.85,13.16,4,126.89,23 / 23,8006214,2019-11-06 18:19:46:676,7.7485,0.0511,10.0515,0.1166,0.0016,9.8059,-0.2507,0.15,0.0947,-23.12,-37.25,19.94,229.87,-84.94,103.46
52.572826,-1.527021,135.85,13.16,4,126.89,23 / 23,8006313,2019-11-06 18:19:46:775,-2.2146,-3.3574,10.0784,0.0041,-0.0029,9.8066,-0.171,0.1566,0.1676,-22.87,-37.75,20.25,227.05,-85.17,100.36
52.572826,-1.527021,135.85,13.16,4,126.89,23 / 23,8006413,2019-11-06 18:19:46:875,3.8419,2.695,10.3867,-0.0547,-0.0558,9.8063,-0.0421,0.5146,-0.4145,-23.56,-36.87,19.63,222.74,-85.47,96.49
52.572826,-1.527021,135.85,13.16,4,126.89,23 / 23,8006513,2019-11-06 18:19:46:975,-0.8221,-1.9775,8.5701,-0.0397,0.0035,9.8065,0.0984,-0.0946,0.0202,-23.81,-37.12,20.38,221.29,-85.14,95.18
52.572826,-1.527021,135.85,13.16,4,126.89,23 / 23,8006614,2019-11-06 18:19:47:076,2.3998,1.4219,9.0358,-0.0623,-0.0347,9.8064,0.0501,0.3336,-0.3182,-22.81,-37.37,19.63,220.24,-85.24,92.87
52.572826,-1.527021,135.85,13.16,4,126.89,23 / 23,8006714,2019-11-06 18:19:47:176,-0.8412,-2.9839,10.5367,0.0071,0.0147,9.8066,0.0836,-0.4345,0.2284,-22.69,-36.94,20,220.51,-84.96,93.37
52.572826,-1.527021,135.85,13.16,4,126.89,23 / 23,8006814,2019-11-06 18:19:47:276,-1.2352,-3.4655,9.2069,-0.0127,-0.0494,9.8065,-0.1018,0.1731,-0.09,-22.87,-37.56,19.75,221.65,-85.3,94.44
52.572826,-1.527021,135.85,13.16,4,126.89,21 / 23,8006914,2019-11-06 18:19:47:376,-2.4015,-5.0197,8.6787,0.0326,0.0203,9.8066,-0.0699,-0.588,0.3183,-23.12,-36.87,20.13,220.21,-85.36,92.75
52.572826,-1.527021,135.85,13.16,4,126.89,21 / 23,8007014,2019-11-06 18:19:47:476,0.3071,-1.3082,10.2285,-0.0491,-0.0284,9.8064,0.0577,-0.0596,-0.0393,-23.31,-37.44,20.13,219.31,-85.61,91.6
52.572826,-1.527021,135.85,13.16,4,126.89,21 / 23,8007113,2019-11-06 18:19:47:575,1.717,0.9377,9.4463,0.0038,0.0465,9.8065,0.0976,-0.5739,0.2253,-23,-37.19,20,218.59,-85.65,90.79
52.572826,-1.527021,135.85,13.16,4,126.89,21 / 23,8007214,2019-11-06 18:19:47:676,0.0225,1.2795,10.1979,-0.0099,-0.002,9.8066,-0.0136,-0.1414,0.0742,-22.31,-37.44,20.56,219.65,-85.59,89.32
52.572826,-1.527021,135.85,13.16,4,126.89,21 / 23,8007314,2019-11-06 18:19:47:776,0.1767,-0.5914,9.7933,0.0281,0.0222,9.8066,0.013,-0.3458,0.0931,-23.5,-37.56,21.69,218.95,-85.48,88.53
52.572826,-1.527021,135.85,13.16,4,126.89,21 / 23,8007413,2019-11-06 18:19:47:875,-2.5246,-2.3672,10.5396,-0.0129,0.0054,9.8066,0.0088,-0.1963,0.1177,-22.56,-36.62,21.19,218.28,-85.59,89.05
52.572826,-1.527021,135.85,13.16,4,126.89,21 / 23,8007513,2019-11-06 18:19:47:975,-1.051,-1.9185,9.3973,0.009,0.0066,9.8066,-0.0578,-0.2088,0.1035,-23,-37.31,21.19,217.29,-85.8,87.85
52.572826,-1.527021,135.85,13.16,4,126.89,21 / 23,8007613,2019-11-06 18:19:48:075,0.6809,-2.6234,10.2089,-0.024,-0.0019,9.8066,0.1038,-0.1186,0.0084,-22.87,-37.37,21.88,217.41,-85.92,86.49
52.572826,-1.527021,135.85,13.16,4,126.89,21 / 23,8007713,2019-11-06 18:19:48:175,-0.0176,-2.5755,9.4958,-0.0047,-0.0019,9.8066,0.0751,-0.1572,-0.0374,-22.94,-37.56,21.44,217.77,-85.97,88.32
52.572826,-1.527021,135.85,13.16,4,126.89,21 / 23,8007813,2019-11-06 18:19:48:275,0.4214,-1.5453,9.7857,0.008,-0.0091,9.8066,-0.0656,0.0258,0.0416,-23,-37.37,21.56,220,-85.88,89.28
52.572456,-1.525836,134.7,12.55,6,116.82,20 / 22,8007913,2019-11-06 18:19:48:375,-1.5965,-1.4771,10.7591,0.0099,0.0015,9.8066,-0.0403,-0.0976,-0.0661,-22.69,-36.62,22.5,222.05,-85.86,90.13
52.572456,-1.525836,134.7,12.55,6,116.82,20 / 22,8008014,2019-11-06 18:19:48:476,-0.1458,-2.1011,10.2734,0.0037,0.0014,9.8066,0.0433,-0.0506,0.0479,-22.56,-37.5,21.81,219.82,-85.72,89.2
52.572456,-1.525836,134.7,12.55,6,116.82,20 / 22,8008113,2019-11-06 18:19:48:575,-0.3329,-1.199,10.1749,0.007,0.0098,9.8066,-0.022,-0.1543,0.021,-22.31,-37.06,22.56,222.4,-85.72,89.4
52.572456,-1.525836,134.7,12.55,6,116.82,20 / 22,8008213,2019-11-06 18:19:48:675,0.886,-2.1596,9.7594,0.0014,-0.0097,9.8066,0.0397,-0.1075,-0.005,-21.81,-37.56,22.94,222.64,-85.63,89.82
52.572456,-1.525836,134.7,12.55,6,116.82,20 / 22,8008314,2019-11-06 18:19:48:776,-0.2409,-1.0433,9.6304,0.0297,0.015,9.8066,0.0017,-0.1963,0.1595,-21.56,-37.5,22.88,225.03,-85.66,92.24
52.572456,-1.525836,134.7,12.55,6,116.82,20 / 22,8008414,2019-11-06 18:19:48:876,-0.572,-2.184,9.8118,-0.0004,-0.0107,9.8066,0.0024,-0.2229,-0.0319,-21.37,-37.06,23.13,227.48,-85.59,93.66
52.572456,-1.525836,134.7,12.55,6,116.82,20 / 22,8008513,2019-11-06 18:19:48:975,1.6085,-2.0256,10.6343,0.0317,0.0008,9.8066,0.1065,-0.2559,0.0991,-21.62,-37.25,23.69,230.09,-85.41,96.52
52.572456,-1.525836,134.7,12.55,6,116.82,20 / 22,8008613,2019-11-06 18:19:49:075,-2.9633,-2.0158,8.2041,0.0533,-0.0016,9.8064,-0.0521,-0.4222,0.1284,-21.5,-36.81,23.56,234.98,-85.49,100.37
52.572456,-1.525836,134.7,12.55,6,116.82,20 / 22,8008713,2019-11-06 18:19:49:175,3.099,-1.9914,9.9088,0.0147,-0.0121,9.8066,-0.1041,-0.2096,0.1068,-21.44,-37.19,23.81,235.49,-85.62,100.79
52.572456,-1.525836,134.7,12.55,6,116.82,20 / 22,8008813,2019-11-06 18:19:49:275,-0.4178,-3.3881,9.4757,-0.0046,0.0479,9.8065,-0.0406,-0.1698,0.0693,-22.19,-36.44,24.19,233.45,-85.95,99.49
52.572456,-1.525836,134.7,12.55,6,116.82,20 / 22,8008914,2019-11-06 18:19:49:376,2.1424,1.7571,8.9816,-0.0464,-0.0236,9.8065,-0.1626,0.4112,-0.0838,-21.5,-37.06,24.06,232.97,-86.63,97.23
52.572456,-1.525836,134.7,12.55,6,116.82,20 / 22,8009014,2019-11-06 18:19:49:476,-3.3998,-5.0243,10.4408,0.0102,0.0502,9.8065,-0.1089,-0.3479,0.1193,-21.94,-36.87,24.13,232.42,-86.77,97.8
52.572456,-1.525836,134.7,12.55,6,116.82,20 / 22,8009114,2019-11-06 18:19:49:576,-1.0023,-2.567,9.4737,-0.0193,-0.0188,9.8065,-0.0019,0.3422,-0.1437,-21.87,-37.25,23.88,233.8,-86.99,99.03
52.572456,-1.525836,134.7,12.55,6,116.82,20 / 22,8009214,2019-11-06 18:19:49:676,-5.1682,-5.9964,10.2506,0.0464,0.0417,9.8064,0.0793,-0.6277,0.2648,-21.87,-37.12,24.56,237.63,-86.94,101.82
52.572456,-1.525836,134.7,12.55,6,116.82,20 / 22,8009313,2019-11-06 18:19:49:775,2.4268,-1.8118,9.9959,-0.0109,-0.0238,9.8065,0.0305,0.1081,-0.1541,-22.12,-36.62,24.5,239.48,-87.08,103.59
52.572456,-1.525836,134.7,12.55,6,116.82,20 / 22,8009414,2019-11-06 18:19:49:876,1.6149,-0.032,8.5321,0.0331,0.022,9.8065,0.1496,-0.7042,0.2585,-22.06,-36.69,24.13,237.57,-87.09,102.84
52.572456,-1.525836,134.7,12.55,6,116.82,20 / 22,8009514,2019-11-06 18:19:49:976,1.1498,1.2646,8.5166,-0.0337,-0.0503,9.8064,-0.0976,-0.0796,0.0858,-21.94,-36.81,24.81,240.72,-87.67,104.3
52.572456,-1.525836,134.7,12.55,6,116.82,20 / 22,8009614,2019-11-06 18:19:50:076,-1.7345,-2.8237,11.5398,-0.0266,0.0159,9.8065,-0.0449,-0.7162,0.4022,-22.31,-36.69,25.44,238.52,-87.74,102
52.572456,-1.525836,134.7,12.55,6,116.82,20 / 22,8009714,2019-11-06 18:19:50:176,-3.6916,-3.1121,8.3387,-0.0869,-0.0252,9.8061,-0.0916,-0.0635,0.0186,-21.75,-36.62,25.63,246.06,-87.64,108.62
52.572456,-1.525836,134.7,12.55,6,116.82,20 / 22,8009814,2019-11-06 18:19:50:276,-4.0967,-3.0777,9.561,0.0336,0.0012,9.8066,-0.0369,-0.3775,0.1131,-22,-36.81,24.94,246.93,-87.99,110.32
52.572456,-1.525836,134.7,12.55,6,116.82,21 / 22,8009914,2019-11-06 18:19:50:376,-0.3667,-2.1491,9.1629,-0.0031,-0.0271,9.8066,0.0778,-0.1781,0.0059,-21.69,-36.87,25.44,239.71,-88.3,102.67
52.572456,-1.525836,134.7,12.55,6,116.82,21 / 22,8010014,2019-11-06 18:19:50:476,0.9988,-1.0211,10.8026,-0.0322,-0.0185,9.8066,0.0816,-0.4341,0.1188,-21.31,-36.81,25.81,239.61,-88.55,99.92
52.572456,-1.525836,134.7,12.55,6,116.82,21 / 22,8010114,2019-11-06 18:19:50:576,-4.1374,-2.3992,8.7654,-0.0778,-0.0394,9.8062,-0.2431,-0.0672,0.2391,-21.62,-36.69,25.5,238.71,-88.38,100.44
52.572456,-1.525836,134.7,12.55,6,116.82,21 / 22,8010214,2019-11-06 18:19:50:676,-1.9568,0.3719,7.9155,0.0018,-0.0145,9.8066,-0.2363,-0.3718,0.2846,-22.25,-36.5,26,255.69,-88.66,117.3
52.572456,-1.525836,134.7,12.55,6,116.82,21 / 22,8010313,2019-11-06 18:19:50:775,-3.0319,-4.8976,11.8567,-0.0199,-0.0415,9.8065,0.2945,-0.5753,0.1991,-22.37,-36.37,26.69,271,-88.94,131.26
52.572456,-1.525836,134.7,12.55,6,116.82,21 / 22,8010414,2019-11-06 18:19:50:876,-0.3059,0.7381,8.3569,-0.0341,-0.0443,9.8064,0.1574,-0.2757,0.0509,-22.62,-36.06,27,290.01,-89.29,151.11
52.572456,-1.525836,134.7,12.55,6,116.82,21 / 22,8010514,2019-11-06 18:19:50:976,-3.9338,-1.3251,9.9882,-0.0425,0.0007,9.8065,-0.2092,-0.3762,0.27,-21.62,-36.25,26.94,289.8,-89.7,149.27
52.572456,-1.525836,134.7,12.55,6,116.82,21 / 22,8010613,2019-11-06 18:19:51:075,1.2688,-0.8613,10.1471,-0.0363,0.0175,9.8065,-0.0097,-0.3216,0.153,-21.81,-36.81,27.13,241.11,-89.62,100.63
52.572456,-1.525836,134.7,12.55,6,116.82,21 / 22,8010714,2019-11-06 18:19:51:176,-2.4007,-3.2692,9.3896,-0.0428,-0.0296,9.8065,-0.0149,-0.1286,0.1068,-21.56,-36.69,27,250.7,-89.27,110.6
52.572456,-1.525836,134.7,12.55,6,116.82,21 / 22,8010814,2019-11-06 18:19:51:276,-2.2013,-3.6873,9.2063,0.0041,0.0029,9.8066,-0.0435,-0.5656,0.2766,-21.37,-36.37,27.19,261.96,-89.28,120.58
52.572456,-1.525836,134.7,12.55,6,116.82,23 / 23,8010914,2019-11-06 18:19:51:376,-2.2049,-4.609,11.2501,-0.024,-0.0434,9.8065,0.1305,-0.5277,0.0989,-21.56,-36.44,27.5,272.76,-89.11,131.82
52.572456,-1.525836,134.7,12.55,6,116.82,23 / 23,8011013,2019-11-06 18:19:51:475,-1.9646,-0.4471,9.7309,0.0072,-0.0607,9.8065,0.0767,0.0231,-0.1593,-21.5,-37.25,27.88,297.14,-89.09,154.88
52.572456,-1.525836,134.7,12.55,6,116.82,23 / 23,8011113,2019-11-06 18:19:51:575,-2.2858,-1.4565,10.25,0.0074,-0.0197,9.8066,0.0615,-0.331,0.186,-21.37,-36.56,27.13,295.55,-88.87,154.54
52.572456,-1.525836,134.7,12.55,6,116.82,23 / 23,8011214,2019-11-06 18:19:51:676,0.2872,0.1793,9.3338,-0.0081,-0.0224,9.8066,-0.0233,0.0413,-0.032,-20.94,-36.44,27.38,294.34,-88.65,153.51
52.572456,-1.525836,134.7,12.55,6,116.82,23 / 23,8011314,2019-11-06 18:19:51:776,-1.2139,-0.2115,9.2751,-0.0064,0.0178,9.8066,-0.003,-0.3518,0.093,-20.94,-36.81,27.31,294.61,-88.63,153.84
52.572456,-1.525836,134.7,12.55,6,116.82,23 / 23,8011414,2019-11-06 18:19:51:876,-0.3684,-0.0003,9.9085,-0.0328,-0.0119,9.8065,-0.016,-0.0774,0.0737,-20.12,-36.25,27.69,295.38,-88.88,151.98
52.572456,-1.525836,134.7,12.55,6,116.82,23 / 23,8011514,2019-11-06 18:19:51:976,-2.6535,-1.0379,9.7862,-0.002,-0.0089,9.8066,0.0228,-0.322,0.0176,-20.37,-36.62,28.25,292.9,-88.88,149.55
52.572456,-1.525836,134.7,12.55,6,116.82,23 / 23,8011614,2019-11-06 18:19:52:076,-0.0601,-1.3733,10.9129,-0.0285,-0.0361,9.8065,-0.1214,0.079,0.0426,-20.5,-37.06,27.88,306.56,-88.72,163.21
52.572456,-1.525836,134.7,12.55,6,116.82,23 / 23,8011714,2019-11-06 18:19:52:176,-1.7705,-2.3814,11.1325,-0.0125,0.0049,9.8066,0.0737,-0.153,-0.0229,-20.75,-35.75,28.25,302.7,-88.68,160.72
52.572456,-1.525836,134.7,12.55,6,116.82,23 / 23,8011814,2019-11-06 18:19:52:276,-0.632,-0.5275,8.6015,0.022,-0.0032,9.8065,0.0345,0.2228,-0.2666,-19.94,-36.75,28.31,306.17,-88.77,162.78
52.572456,-1.525836,134.7,12.55,6,116.82,20 / 22,8011914,2019-11-06 18:19:52:376,-0.4101,0.502,9.9574,0.0137,0.0203,9.8066,-0.0589,0.0466,0.0578,-21.12,-36.31,27.81,310.49,-89.02,168.13
52.572456,-1.525836,134.7,12.55,6,116.82,20 / 22,8012013,2019-11-06 18:19:52:475,-0.7949,0.4098,10.6588,-0.0094,0.0228,9.8066,-0.1044,-0.0163,0.0111,-20.75,-36.56,27.69,289.27,-89.18,146.96
52.572456,-1.525836,134.7,12.55,6,116.82,20 / 22,8012113,2019-11-06 18:19:52:575,0.2979,-0.555,10.9546,-0.0128,0.0018,9.8066,0.04,0.0169,0.019,-20.31,-37,28.06,292.14,-89.15,148.53
52.572456,-1.525836,134.7,12.55,6,116.82,20 / 22,8012214,2019-11-06 18:19:52:676,-0.9495,-0.8248,9.7602,0.0283,-0.003,9.8066,-0.0368,0.062,-0.004,-20.37,-36.37,28.31,287.76,-88.89,144.41
52.572456,-1.525836,134.7,12.55,6,116.82,20 / 22,8012314,2019-11-06 18:19:52:776,1.3042,0.285,9.848,0.0138,0.0075,9.8066,0.0263,0.0798,-0.0704,-20.31,-36.87,27.63,293.19,-88.97,149.75
52.572456,-1.525836,134.7,12.55,6,116.82,20 / 22,8012413,2019-11-06 18:19:52:875,-0.6863,-0.2771,10.6983,-0.0086,-0.0054,9.8066,0.0677,-0.1017,-0.0065,-19.62,-36.75,28.13,297.54,-89.03,154.01
52.572456,-1.525836,134.7,12.55,6,116.82,20 / 22,8012513,2019-11-06 18:19:52:975,-3.0098,-0.217,10.3218,0.0088,-0.0339,9.8065,0.0669,-0.26,0.0783,-20.06,-36.56,27.69,296.78,-89.02,153.27
52.572456,-1.525836,134.7,12.55,6,116.82,20 / 22,8012614,2019-11-06 18:19:53:076,-1.6011,0.0712,10.4594,-0.0178,-0.0171,9.8066,-0.0403,0.1905,-0.14,-20.37,-36.62,27.56,308.91,-88.8,165.46
52.572456,-1.525836,134.7,12.55,6,116.82,20 / 22,8012714,2019-11-06 18:19:53:176,-1.7006,-0.8814,10.2335,0.0027,0.0353,9.8065,-0.1103,-0.029,0.0479,-20.5,-36.5,28.19,298.56,-88.88,155.13
52.572456,-1.525836,134.7,12.55,6,116.82,20 / 22,8012814,2019-11-06 18:19:53:276,1.1408,-0.6559,9.6751,-0.0157,0.0048,9.8066,-0.1729,0.1925,-0.0638,-19.94,-36.37,27.69,298.09,-88.86,154.69
52.572456,-1.525836,134.7,12.55,6,116.82,21 / 23,8012914,2019-11-06 18:19:53:376,1.3811,2.5254,10.0959,-0.0168,0.028,9.8065,0.0407,0.052,-0.1468,-20.19,-36.75,28.19,280.46,-89.08,136.98
52.572456,-1.525836,134.7,12.55,6,116.82,21 / 23,8013014,2019-11-06 18:19:53:476,-1.2979,3.2986,10.3131,-0.0618,-0.0214,9.8063,-0.0545,0.3047,-0.2291,-19.87,-36.5,28,269.14,-88.93,125.79
52.572456,-1.525836,134.7,12.55,6,116.82,21 / 23,8013114,2019-11-06 18:19:53:576,1.4054,1.7086,9.3564,-0.0156,-0.0045,9.8066,-0.0597,0.2961,-0.1112,-19.44,-37.06,27.94,259.48,-89.37,114.32
52.572456,-1.525836,134.7,12.55,6,116.82,21 / 23,8013213,2019-11-06 18:19:53:675,-1.1364,-1.1064,9.8295,-0.0201,-0.0279,9.8065,0.0417,0.0656,-0.1153,-19.75,-36.87,27.44,249.92,-89.26,107.21
52.572456,-1.525836,134.7,12.55,6,116.82,21 / 23,8013314,2019-11-06 18:19:53:776,1.8376,0.6975,9.5649,-0.0021,-0.0186,9.8066,0.011,0.2293,-0.0565,-20.12,-37.25,28.56,268.31,-89.25,123.69
52.572456,-1.525836,134.7,12.55,6,116.82,21 / 23,8013414,2019-11-06 18:19:53:876,-1.8805,-0.537,10.0605,0.0046,-0.0088,9.8066,0.0079,-0.0501,0.0567,-19.87,-36.62,28.25,278.03,-89.15,134.47
52.572456,-1.525836,134.7,12.55,6,116.82,21 / 23,8013514,2019-11-06 18:19:53:976,0.0059,0.6467,9.8239,-0.0322,-0.0204,9.8066,-0.0777,0.2617,-0.1091,-19.62,-36.31,27.75,283.13,-89.25,139.43
52.572456,-1.525836,134.7,12.55,6,116.82,21 / 23,8013613,2019-11-06 18:19:54:075,-1.7435,-0.6277,10.1562,-0.011,0.0073,9.8066,-0.0456,-0.0897,0.0595,-19.62,-36.56,27.69,279.94,-89.33,136.19
52.572456,-1.525836,134.7,12.55,6,116.82,21 / 23,8013713,2019-11-06 18:19:54:175,0.7795,-0.0019,9.6021,-0.0201,0.0026,9.8065,-0.0457,0.0776,-0.0014,-19.44,-36.56,27.56,267.08,-89.57,121.71
52.572456,-1.525836,134.7,12.55,6,116.82,21 / 23,8013813,2019-11-06 18:19:54:275,0.4305,0.0009,9.4058,0.0042,0.0091,9.8066,-0.0046,-0.0611,0.0162,-19.87,-37,28,266.5,-89.64,122.42
52.572456,-1.525836,134.7,12.55,6,116.82,21 / 23,8013913,2019-11-06 18:19:54:375,1.4118,-0.0349,10.071,0.0089,-0.0139,9.8065,-0.1143,0.1311,-0.0372,-19.81,-36.06,28.06,257.91,-89.59,113.86
52.572456,-1.525836,134.7,12.55,6,116.82,21 / 23,8014013,2019-11-06 18:19:54:475,-1.154,0.2801,10.2264,0.0035,0.0053,9.8066,0.0409,-0.0872,0.0443,-19.44,-36.75,28.38,239.24,-89.63,93.74
52.572456,-1.525836,134.7,12.55,6,116.82,21 / 23,8014114,2019-11-06 18:19:54:576,-0.4955,0.5353,10.3105,-0.0058,-0.0135,9.8066,0.0268,-0.0751,-0.0132,-19.75,-36.12,28.25,256.85,-89.58,112.81
52.572456,-1.525836,134.7,12.55,6,116.82,21 / 23,8014214,2019-11-06 18:19:54:676,-0.275,-0.8062,9.7269,0.0257,-0.0094,9.8065,-0.0272,-0.1485,0.1409,-19.56,-36.94,28.25,285.03,-89.44,141.15
52.572456,-1.525836,134.7,12.55,6,116.82,21 / 23,8014313,2019-11-06 18:19:54:775,-0.1417,-1.2298,10.3904,-0.0006,0.009,9.8066,0.0018,-0.1353,0.0631,-19.94,-36.5,28,296.81,-89.56,152.75
52.572456,-1.525836,134.7,12.55,6,116.82,21 / 23,8014413,2019-11-06 18:19:54:875,-0.5474,0.4914,8.8185,-0.0139,0.0061,9.8066,0.0997,-0.0005,-0.0869,-19.37,-36.44,27.75,304.37,-89.62,158.87
52.572456,-1.525836,134.7,12.55,6,116.82,21 / 23,8014513,2019-11-06 18:19:54:975,0.1778,0.861,8.9924,0.0112,0.0067,9.8066,-0.0165,0.0682,0.0531,-20.06,-37.12,27.81,302.81,-89.53,158.78
52.572456,-1.525836,134.7,12.55,6,116.82,21 / 23,8014613,2019-11-06 18:19:55:075,-1.3371,-0.3282,11.0762,0.0195,-0.022,9.8066,-0.0303,0.0236,-0.003,-19.81,-36.06,27.69,317.23,-89.54,173.1
52.572456,-1.525836,134.7,12.55,6,116.82,21 / 23,8014713,2019-11-06 18:19:55:175,1.2643,-0.3782,9.8552,-0.0078,-0.0258,9.8066,0.1433,0.1462,-0.0779,-19.62,-36.31,27.88,321.24,-89.27,177.26
52.572456,-1.525836,134.7,12.55,6,116.82,21 / 23,8014813,2019-11-06 18:19:55:275,1.0656,-0.6783,9.4587,-0.0495,0.0133,9.8065,0.136,0.0627,-0.0804,-19.94,-37.5,27.38,334.14,-89.17,-168.93
52.572456,-1.525836,134.7,12.55,6,116.82,23 / 23,8014913,2019-11-06 18:19:55:375,-0.0299,0.908,9.6128,-0.0052,-0.0064,9.8066,-0.1992,0.0564,0.1843,-20,-37.06,27.63,333.44,-89.03,-170.55
52.572456,-1.525836,134.7,12.55,6,116.82,23 / 23,8015014,2019-11-06 18:19:55:476,0.9121,-1.7244,11.184,-0.0598,0.0266,9.8063,0.2322,-0.1974,-0.1178,-19.75,-36.75,28.56,1.34,-89.2,-144.09
52.572456,-1.525836,134.7,12.55,6,116.82,23 / 23,8015114,2019-11-06 18:19:55:576,-3.3579,1.6505,9.1485,-0.0606,0.0074,9.8065,0.1364,0.2215,-0.1264,-19.94,-36.62,27.81,348.1,-88.93,-156.13
52.572456,-1.525836,134.7,12.55,6,116.82,23 / 23,8015213,2019-11-06 18:19:55:675,-2.0183,0.2423,10.5895,0.0334,-0.0359,9.8065,-0.2202,-0.108,0.0641,-20,-36.94,28.38,3.8,-88.9,-140.74
52.572456,-1.525836,134.7,12.55,6,116.82,23 / 23,8015313,2019-11-06 18:19:55:775,3.3957,1.7921,7.8066,0.0435,0.0007,9.8065,-0.0891,-0.1242,0.1945,-20,-37.12,28.06,17.68,-89,-127.11
52.572456,-1.525836,134.7,12.55,6,116.82,23 / 23,8015414,2019-11-06 18:19:55:876,-3.7285,-2.5362,10.5656,-0.014,0.0491,9.8064,0.0947,-0.3452,0.2005,-20.5,-36.5,28.25,21.44,-88.98,-123.42
52.572456,-1.525836,134.7,12.55,6,116.82,23 / 23,8015514,2019-11-06 18:19:55:976,1.2496,-0.3115,10.1994,0.0144,0.0362,9.8065,0.093,-0.1542,0.0249,-20.37,-36.87,28.31,20.83,-89.14,-123.97
52.572456,-1.525836,134.7,12.55,6,116.82,23 / 23,8015614,2019-11-06 18:19:56:076,-0.7933,0.2545,9.3766,0.0319,0.0101,9.8065,-0.051,-0.0445,0.1001,-20.06,-36.31,28.25,8.75,-89.12,-135.86
52.572456,-1.525836,134.7,12.55,6,116.82,23 / 23,8015713,2019-11-06 18:19:56:175,0.9398,-1.1045,10.8221,0.0256,-0.0038,9.8065,-0.1214,0.0563,0.053,-20.37,-36.87,28.63,14.93,-89.04,-130.74
52.572456,-1.525836,134.7,12.55,6,116.82,23 / 23,8015814,2019-11-06 18:19:56:276,0.1207,-1.6683,10.8489,-0.011,0.0199,9.8066,0.0757,-0.138,-0.0322,-20.19,-36.25,28.56,16.41,-89.28,-129.21
52.572456,-1.525836,134.7,12.55,6,116.82,21 / 22,8015916,2019-11-06 18:19:56:378,0.9687,1.597,8.4424,-0.0009,0.0213,9.8066,0.048,0.0744,0.0558,-20.56,-36.5,28.31,9.74,-89.14,-133.54
52.572456,-1.525836,134.7,12.55,6,116.82,21 / 22,8016014,2019-11-06 18:19:56:476,1.2957,-0.6677,9.7681,-0.0028,0.0168,9.8065,0.0555,-0.242,0.0272,-19.81,-35.69,28.56,11.85,-89.2,-133.73
52.572456,-1.525836,134.7,12.55,6,116.82,21 / 22,8016114,2019-11-06 18:19:56:576,0.4185,-0.1071,9.7496,-0.0149,0.0194,9.8066,0.0492,-0.0015,0.1514,-20.69,-34.81,29.69,25.62,-89.1,-119.76
52.572456,-1.525836,134.7,12.55,6,116.82,21 / 22,8016213,2019-11-06 18:19:56:675,-0.3626,0.5021,10.3306,-0.0134,-0.003,9.8065,0.0091,-0.0393,-0.0378,-20.56,-33.44,29.06,29.54,-88.86,-115.07
52.572456,-1.525836,134.7,12.55,6,116.82,21 / 22,8016313,2019-11-06 18:19:56:775,-0.5564,-0.6572,9.0477,-0.0107,0.0064,9.8065,0.0929,0.119,-0.0161,-20.62,-33.31,27.38,26.2,-88.8,-116.44
52.572456,-1.525836,134.7,12.55,6,116.82,21 / 22,8016414,2019-11-06 18:19:56:876,-0.6174,0.5116,10.1646,-0.013,-0.0103,9.8066,-0.0272,0.102,-0.1706,-20.44,-35.81,26.25,22.78,-88.81,-120.15
52.572456,-1.525836,134.7,12.55,6,116.82,21 / 22,8016514,2019-11-06 18:19:56:976,0.9215,0.1715,9.236,0.0088,0.002,9.8066,0.0188,-0.1223,0.0647,-19.69,-35.81,27.44,19.44,-88.93,-124.41
52.572456,-1.525836,134.7,12.55,6,116.82,21 / 22,8016614,2019-11-06 18:19:57:076,-0.3041,-1.617,9.6518,-0.0111,0.0139,9.8065,0.0111,-0.1678,0.0086,-19.56,-36.81,28.06,22.92,-88.92,-122
52.572456,-1.525836,134.7,12.55,6,116.82,21 / 22,8016714,2019-11-06 18:19:57:176,0.5964,-0.0408,8.9946,0.0025,0.0063,9.8066,-0.0602,-0.1507,0.0682,-19.69,-36.44,28,27.02,-89.01,-117.92
52.572456,-1.525836,134.7,12.55,6,116.82,21 / 22,8016814,2019-11-06 18:19:57:276,-0.9917,-0.7089,9.9934,0.0215,0.0262,9.8066,-0.0027,-0.1238,0.0736,-19.87,-36.37,27.88,34.67,-89.06,-110.36
52.57164,-1.524493,133.41,15.38,4,140.53,22 / 23,8016914,2019-11-06 18:19:57:376,-0.6238,-1.4127,9.8648,-0.0178,0.007,9.8066,-0.1736,-0.0587,0.0825,-19.19,-36.19,27.56,33.29,-89.09,-113.09
52.57164,-1.524493,133.41,15.38,4,140.53,22 / 23,8017014,2019-11-06 18:19:57:476,3.0684,-0.5544,10.359,0.026,-0.0156,9.8065,-0.0986,-0.0209,0.2012,-19.94,-35.69,28.44,16.23,-89.22,-128.46
52.57164,-1.524493,133.41,15.38,4,140.53,22 / 23,8017114,2019-11-06 18:19:57:576,0.0425,-1.5097,10.084,-0.0179,-0.0022,9.8065,0.1818,-0.1831,-0.0827,-19.37,-35.94,28.75,14.23,-88.98,-132.8
52.57164,-1.524493,133.41,15.38,4,140.53,22 / 23,8017213,2019-11-06 18:19:57:675,1.0732,0.207,10.3631,-0.0437,0.0073,9.8065,0.2228,-0.043,-0.028,-19.5,-36.37,28.5,17.13,-88.86,-129.99
52.57164,-1.524493,133.41,15.38,4,140.53,22 / 23,8017313,2019-11-06 18:19:57:775,-0.1056,0.1845,9.2093,0.0409,-0.0086,9.8065,-0.1922,-0.1698,0.1612,-20.19,-36.25,28.88,4.78,-88.68,-140.74
52.57164,-1.524493,133.41,15.38,4,140.53,22 / 23,8017414,2019-11-06 18:19:57:876,0.516,-0.3198,9.5002,0.0277,-0.017,9.8065,-0.1536,0.0748,0.1715,-20.19,-36.06,28.31,17.44,-88.57,-127.47
52.57164,-1.524493,133.41,15.38,4,140.53,22 / 23,8017514,2019-11-06 18:19:57:976,-0.527,-0.8624,10.566,-0.0097,-0.0076,9.8066,0.0735,-0.1248,-0.0154,-20.62,-36.56,28.13,20.43,-88.4,-123.3
52.57164,-1.524493,133.41,15.38,4,140.53,22 / 23,8017614,2019-11-06 18:19:58:076,-1.3659,0.0879,9.2378,-0.0332,-0.0035,9.8065,0.0739,0.1492,-0.0644,-20.87,-36.69,28.19,15.08,-88.31,-128.52
52.57164,-1.524493,133.41,15.38,4,140.53,22 / 23,8017714,2019-11-06 18:19:58:176,-0.1325,-0.916,9.4756,-0.0052,0.0009,9.8066,-0.116,0.0717,0.0779,-20.25,-36.62,27.94,23.11,-88.17,-122.14
52.57164,-1.524493,133.41,15.38,4,140.53,22 / 23,8017814,2019-11-06 18:19:58:276,-1.421,-1.3377,9.5676,-0.0088,-0.0112,9.8066,-0.1617,0.0361,0.0992,-20.56,-36.56,29.25,34.12,-87.87,-111.23
52.57164,-1.524493,133.41,15.38,4,140.53,22 / 22,8017914,2019-11-06 18:19:58:376,1.0177,-0.6429,9.9917,-0.0421,-0.0098,9.8065,0.0812,0.2656,-0.11,-20.37,-36.44,28.31,41.79,-87.76,-104.26
52.57164,-1.524493,133.41,15.38,4,140.53,22 / 22,8018013,2019-11-06 18:19:58:475,1.9931,2.3837,10.6032,0.0408,0.0225,9.8065,0.1275,-0.528,0.0858,-20.62,-36.31,28.31,35.38,-87.61,-109.2
52.57164,-1.524493,133.41,15.38,4,140.53,22 / 22,8018113,2019-11-06 18:19:58:575,2.3437,0.1045,8.4055,0.0519,0.0014,9.8064,0.0138,-0.2763,0.2833,-21.06,-36.87,28.31,23.93,-87.87,-120.12
52.57164,-1.524493,133.41,15.38,4,140.53,22 / 22,8018213,2019-11-06 18:19:58:675,3.1642,0.1497,8.876,0.0109,0.0494,9.8065,-0.1343,-0.2534,0.0959,-20.37,-36.12,28.44,29.59,-87.69,-116.08
52.57164,-1.524493,133.41,15.38,4,140.53,22 / 22,8018314,2019-11-06 18:19:58:776,-1.3777,-1.2732,8.891,-0.0016,0.0613,9.8064,-0.007,-0.2555,0.172,-20.44,-36.25,27.94,45.72,-88.07,-100.2
52.57164,-1.524493,133.41,15.38,4,140.53,22 / 22,8018413,2019-11-06 18:19:58:875,0.6894,-0.374,9.4665,0.0413,0.0194,9.8065,0.0065,-0.1762,0.0806,-21.06,-36.31,28.19,45.95,-88.23,-98.51
52.57164,-1.524493,133.41,15.38,4,140.53,22 / 22,8018513,2019-11-06 18:19:58:975,-1.1474,-2.3112,10.3558,0.0395,0.0131,9.8065,0.0656,-0.322,0.1177,-20.94,-35.94,28.38,38.49,-88.32,-105.73
52.57164,-1.524493,133.41,15.38,4,140.53,22 / 22,8018614,2019-11-06 18:19:59:076,2.3364,0.6632,9.6323,0.0199,0.0242,9.8066,0.0188,-0.0766,0.0544,-20.75,-35.62,28.06,33.73,-88.28,-110.39
52.57164,-1.524493,133.41,15.38,4,140.53,22 / 22,8018713,2019-11-06 18:19:59:175,0.4106,-1.5418,10.8233,0.0236,0.0281,9.8065,0.0196,-0.3092,0.1627,-20.44,-36.5,27.38,35.25,-88.52,-109.15
52.57164,-1.524493,133.41,15.38,4,140.53,22 / 22,8018813,2019-11-06 18:19:59:275,2.8546,1.8041,9.2183,0.0202,0.0305,9.8065,0.0564,-0.0735,0.0886,-20.62,-36.44,27.81,35.24,-88.33,-108.89
52.57164,-1.524493,133.41,15.38,4,140.53,22 / 22,8018913,2019-11-06 18:19:59:375,0.1281,-1.7765,9.9748,0.0233,0.0322,9.8066,0.0435,-0.4527,0.1697,-20.12,-36.19,28.19,33.49,-88.55,-111.81
52.57164,-1.524493,133.41,15.38,4,140.53,22 / 22,8019013,2019-11-06 18:19:59:475,3.9596,1.2446,9.8134,0.012,0.0037,9.8066,-0.0056,0.1138,-0.0279,-20.56,-36.31,27.75,28.12,-88.52,-115.73
52.57164,-1.524493,133.41,15.38,4,140.53,22 / 22,8019114,2019-11-06 18:19:59:576,-3.2778,-2.2689,9.7037,0.0609,0.0371,9.8063,-0.0184,-0.5059,0.2321,-20.06,-36.19,28,24.55,-88.64,-120.51
52.57164,-1.524493,133.41,15.38,4,140.53,22 / 22,8019214,2019-11-06 18:19:59:676,1.37,-1.5843,10.7432,0.0186,-0.0338,9.8066,-0.1106,0.3031,-0.0763,-20.87,-36.56,27.69,26.64,-88.55,-117.19
52.57164,-1.524493,133.41,15.38,4,140.53,22 / 22,8019314,2019-11-06 18:19:59:776,-2.6066,-2.9248,10.6159,0.0247,0.0401,9.8065,0.0398,-0.3081,0.1336,-20.12,-36.5,28.44,25.08,-88.51,-120.05
52.57164,-1.524493,133.41,15.38,4,140.53,22 / 22,8019414,2019-11-06 18:19:59:876,1.9471,0.4493,9.4051,-0.0398,-0.0253,9.8065,-0.008,0.3402,-0.2263,-20.37,-36.5,27.88,28.35,-88.42,-116.91
52.57164,-1.524493,133.41,15.38,4,140.53,22 / 22,8019514,2019-11-06 18:19:59:976,1.7572,0.3844,9.527,0.0263,0.0281,9.8065,-0.024,-0.1066,0.118,-20.69,-36.5,28.13,30.13,-88.37,-113.85
52.57164,-1.524493,133.41,15.38,4,140.53,22 / 22,8019614,2019-11-06 18:20:00:076,3.6644,1.5769,9.3804,-0.0146,-0.0285,9.8065,-0.0207,0.3863,-0.2791,-20.87,-36.19,28.06,29.01,-88.19,-115.03
52.57164,-1.524493,133.41,15.38,4,140.53,22 / 22,8019713,2019-11-06 18:20:00:175,0.4931,-1.5193,9.7334,0.0313,0.0167,9.8065,0.0118,-0.0261,0.0534,-20.5,-36.87,28.63,21.13,-88.47,-124.86
52.57164,-1.524493,133.41,15.38,4,140.53,22 / 22,8019814,2019-11-06 18:20:00:276,-1.2988,-1.7065,9.8358,-0.0355,-0.0245,9.8065,0.0375,0.322,-0.1578,-20.37,-36.31,28.13,19.21,-88.49,-125.78
52.57164,-1.524493,133.41,15.38,4,140.53,22 / 22,8019914,2019-11-06 18:20:00:376,0.5989,0.6318,8.8093,0.0102,-0.0175,9.8066,0.0002,-0.2739,0.2042,-20.5,-36.5,28.19,21.49,-88.33,-123.62
52.57164,-1.524493,133.41,15.38,4,140.53,22 / 22,8020014,2019-11-06 18:20:00:476,-0.1159,-1.5677,10.3212,0.0046,-0.0295,9.8065,0.0846,-0.1663,-0.0062,-20.31,-36.19,28.63,26.35,-88.36,-119.82
52.57164,-1.524493,133.41,15.38,4,140.53,22 / 22,8020113,2019-11-06 18:20:00:575,2.3991,0.5999,8.942,-0.0164,-0.017,9.8066,0.1253,-0.178,0.0876,-20.25,-36.06,28.5,26.26,-88.21,-119.97
52.57164,-1.524493,133.41,15.38,4,140.53,22 / 22,8020213,2019-11-06 18:20:00:675,0.1009,-1.3781,10.1928,-0.0209,-0.0073,9.8066,-0.1044,-0.1739,0.0939,-20.12,-36.62,28.19,25.72,-88.22,-119.59
52.57164,-1.524493,133.41,15.38,4,140.53,22 / 22,8020313,2019-11-06 18:20:00:775,0.2179,-0.8703,10.1694,-0.0056,-0.0083,9.8065,-0.0451,0.1208,-0.0629,-19.75,-36.25,28.25,23.09,-88.29,-122.08
52.57164,-1.524493,133.41,15.38,4,140.53,22 / 22,8020414,2019-11-06 18:20:00:876,1.0213,-0.04,10.5976,-0.0091,0.0214,9.8065,0.1274,-0.0179,-0.056,-21.19,-36.56,28.31,26.35,-88.33,-117.57
52.57164,-1.524493,133.41,15.38,4,140.53,22 / 22,8020514,2019-11-06 18:20:00:976,-0.9815,0.3308,9.1385,-0.049,0.0041,9.8065,0.1277,0.1222,-0.1799,-20.5,-36.31,28.5,19.5,-88.28,-126.51
52.57164,-1.524493,133.41,15.38,4,140.53,22 / 22,8020614,2019-11-06 18:20:01:076,-1.2609,-0.5692,9.2642,0.0261,0.0001,9.8066,-0.0162,0.0211,0.0873,-20.31,-36.31,28.56,21.73,-88.23,-124.35
52.57164,-1.524493,133.41,15.38,4,140.53,22 / 22,8020713,2019-11-06 18:20:01:175,2.5952,0.723,9.3212,-0.004,-0.0277,9.8065,-0.1155,0.1853,-0.1425,-20.69,-36.87,28.19,20.53,-88.19,-123.28
52.57164,-1.524493,133.41,15.38,4,140.53,22 / 22,8020814,2019-11-06 18:20:01:276,0.4019,0.0425,9.3951,0.0222,0.0088,9.8066,-0.0639,0.0238,0.0991,-20.62,-36.44,28.63,21.63,-88.17,-123.15
52.57164,-1.524493,133.41,15.38,4,140.53,20 / 22,8020915,2019-11-06 18:20:01:377,0.3171,-1.2873,10.4485,-0.0021,-0.0284,9.8066,-0.0579,0.1449,-0.0903,-21.31,-35.69,28.44,20.95,-87.86,-122.98
52.57164,-1.524493,133.41,15.38,4,140.53,20 / 22,8021013,2019-11-06 18:20:01:475,0.7827,-0.1466,10.0228,0.0086,0.0234,9.8066,0.0692,-0.0998,0.1321,-20.69,-36.06,28.69,22.75,-87.99,-122.13
52.57164,-1.524493,133.41,15.38,4,140.53,20 / 22,8021113,2019-11-06 18:20:01:575,1.9855,0.8797,9.7285,-0.0292,0.0078,9.8065,0.0334,0.2232,-0.1432,-20.94,-36.44,27.69,22.19,-87.87,-121.78
52.57164,-1.524493,133.41,15.38,4,140.53,20 / 22,8021214,2019-11-06 18:20:01:676,0.5092,0.0915,9.5885,0.0074,0.0112,9.8066,-0.0075,0.0663,0.0043,-21,-36,28.5,26.13,-87.98,-118.87
52.57164,-1.524493,133.41,15.38,4,140.53,20 / 22,8021314,2019-11-06 18:20:01:776,-0.56,-1.1182,10.8333,-0.0083,-0.0272,9.8066,-0.0718,0.2056,-0.0913,-20.37,-35.25,28.44,27.1,-87.97,-118.31
52.57164,-1.524493,133.41,15.38,4,140.53,20 / 22,8021415,2019-11-06 18:20:01:877,0.8494,-0.3412,10.541,0.0105,-0.0094,9.8066,-0.0333,0.1408,0.0035,-20.56,-34.19,28.5,27.88,-87.88,-117.17
52.57164,-1.524493,133.41,15.38,4,140.53,20 / 22,8021514,2019-11-06 18:20:01:976,-1.2033,-0.5334,9.5583,-0.0119,-0.017,9.8065,-0.0276,0.1283,-0.0677,-20.56,-35.31,28.13,27.8,-87.72,-116.41
52.57164,-1.524493,133.41,15.38,4,140.53,20 / 22,8021614,2019-11-06 18:20:02:076,1.2479,0.3887,11.1093,-0.0227,0.0034,9.8066,0.1058,0.1595,-0.0884,-20.87,-35.44,28.63,28.51,-87.81,-116.62
52.57164,-1.524493,133.41,15.38,4,140.53,20 / 22,8021714,2019-11-06 18:20:02:176,0.9004,-0.6953,10.1427,0.0005,-0.0128,9.8066,0.0065,0.1233,-0.087,-20.56,-36,28.31,22.61,-87.87,-121.38
52.57164,-1.524493,133.41,15.38,4,140.53,20 / 22,8021814,2019-11-06 18:20:02:276,0.5542,1.263,9.6211,0.0093,-0.0057,9.8066,-0.069,0.1846,-0.0659,-21,-36.25,28.44,19.56,-87.95,-124.29
52.57164,-1.524493,133.41,15.38,4,140.53,20 / 21,8021914,2019-11-06 18:20:02:376,0.3132,-1.0647,9.7825,0.0107,-0.0184,9.8065,-0.048,0.1317,-0.0405,-20.69,-36.25,28.25,19.47,-88.1,-124.32
52.57164,-1.524493,133.41,15.38,4,140.53,20 / 21,8022013,2019-11-06 18:20:02:475,1.3139,1.0279,10.0061,-0.019,0.0037,9.8066,0.036,0.1099,-0.0688,-20.94,-36.44,28.5,18.63,-88.11,-126.08
52.57164,-1.524493,133.41,15.38,4,140.53,20 / 21,8022113,2019-11-06 18:20:02:575,0.2446,-0.5097,9.5618,-0.0084,-0.0117,9.8066,-0.0215,-0.0249,-0.0008,-20.56,-36.5,28.25,17.82,-88.04,-125.94
52.57164,-1.524493,133.41,15.38,4,140.53,20 / 21,8022213,2019-11-06 18:20:02:675,2.4647,0.7825,10.3885,-0.0283,-0.0155,9.8065,0.0502,0.2444,-0.0878,-20.75,-36.5,28.44,21.26,-87.87,-122.68
52.57164,-1.524493,133.41,15.38,4,140.53,20 / 21,8022313,2019-11-06 18:20:02:775,-0.1178,1.8186,8.8773,-0.0197,0.0344,9.8065,0.1734,-0.2543,-0.0138,-21.06,-36.19,28.38,18.35,-87.86,-125.48
52.57164,-1.524493,133.41,15.38,4,140.53,20 / 21,8022413,2019-11-06 18:20:02:875,0.2946,1.4517,8.556,-0.0016,-0.0075,9.8066,0.0025,-0.0557,0.076,-20.56,-36.62,28.38,17.39,-87.99,-126.38
52.57164,-1.524493,133.41,15.38,4,140.53,20 / 21,8022514,2019-11-06 18:20:02:976,1.2583,0.7269,9.8496,0.0407,0.0288,9.8065,-0.1297,-0.3378,0.2696,-20.87,-36.25,27.31,20.4,-87.95,-122.49
52.57164,-1.524493,133.41,15.38,4,140.53,20 / 21,8022614,2019-11-06 18:20:03:076,-0.1357,0.0374,10.28,-0.008,-0.0076,9.8066,0.0033,-0.0549,0.0598,-20.81,-36.37,28.63,27.93,-88.05,-117.09
52.57164,-1.524493,133.41,15.38,4,140.53,20 / 21,8022714,2019-11-06 18:20:03:176,0.7506,1.3515,8.8977,0.0285,-0.0171,9.8065,0.0692,-0.2514,0.0666,-20.62,-36.62,27.69,30.26,-88.09,-113.9
52.57164,-1.524493,133.41,15.38,4,140.53,20 / 21,8022816,2019-11-06 18:20:03:278,-0.8597,0.734,9.3193,0.0247,-0.0379,9.8065,0.1478,-0.1413,-0.003,-20.87,-36.62,27.56,22.14,-87.92,-121.83
52.57164,-1.524493,133.41,15.38,4,140.53,20 / 23,8022913,2019-11-06 18:20:03:375,0.6983,0.9289,9.8412,-0.0096,0.016,9.8066,0.0576,-0.1084,-0.046,-21.12,-35.87,27.75,28.06,-88.08,-116.01
52.57164,-1.524493,133.41,15.38,4,140.53,20 / 23,8023014,2019-11-06 18:20:03:476,0.3552,-0.5191,10.21,-0.0052,-0.0096,9.8066,0.006,-0.0381,0.0927,-21.44,-36.75,28,25.14,-88.12,-118.85
52.57164,-1.524493,133.41,15.38,4,140.53,20 / 23,8023114,2019-11-06 18:20:03:576,0.0004,0.3277,10.143,0.0047,0.0086,9.8066,-0.0383,0.0393,-0.0728,-21.12,-37,28,28.01,-88.21,-116.02
52.57164,-1.524493,133.41,15.38,4,140.53,20 / 23,8023214,2019-11-06 18:20:03:676,-0.2799,1.2032,10.6102,0.0288,-0.0181,9.8065,0.0845,0.0451,0.003,-20.69,-36.25,28.06,25.77,-88.19,-118.17
52.57164,-1.524493,133.41,15.38,4,140.53,20 / 23,8023314,2019-11-06 18:20:03:776,2.7642,1.2479,10.5495,0.0213,0.0018,9.8065,-0.0007,-0.2339,0.0933,-21.12,-36.44,28.44,8.51,-88.14,-134.91
52.57164,-1.524493,133.41,15.38,4,140.53,20 / 23,8023413,2019-11-06 18:20:03:875,2.1237,0.5122,9.8015,-0.0234,-0.0201,9.8065,0.0518,-0.1481,0.1148,-20.75,-36.37,27.69,359.84,-87.9,-143.29
52.57164,-1.524493,133.41,15.38,4,140.53,20 / 23,8023513,2019-11-06 18:20:03:975,1.863,3.6586,9.0131,-0.0006,-0.0166,9.8066,0.0289,-0.2011,0.0919,-20.31,-36.69,28.56,357.8,-87.97,-147.53
52.57164,-1.524493,133.41,15.38,4,140.53,20 / 23,8023614,2019-11-06 18:20:04:076,0.1387,-1.1199,10.3778,-0.003,-0.04,9.8065,0.1172,-0.3212,0.1874,-20.62,-36.5,27.88,358.59,-88,-144.49
52.57164,-1.524493,133.41,15.38,4,140.53,20 / 23,8023713,2019-11-06 18:20:04:175,2.349,2.1146,9.5652,-0.0343,-0.0366,9.8065,0.0054,-0.0959,0.0257,-20.69,-36.06,27.94,1.93,-87.67,-141.29
52.57164,-1.524493,133.41,15.38,4,140.53,20 / 23,8023814,2019-11-06 18:20:04:276,-2.0276,-0.8841,10.3059,-0.0314,-0.0116,9.8065,0.0316,-0.2895,0.2742,-21.5,-36.44,28.13,357.95,-87.57,-145.09
52.57164,-1.524493,133.41,15.38,4,140.53,21 / 22,8023913,2019-11-06 18:20:04:375,1.1208,1.3002,9.6691,-0.0022,-0.0344,9.8066,0.0034,0.091,-0.0074,-21.12,-36.69,28.25,359.13,-87.47,-143.96
52.57164,-1.524493,133.41,15.38,4,140.53,21 / 22,8024013,2019-11-06 18:20:04:475,0.0052,-0.7888,10.176,0.0036,-0.0063,9.8066,0.122,-0.104,0.0886,-21.19,-36.56,29.13,358.89,-87.37,-145.15
52.57164,-1.524493,133.41,15.38,4,140.53,21 / 22,8024114,2019-11-06 18:20:04:576,0.617,2.9383,9.0999,0.0134,-0.0192,9.8065,0.0367,0.0022,0.007,-21.31,-36.44,28.25,358.44,-87.39,-144.62
52.57164,-1.524493,133.41,15.38,4,140.53,21 / 22,8024214,2019-11-06 18:20:04:676,0.3647,1.1798,10.8171,0.0304,-0.0266,9.8065,0.1609,-0.1256,0.031,-22.06,-35.87,29.5,1.49,-87.55,-142.32
52.57164,-1.524493,133.41,15.38,4,140.53,21 / 22,8024313,2019-11-06 18:20:04:775,3.3684,2.4361,9.6245,-0.0113,-0.03,9.8065,-0.0338,0.1917,-0.0331,-21.37,-35.56,30.44,358.51,-87.2,-146.43
52.57164,-1.524493,133.41,15.38,4,140.53,21 / 22,8024414,2019-11-06 18:20:04:876,0.6949,1.2952,9.5655,-0.0085,0.0073,9.8066,-0.0214,0.1004,0.0901,-21.5,-34.37,31.38,357.49,-86.92,-148.27
52.57164,-1.524493,133.41,15.38,4,140.53,21 / 22,8024513,2019-11-06 18:20:04:975,-0.6349,-1.405,10.8814,-0.008,0.0095,9.8065,-0.166,0.2539,-0.0701,-22.12,-32.69,32.19,359.19,-86.89,-146.26
52.57164,-1.524493,133.41,15.38,4,140.53,21 / 22,8024613,2019-11-06 18:20:05:075,3.4887,3.5927,8.9671,-0.0017,0.0183,9.8066,-0.0463,0.549,-0.1635,-21.37,-31.25,29.81,358.77,-86.95,-146.19
52.57164,-1.524493,133.41,15.38,4,140.53,21 / 22,8024714,2019-11-06 18:20:05:176,0.0111,-1.0146,11.6863,0.0354,0.0742,9.8063,-0.0787,-0.4239,0.0952,-21.06,-32.25,31.56,355.63,-87.18,-150.91
52.57164,-1.524493,133.41,15.38,4,140.53,21 / 22,8024814,2019-11-06 18:20:05:276,-5.0589,-1.7955,10.225,-0.0438,-0.0437,9.8064,0.0089,0.1129,0.1148,-21.12,-29.44,34.75,346.68,-87.12,-161.87
52.57164,-1.524493,133.41,15.38,4,140.53,21 / 24,8024914,2019-11-06 18:20:05:376,-1.3059,-0.3883,10.1756,0.0217,0.0039,9.8065,0.0514,-0.8189,0.417,-23.75,-17.75,37.94,337.61,-87.03,-169.63
52.57164,-1.524493,133.41,15.38,4,140.53,21 / 24,8025014,2019-11-06 18:20:05:476,-1.1787,-3.511,11.0162,-0.0747,-0.1088,9.8058,0.1167,-0.5236,0.4122,-25.75,-11.5,29.06,326.22,-86.89,-171.37
52.57164,-1.524493,133.41,15.38,4,140.53,21 / 24,8025113,2019-11-06 18:20:05:575,4.6784,7.292,8.2907,-0.0384,-0.066,9.8063,0.0127,-0.6669,0.422,-25.94,-15.12,21.94,331.73,-86.7,-157.77
52.57164,-1.524493,133.41,15.38,4,140.53,21 / 24,8025214,2019-11-06 18:20:05:676,0.2228,-0.8488,9.5842,-0.0485,-0.0564,9.8063,0.0343,-0.7791,0.4172,-23.06,-17,24.25,347.75,-86.91,-148.11
52.57164,-1.524493,133.41,15.38,4,140.53,21 / 24,8025314,2019-11-06 18:20:05:776,6.2482,5.4428,8.6612,-0.0429,-0.0651,9.8063,0.0037,-0.3829,0.2689,-21.31,-16.56,26.19,350.35,-87.14,-150.47
52.57164,-1.524493,133.41,15.38,4,140.53,21 / 24,8025414,2019-11-06 18:20:05:876,-2.5194,-0.733,10.481,-0.0188,-0.03,9.8065,0.1504,-0.7608,0.3164,-19,-13.12,27.69,343.66,-87.48,-161.9
52.57164,-1.524493,133.41,15.38,4,140.53,21 / 24,8025514,2019-11-06 18:20:05:976,4.3387,3.8521,9.2155,-0.0121,-0.0839,9.8062,0.0273,-0.0433,0.085,-17.62,-10,20.63,335.81,-87.25,-163.16
52.57164,-1.524493,133.41,15.38,4,140.53,21 / 24,8025614,2019-11-06 18:20:06:076,-1.0547,-2.701,10.6524,0.0016,-0.0195,9.8066,0.1191,-0.5551,0.2213,-18.75,-14.56,17.94,324.2,-87.35,-168.34
52.57164,-1.524493,133.41,15.38,4,140.53,21 / 24,8025714,2019-11-06 18:20:06:176,4.2261,4.9438,8.992,-0.0366,-0.0665,9.8063,0.0061,0.1672,-0.026,-21.19,-20.06,16.88,325.73,-87.27,-162.09
52.57164,-1.524493,133.41,15.38,4,140.53,21 / 24,8025814,2019-11-06 18:20:06:276,-0.2243,0.9543,9.2544,-0.0204,0.0087,9.8066,-0.053,-0.4349,0.2696,-22.25,-23.12,21.31,330.9,-87.53,-161.84
52.570557,-1.522966,133.47,18.34,4,130.87,21 / 22,8025914,2019-11-06 18:20:06:376,1.9335,4.5072,8.5881,-0.0451,-0.0584,9.8063,-0.1266,0.16,0.0546,-23.06,-22.44,21.31,333.76,-87.44,-157.81
52.570557,-1.522966,133.47,18.34,4,130.87,21 / 22,8026014,2019-11-06 18:20:06:476,-1.2348,-0.8165,10.4891,-0.017,-0.0369,9.8065,0.0502,0.0039,0.0228,-23.31,-25,20.63,330.66,-87.72,-160.82
52.570557,-1.522966,133.47,18.34,4,130.87,21 / 22,8026114,2019-11-06 18:20:06:576,0.3533,2.047,9.5657,-0.0222,-0.0392,9.8065,-0.1202,0.3925,-0.1176,-22.19,-26.44,21.25,339.66,-87.54,-153.26
52.570557,-1.522966,133.47,18.34,4,130.87,21 / 22,8026213,2019-11-06 18:20:06:675,-1.6663,-0.5515,10.2603,-0.0044,-0.0037,9.8066,-0.032,-0.03,0.1018,-21.87,-29.19,20.94,342.89,-87.67,-150.11
52.570557,-1.522966,133.47,18.34,4,130.87,21 / 22,8026313,2019-11-06 18:20:06:775,3.2192,3.2443,9.5909,-0.0444,-0.04,9.8064,-0.0765,0.4226,-0.1408,-23.12,-32.56,21.06,350.8,-87.7,-141.2
52.570557,-1.522966,133.47,18.34,4,130.87,21 / 22,8026414,2019-11-06 18:20:06:876,0.8103,1.8391,9.5489,-0.0016,0.0161,9.8065,0.0574,-0.225,0.2041,-23.81,-34.12,25.13,359.1,-87.69,-137.04
52.570557,-1.522966,133.47,18.34,4,130.87,21 / 22,8026513,2019-11-06 18:20:06:975,2.4214,3.0398,9.0037,-0.0203,-0.033,9.8066,-0.008,0.2138,-0.1669,-22.31,-34.94,24.63,3.06,-87.62,-135.73
52.570557,-1.522966,133.47,18.34,4,130.87,21 / 22,8026614,2019-11-06 18:20:07:076,1.0494,1.6356,10.3343,0.0148,0.0306,9.8065,0.0548,-0.1699,0.1492,-22.69,-36.62,24.69,359.15,-87.68,-138.2
52.570557,-1.522966,133.47,18.34,4,130.87,21 / 22,8026714,2019-11-06 18:20:07:176,-0.9808,-0.2751,9.4111,-0.0018,-0.0108,9.8066,-0.0834,0.0175,0.012,-23.87,-36.75,25.63,0.14,-87.72,-137.16
52.570557,-1.522966,133.47,18.34,4,130.87,21 / 22,8026814,2019-11-06 18:20:07:276,-1.2432,0.5341,9.0779,0.0206,0.0168,9.8066,-0.124,-0.161,0.1321,-24,-36.69,26.19,358.14,-87.91,-139.08
52.570557,-1.522966,133.47,18.34,4,130.87,23 / 24,8026914,2019-11-06 18:20:07:376,0.653,0.4725,10.8495,0.0094,0.0196,9.8065,0.0534,-0.0518,0.0001,-23.87,-36.69,25.94,1.45,-88.04,-135.89
52.570557,-1.522966,133.47,18.34,4,130.87,23 / 24,8027014,2019-11-06 18:20:07:476,2.0883,2.2109,9.2375,0.0136,0.0171,9.8066,0.0356,-0.111,0.0537,-24.12,-36.25,26.19,358.85,-88.06,-138.4
52.570557,-1.522966,133.47,18.34,4,130.87,23 / 24,8027114,2019-11-06 18:20:07:576,-0.8517,0.8617,10.1773,0.0121,0.0176,9.8065,-0.0318,-0.1438,0.125,-23.81,-34.31,25.81,355.2,-88.09,-141.93
52.570557,-1.522966,133.47,18.34,4,130.87,23 / 24,8027213,2019-11-06 18:20:07:675,0.5306,1.7758,9.6369,0.0074,0.0137,9.8066,-0.0147,0.0071,0.0706,-24.06,-35.19,24.5,358.89,-88.19,-137.24
52.570557,-1.522966,133.47,18.34,4,130.87,23 / 24,8027313,2019-11-06 18:20:07:775,1.2438,0.9855,9.7642,-0.003,-0.0033,9.8066,0.0223,0.0422,0.0036,-23.69,-35.94,24.19,359.4,-88.15,-135.58
52.570557,-1.522966,133.47,18.34,4,130.87,23 / 24,8027413,2019-11-06 18:20:07:875,1.3409,0.6116,9.6839,-0.0161,0.0053,9.8066,0.0489,-0.0446,0.0468,-24.25,-36.31,24.69,8.44,-88.2,-128
52.570557,-1.522966,133.47,18.34,4,130.87,23 / 24,8027514,2019-11-06 18:20:07:976,0.4541,0.5971,10.2074,0.004,-0.0173,9.8066,0.017,-0.0345,0.0327,-23.44,-36.62,24.63,12.44,-88.18,-125.38
52.570557,-1.522966,133.47,18.34,4,130.87,23 / 24,8027613,2019-11-06 18:20:08:075,1.8704,1.5289,10.135,-0.0044,-0.0131,9.8066,0.1163,-0.0774,0.0481,-23.87,-36,24.38,10.28,-88.12,-125.08
52.570557,-1.522966,133.47,18.34,4,130.87,23 / 24,8027713,2019-11-06 18:20:08:175,-0.3361,-0.1939,9.732,-0.0053,-0.0137,9.8066,-0.0267,-0.1501,0.1302,-24.31,-36.37,24.69,4.74,-88.01,-131.6
52.570557,-1.522966,133.47,18.34,4,130.87,23 / 24,8027814,2019-11-06 18:20:08:276,1.5653,2.6099,10.1541,-0.0176,-0.0291,9.8066,-0.0641,-0.0409,0.0658,-24.44,-35.62,24.44,4.52,-87.88,-130.66
52.570557,-1.522966,133.47,18.34,4,130.87,21 / 23,8027914,2019-11-06 18:20:08:376,0.1489,-0.2269,9.9642,-0.0173,-0.0046,9.8065,0.0232,-0.233,0.1297,-24.25,-35.62,23.75,8.01,-88.12,-127.28
52.570557,-1.522966,133.47,18.34,4,130.87,21 / 23,8028014,2019-11-06 18:20:08:476,2.3042,4.0735,9.2734,-0.0076,-0.0356,9.8065,-0.0116,0.036,-0.0099,-24.75,-36.62,23.63,7.62,-88.07,-126.49
52.570557,-1.522966,133.47,18.34,4,130.87,21 / 23,8028114,2019-11-06 18:20:08:576,1.7217,0.2251,9.7065,0.0126,-0.0109,9.8066,0.0601,-0.2437,0.1313,-23.94,-36.25,24.13,1.96,-88.22,-133.11
52.570557,-1.522966,133.47,18.34,4,130.87,21 / 23,8028213,2019-11-06 18:20:08:675,3.5241,3.0094,9.5581,-0.0142,-0.0335,9.8065,0.0107,0.2843,-0.1576,-24.75,-36.25,24.13,359.66,-88.12,-134.16
52.570557,-1.522966,133.47,18.34,4,130.87,21 / 23,8028313,2019-11-06 18:20:08:775,-0.0373,0.5339,9.3033,0.0202,0.0155,9.8066,-0.0128,-0.0383,0.0666,-24.94,-36.12,23.56,354.49,-88.17,-139.15
52.570557,-1.522966,133.47,18.34,4,130.87,21 / 23,8028414,2019-11-06 18:20:08:876,0.7363,0.4577,10.4277,-0.0325,-0.0268,9.8065,-0.0222,0.224,-0.1624,-24.44,-35.94,24.13,355.02,-88.12,-139.81
52.570557,-1.522966,133.47,18.34,4,130.87,21 / 23,8028514,2019-11-06 18:20:08:976,0.5518,0.1527,9.7949,-0.0028,-0.0183,9.8065,0.0302,-0.2859,0.281,-24.31,-36,23.88,350.43,-88.19,-144.25
52.570557,-1.522966,133.47,18.34,4,130.87,21 / 23,8028614,2019-11-06 18:20:09:076,2.3514,3.3562,9.5608,-0.0199,-0.0346,9.8065,-0.0791,0.2976,-0.1329,-24.56,-35.94,23.63,349.06,-88.02,-144.37
52.570557,-1.522966,133.47,18.34,4,130.87,21 / 23,8028713,2019-11-06 18:20:09:175,-0.366,-0.4232,10.32,0.0062,0.0168,9.8066,0.0721,-0.138,0.1221,-25.19,-35.75,24.13,342.6,-88.1,-150.63
52.570557,-1.522966,133.47,18.34,4,130.87,21 / 23,8028814,2019-11-06 18:20:09:276,-0.5354,-0.2156,9.297,-0.0129,-0.0228,9.8065,-0.0569,0.3451,-0.1216,-25.25,-35.56,23.69,345.04,-88.13,-148.28
52.570557,-1.522966,133.47,18.34,4,130.87,23 / 24,8028915,2019-11-06 18:20:09:377,-2.4526,-1.3526,9.2651,0.0274,0.0324,9.8065,0.0056,-0.0309,0.0043,-24.81,-34.87,24.25,353.08,-88.27,-140.54
52.570557,-1.522966,133.47,18.34,4,130.87,23 / 24,8029014,2019-11-06 18:20:09:476,1.426,1.5925,11.063,-0.0245,-0.0418,9.8065,0.0385,0.481,-0.2357,-25.31,-33.69,22.06,348.7,-88.19,-142.28
52.570557,-1.522966,133.47,18.34,4,130.87,23 / 24,8029113,2019-11-06 18:20:09:575,0.9454,4.4808,8.8542,-0.0007,0.0475,9.8064,-0.1384,-0.0192,0.0719,-25.19,-34.69,22.19,345.03,-88.01,-145.77
52.570557,-1.522966,133.47,18.34,4,130.87,23 / 24,8029213,2019-11-06 18:20:09:675,1.9793,3.0737,9.711,-0.0235,-0.0275,9.8065,-0.1285,0.5581,-0.1733,-25.87,-35.31,22.44,346.45,-87.98,-143.3
52.570557,-1.522966,133.47,18.34,4,130.87,23 / 24,8029314,2019-11-06 18:20:09:776,0.6088,0.6438,9.3341,0.011,0.0343,9.8066,-0.022,0.0766,-0.0667,-25.62,-35.19,22.25,345.11,-88.16,-144.63
52.570557,-1.522966,133.47,18.34,4,130.87,23 / 24,8029414,2019-11-06 18:20:09:876,-0.9531,-1.8541,9.3494,-0.0142,0.0062,9.8065,0.0079,0.3465,-0.224,-24.75,-35.69,22,350.67,-88.07,-140.33
52.570557,-1.522966,133.47,18.34,4,130.87,23 / 24,8029514,2019-11-06 18:20:09:976,-2.2047,-0.5807,10.0859,0.0226,0.0314,9.8065,-0.0015,0.0565,-0.0516,-25,-36,21.75,345.24,-88.09,-145.58
52.570557,-1.522966,133.47,18.34,4,130.87,23 / 24,8029614,2019-11-06 18:20:10:076,1.2847,-0.1231,10.3472,0.0171,0.0108,9.8065,-0.0389,0.3316,-0.2568,-25.44,-36.25,22.5,335.12,-88.18,-156.68
52.570557,-1.522966,133.47,18.34,4,130.87,23 / 24,8029714,2019-11-06 18:20:10:176,1.397,2.0811,9.5987,0.0044,0.03,9.8066,-0.0667,0.0713,0.1084,-25.12,-35.94,22.63,336.64,-88.1,-155.17
52.570557,-1.522966,133.47,18.34,4,130.87,23 / 24,8029813,2019-11-06 18:20:10:275,1.7869,1.368,9.5808,-0.0222,0.0012,9.8065,-0.04,0.2899,-0.1591,-25.37,-36.5,22.63,339.86,-88.35,-152.14
52.570557,-1.522966,133.47,18.34,4,130.87,21 / 22,8029914,2019-11-06 18:20:10:376,-0.9498,0.511,10.7194,0.0142,0.0266,9.8065,0.073,0.0237,0.061,-25.69,-35.94,22.19,335.49,-88.29,-153.99
52.570557,-1.522966,133.47,18.34,4,130.87,21 / 22,8030014,2019-11-06 18:20:10:476,-2.4145,-1.4071,9.2643,0.0283,-0.0046,9.8065,0.0473,0.383,-0.1362,-25.44,-36.31,22.25,332.89,-88.09,-157.5
52.570557,-1.522966,133.47,18.34,4,130.87,21 / 22,8030114,2019-11-06 18:20:10:576,-0.8971,-0.507,10.2668,0.0475,0.0539,9.8064,-0.0042,0.2437,-0.2256,-25.31,-36.19,22.13,339.14,-88.06,-151.45
52.570557,-1.522966,133.47,18.34,4,130.87,21 / 22,8030213,2019-11-06 18:20:10:675,-0.5297,-0.6198,10.4221,0.0148,0.0148,9.8066,0.0034,0.2634,-0.0684,-25.5,-36.25,22.25,328.66,-88.15,-161.63
52.570557,-1.522966,133.47,18.34,4,130.87,21 / 22,8030313,2019-11-06 18:20:10:775,0.7008,2.9284,9.1313,0.0036,0.0365,9.8066,-0.1192,0.2883,-0.1663,-25.37,-36.75,22.38,327.23,-88.1,-162.96
