GPS LATITUDE (degrees), GPS LONGITUDE (degrees), GPS ALTITUDE (m), GPS SPEED (Kmh), GPS ACCURACY (m), GPS ORIENTATION (Â°),GPS SATELLITES IN RANGE, TIME SINCE START (ms), DATE (YYYY-MO-DD HH-MI-SS_SSS), ACCELEROMETER X (m/s²) , ACCELEROMETER Y (m/s²), ACCELEROMETER Z (m/s²), GRAVITY X (m/s²), GRAVITY Y (m/s²), GRAVITY Z (m/s²), GYROSCOPE Yaw (rad/s), GYROSCOPE Pitch (rad/s), GYROSCOPE Roll (rad/s), MAGNETIC FIELD X (Î¼T), MAGNETIC FIELD Y (Î¼T), MAGNETIC FIELD Z (Î¼T), ORIENTATION (Yaw) (Â°), ORIENTATION (Pitch) (Â°), ORIENTATION (Roll ) (Â°)
53.17101,-1.672944,218.69,7.69,3,315.01,21 / 22,1417914,2019-11-06 16:29:58:376,-0.8048,-0.6071,10.199,-0.0307,0.0467,9.8064,-0.0419,-0.213,0.1726,2.44,-36.75,-2.56,85.4,-88.77,106.44
53.17101,-1.672944,218.69,7.69,3,315.01,21 / 22,1418014,2019-11-06 16:29:58:476,-3.5663,-3.6639,9.8093,0.0435,0.0208,9.8065,-0.0871,0.261,-0.0587,2.63,-36.94,-2.12,72.05,-88.85,117.06
53.17101,-1.672944,218.69,7.69,3,315.01,21 / 22,1418113,2019-11-06 16:29:58:575,0.2019,0.5775,8.8518,0.0126,-0.0803,9.8062,-0.0405,-0.6128,0.2989,2.69,-37,-2.94,47.46,-88.71,84.14
53.17101,-1.672944,218.69,7.69,3,315.01,21 / 22,1418213,2019-11-06 16:29:58:675,3.4142,2.6992,11.2309,0.0602,-0.0192,9.8064,0.0628,-0.1467,-0.0153,2.75,-36.12,-3.25,20.31,-88.88,62.02
53.17101,-1.672944,218.69,7.69,3,315.01,21 / 22,1418313,2019-11-06 16:29:58:775,1.5351,3.1396,9.9823,-0.0325,-0.0241,9.8065,0.243,-0.695,0.3245,3.19,-36.75,-3.44,26.09,-88.76,66.32
53.17101,-1.672944,218.69,7.69,3,315.01,21 / 22,1418413,2019-11-06 16:29:58:875,-0.4264,1.0487,9.0188,-0.0289,0.0037,9.8065,0.1311,-0.1937,0.174,3,-37.5,-2.81,59.98,-88.91,96.71
53.17101,-1.672944,218.69,7.69,3,315.01,21 / 22,1418514,2019-11-06 16:29:58:976,-4.9845,-1.959,9.1314,-0.0381,-0.0454,9.8064,0.0841,-0.7047,0.2544,2.19,-37.44,-3.25,98.12,-89.13,122.97
53.17101,-1.672944,218.69,7.69,3,315.01,21 / 22,1418614,2019-11-06 16:29:59:076,-4.5226,-0.8013,9.3346,-0.0258,-0.044,9.8065,-0.0327,-0.1792,0.2418,2.63,-37.69,-2.94,73.46,-89.07,110.41
53.17101,-1.672944,218.69,7.69,3,315.01,21 / 22,1418714,2019-11-06 16:29:59:176,-1.7085,-1.2065,9.8515,-0.0832,-0.0732,9.806,0.0088,-0.8218,0.3848,2.94,-37.44,-2.37,53.04,-88.65,98.16
53.17101,-1.672944,218.69,7.69,3,315.01,21 / 22,1418814,2019-11-06 16:29:59:276,6.494,4.1562,9.2515,-0.0373,-0.037,9.8064,0.1392,-0.5534,0.3346,2.81,-37.31,-2.75,65.13,-88.67,99.52
53.17101,-1.672944,218.69,7.69,3,315.01,20 / 22,1418915,2019-11-06 16:29:59:377,0.6245,0.8645,10.2323,-0.0577,-0.085,9.8061,0.1386,-0.4146,0.2167,2.75,-36.94,-3.06,77.01,-88.8,111.78
53.17101,-1.672944,218.69,7.69,3,315.01,20 / 22,1419013,2019-11-06 16:29:59:475,0.2247,1.3538,10.5274,-0.0226,-0.0223,9.8065,0.0377,-0.1899,0.0691,3.06,-36.56,-2.87,72.75,-88.21,102.66
53.17101,-1.672944,218.69,7.69,3,315.01,20 / 22,1419114,2019-11-06 16:29:59:576,-0.337,-1.7356,9.34,-0.0165,-0.0202,9.8066,0.154,-0.2389,0.0996,2.88,-37.25,-2.87,69.4,-88.18,99.34
53.17101,-1.672944,218.69,7.69,3,315.01,20 / 22,1419214,2019-11-06 16:29:59:676,-3.0364,-1.9186,9.6434,-0.0349,0.0369,9.8065,-0.1066,0.0045,0.1124,3.81,-36.56,-3.25,64.96,-87.83,103.37
53.17101,-1.672944,218.69,7.69,3,315.01,20 / 22,1419314,2019-11-06 16:29:59:776,-5.4179,-2.8395,10.1928,-0.1203,-0.0583,9.8057,-0.1537,-0.881,0.5673,3.06,-37.37,-3.62,88.57,-87.31,105.07
53.17101,-1.672944,218.69,7.69,3,315.01,20 / 22,1419414,2019-11-06 16:29:59:876,4.3404,3.6657,8.5037,-0.0331,-0.0199,9.8066,-0.0279,-0.594,0.4273,3.63,-36.69,-2.87,63.44,-87.89,102.45
53.17101,-1.672944,218.69,7.69,3,315.01,20 / 22,1419513,2019-11-06 16:29:59:975,-4.7828,-4.2371,8.7214,-0.0445,-0.0685,9.8063,-0.1379,-0.214,0.135,3.13,-36.81,-2.81,65.76,-88.59,99.48
53.17101,-1.672944,218.69,7.69,3,315.01,20 / 22,1419614,2019-11-06 16:30:00:076,5.0379,4.347,11.2789,-0.0641,-0.1061,9.8058,0.0612,-0.934,0.4963,3.31,-36.75,-2.87,48.39,-88.21,81.61
53.17101,-1.672944,218.69,7.69,3,315.01,20 / 22,1419714,2019-11-06 16:30:00:176,-0.968,-2.5193,9.843,-0.0069,-0.0061,9.8066,-0.0353,0.3426,0.0668,3.13,-37.37,-3.5,34.63,-88.75,73.42
53.17101,-1.672944,218.69,7.69,3,315.01,20 / 22,1419814,2019-11-06 16:30:00:276,4.5231,3.6704,9.4846,-0.014,-0.019,9.8066,0.185,-0.2329,-0.0519,3.19,-37.06,-3.19,46.51,-89.07,85.61
53.17101,-1.672944,218.69,7.69,3,315.01,21 / 22,1419914,2019-11-06 16:30:00:376,-2.8267,1.0108,9.5356,0.0754,0.0718,9.8061,0.075,0.5126,-0.373,3.25,-36.94,-1.62,57.83,-88.71,102.86
53.17101,-1.672944,218.69,7.69,3,315.01,21 / 22,1420013,2019-11-06 16:30:00:475,-2.825,-2.9332,10.1833,-0.0384,-0.0056,9.8065,-0.1883,-0.021,0.1822,2.81,-37,-2.31,64.58,-89.13,112.84
53.17101,-1.672944,218.69,7.69,3,315.01,21 / 22,1420113,2019-11-06 16:30:00:575,5.2035,2.4351,9.8053,0.002,0.039,9.8065,-0.3044,0.4339,0.0366,2.63,-37.37,-2.5,9.01,-89.65,64.76
53.17101,-1.672944,218.69,7.69,3,315.01,21 / 22,1420214,2019-11-06 16:30:00:676,-1.4471,-3.958,9.8066,0.0433,0.094,9.806,-0.0009,0.5509,-0.2234,2.94,-37.37,-2.5,297.54,-89.66,-3.06
53.17101,-1.672944,218.69,7.69,3,315.01,21 / 22,1420314,2019-11-06 16:30:00:776,-1.3218,-0.3461,10.4497,-0.0444,0.019,9.8065,0.0272,-0.3447,0.0875,2.94,-36.69,-2.25,102.29,-89.64,154.97
53.17101,-1.672944,218.69,7.69,3,315.01,21 / 22,1420414,2019-11-06 16:30:00:876,-1.2403,0.6953,9.9957,0.0363,0.0245,9.8065,0.1051,-0.3665,0.3361,2.31,-37.19,-2.31,145.6,-89.58,-172.52
53.17101,-1.672944,218.69,7.69,3,315.01,21 / 22,1420514,2019-11-06 16:30:00:976,-0.0909,-0.2784,11.5781,-0.0306,0.0024,9.8066,-0.1693,0.0951,-0.0263,2.5,-37.19,-1.69,176.14,-89.4,-127.96
53.17101,-1.672944,218.69,7.69,3,315.01,21 / 22,1420614,2019-11-06 16:30:01:076,0.5439,1.7819,8.3337,-0.0165,-0.0418,9.8065,-0.0313,-0.1908,0.0848,2,-37.31,-2.56,198.14,-89.73,-127.32
53.17101,-1.672944,218.69,7.69,3,315.01,21 / 22,1420714,2019-11-06 16:30:01:176,0.0612,-0.954,12.292,0.0566,-0.0787,9.8061,0.119,0.2327,0.084,2.69,-37.44,-2.69,296.7,-89.82,-16.87
53.17101,-1.672944,218.69,7.69,3,315.01,21 / 22,1420814,2019-11-06 16:30:01:276,-2.4274,-1.6757,10.1472,0.0176,0.043,9.8065,-0.0778,0.3958,-0.2871,2.38,-37.19,-2.75,294.76,-89.27,-24.75
53.17101,-1.672944,218.69,7.69,3,315.01,21 / 22,1420914,2019-11-06 16:30:01:376,0.1856,-2.4239,9.8816,-0.0114,0.0049,9.8066,0.1059,-0.3047,0.0666,2.81,-37.06,-2.69,293.4,-89.21,-15.26
53.17101,-1.672944,218.69,7.69,3,315.01,21 / 22,1421014,2019-11-06 16:30:01:476,-0.8904,1.3598,9.8352,0.0084,0.0158,9.8066,0.2995,-0.218,0.1224,1.81,-37.56,-1.69,268.83,-89.53,-39.88
53.17101,-1.672944,218.69,7.69,3,315.01,21 / 22,1421114,2019-11-06 16:30:01:576,-2.3123,-0.6908,10.1491,-0.0065,-0.009,9.8066,0.1207,0.1215,-0.2154,2.38,-37.62,-1.62,187.95,-89.33,-125.81
53.17101,-1.672944,218.69,7.69,3,315.01,21 / 22,1421214,2019-11-06 16:30:01:676,-0.6686,0.281,9.8171,0.0324,-0.0231,9.8066,-0.1177,-0.1714,0.1133,2.75,-37.37,-2.44,165.93,-89.54,-138.9
53.17101,-1.672944,218.69,7.69,3,315.01,21 / 22,1421313,2019-11-06 16:30:01:775,0.9109,0.4031,8.2634,0.0622,-0.0111,9.8064,-0.3117,-0.1404,-0.0506,2.81,-37.31,-2.5,255.23,-89.02,-38.65
53.17101,-1.672944,218.69,7.69,3,315.01,21 / 22,1421414,2019-11-06 16:30:01:876,-3.6229,-2.2648,8.7787,0.0398,0.0136,9.8065,-0.0853,-0.2917,-0.0116,2.13,-37.31,-3.19,262.15,-88.69,-50.69
53.17101,-1.672944,218.69,7.69,3,315.01,21 / 22,1421514,2019-11-06 16:30:01:976,0.9967,1.098,8.7455,-0.0038,-0.0231,9.8065,0.2165,-0.1936,-0.0494,2.06,-36.87,-2.87,252.69,-88.42,-57.94
53.17101,-1.672944,218.69,7.69,3,315.01,21 / 22,1421614,2019-11-06 16:30:02:076,-3.6811,-2.4112,10.1354,0.0371,0.0712,9.8062,-0.0148,0.3425,-0.1817,1.56,-37.06,-3.31,246.55,-88.66,-67.06
53.17101,-1.672944,218.69,7.69,3,315.01,21 / 22,1421713,2019-11-06 16:30:02:175,0.1397,1.019,10.3552,-0.0104,-0.04,9.8065,0.0511,-0.632,0.485,1.5,-37.31,-2.5,230.67,-88.67,-70.75
53.17101,-1.672944,218.69,7.69,3,315.01,21 / 22,1421814,2019-11-06 16:30:02:276,4.2271,7.119,10.9293,0.016,0.0583,9.8064,-0.0978,-0.3028,0.0545,1.75,-37.44,-2.44,226.63,-88.19,-70.85
53.17101,-1.672944,218.69,7.69,3,315.01,21 / 22,1421914,2019-11-06 16:30:02:376,2.1678,2.1785,9.6408,-0.0415,-0.1233,9.8057,-0.1216,-0.6987,0.4393,1.94,-37.56,-2.75,271.5,-88.31,-36.7
53.17101,-1.672944,218.69,7.69,3,315.01,21 / 22,1422013,2019-11-06 16:30:02:475,0.776,1.958,10.1088,0.0226,-0.063,9.8064,0.084,-0.4734,0.1296,1.88,-37.19,-2.87,269.16,-87.86,-34.6
53.17101,-1.672944,218.69,7.69,3,315.01,21 / 22,1422114,2019-11-06 16:30:02:576,-1.2065,-6.5923,8.7404,-0.0051,-0.1244,9.8058,0.1483,-0.7029,0.3271,2.25,-37.56,-2.31,248.83,-87.88,-38.62
53.17101,-1.672944,218.69,7.69,3,315.01,21 / 22,1422214,2019-11-06 16:30:02:676,4.772,3.4967,11.6281,-0.0532,-0.095,9.806,0.2193,-0.9959,0.2084,1.94,-36.75,-2.94,294.88,-88.28,-15.2
53.17101,-1.672944,218.69,7.69,3,315.01,21 / 22,1422313,2019-11-06 16:30:02:775,-4.9968,-4.0252,9.7802,-0.0506,-0.0202,9.8064,0.2012,0.0352,-0.0544,2.25,-38,-3.19,314.1,-88.76,-2.75
53.17101,-1.672944,218.69,7.69,3,315.01,21 / 22,1422414,2019-11-06 16:30:02:876,-1.2199,0.3792,8.5251,-0.0867,-0.0587,9.8061,0.039,-1.0123,0.3062,2.63,-37.5,-2.75,352.52,-89.21,38.41
53.17101,-1.672944,218.69,7.69,3,315.01,21 / 22,1422514,2019-11-06 16:30:02:976,-6.5851,-8.4753,8.7524,0.0196,0.0745,9.8063,-0.2702,0.8363,-0.3884,3.06,-37.5,-2.19,293.9,-89.71,-7.07
53.17101,-1.672944,218.69,7.69,3,315.01,21 / 22,1422613,2019-11-06 16:30:03:075,4.019,5.0613,10.1647,0.0144,-0.1069,9.806,-0.0593,-0.6506,0.2965,2.56,-37.44,-2.87,313.94,-89.05,4.89
53.17101,-1.672944,218.69,7.69,3,315.01,21 / 22,1422713,2019-11-06 16:30:03:175,5.4279,3.7344,9.9322,0.0585,0.0938,9.806,-0.1024,0.8435,-0.4768,2.56,-37.56,-2.75,311.57,-88.64,5.73
53.17101,-1.672944,218.69,7.69,3,315.01,21 / 22,1422814,2019-11-06 16:30:03:276,7.8116,3.4448,11.0233,-0.0265,-0.0676,9.8063,0.1326,-0.3544,0.1234,1.25,-37.5,-2.75,327.59,-88.53,-4.74
53.17101,-1.672944,218.69,7.69,3,315.01,21 / 22,1422914,2019-11-06 16:30:03:376,0.4471,1.5657,10.3272,0.0496,0.0924,9.8061,-0.0289,0.8372,-0.3658,2.19,-37.37,-3.12,315.44,-88.81,-2.25
53.17101,-1.672944,218.69,7.69,3,315.01,21 / 22,1423014,2019-11-06 16:30:03:476,-2.9395,-5.1361,9.8054,0.0011,0.015,9.8066,0.0412,0.6077,-0.3621,2.06,-37.5,-2.69,289.9,-89.07,-27.35
53.17101,-1.672944,218.69,7.69,3,315.01,21 / 22,1423113,2019-11-06 16:30:03:575,2.1045,1.9612,10.6075,0.027,0.0997,9.8061,0.0412,0.7042,-0.2717,3,-37.56,-2.69,273.72,-89.52,-36.97
53.17101,-1.672944,218.69,7.69,3,315.01,21 / 22,1423213,2019-11-06 16:30:03:675,-1.6366,-7.0439,9.5005,0.1559,0.1197,9.8047,-0.0308,0.9513,-0.5239,1.75,-37.44,-2.37,261.36,-89.35,-45.18
53.17101,-1.672944,218.69,7.69,3,315.01,21 / 22,1423313,2019-11-06 16:30:03:775,2.3562,2.7394,10.4597,0.0097,0.0445,9.8065,-0.0986,-0.0892,0.1639,1.81,-38,-2.62,313.95,-89.35,-7.4
53.17101,-1.672944,218.69,7.69,3,315.01,21 / 22,1423414,2019-11-06 16:30:03:876,-8.2985,-8.2901,8.5414,0.1245,0.0938,9.8053,-0.1602,1.0707,-0.5249,2.13,-37.5,-3.75,289.8,-88.89,-34.93
53.17101,-1.672944,218.69,7.69,3,315.01,21 / 22,1423514,2019-11-06 16:30:03:976,5.2464,3.7302,10.955,-0.0213,-0.0221,9.8065,0.0564,-0.798,0.3013,1.75,-37.75,-3.25,291.28,-88.86,-23.75
53.17101,-1.672944,218.69,7.69,3,315.01,21 / 22,1423614,2019-11-06 16:30:04:076,6.5837,3.5753,10.5037,0.0472,0.0512,9.8064,-0.0242,0.0407,0.0414,2.13,-37.44,-3.25,291.15,-88.9,-24.56
53.17101,-1.672944,218.69,7.69,3,315.01,21 / 22,1423714,2019-11-06 16:30:04:176,4.054,0.4997,10.3802,-0.0897,-0.0853,9.8058,0.0997,-0.8749,0.3873,1.56,-37.06,-2.94,345.34,-89.2,21.11
53.17101,-1.672944,218.69,7.69,3,315.01,21 / 22,1423813,2019-11-06 16:30:04:275,3.26,1.6465,10.3971,-0.0109,-0.0078,9.8066,0.1374,-0.4962,0.2331,2.19,-37.31,-2.44,311.15,-89.42,1.9
53.17101,-1.672944,218.69,7.69,3,315.01,21 / 22,1423913,2019-11-06 16:30:04:375,-2.6902,-4.5246,9.7299,-0.049,-0.0538,9.8064,0.0175,-0.6898,0.2959,1.56,-37.5,-3.25,286.69,-89.54,-35.05
53.17101,-1.672944,218.69,7.69,3,315.01,21 / 22,1424014,2019-11-06 16:30:04:476,1.1949,1.0393,10.8999,-0.0383,-0.0572,9.8064,0.0409,-0.6134,0.2298,1.94,-37.5,-3.44,334.9,-89.43,11.09
53.17101,-1.672944,218.69,7.69,3,315.01,21 / 22,1424113,2019-11-06 16:30:04:575,-2.485,-2.5619,10.1016,-0.0406,-0.0373,9.8065,0.0596,-0.1968,0.0696,2.25,-37.19,-3.75,329.28,-89.3,-1.2
53.17101,-1.672944,218.69,7.69,3,315.01,21 / 22,1424214,2019-11-06 16:30:04:676,2.9542,-0.5668,9.9635,-0.068,-0.0412,9.8062,0.0822,-0.4227,0.273,1.56,-37.62,-3.56,2.5,-89.29,28.8
53.17101,-1.672944,218.69,7.69,3,315.01,21 / 22,1424314,2019-11-06 16:30:04:776,0.8988,-0.2993,8.7572,-0.0104,-0.003,9.8066,0.1021,-0.0017,-0.008,2,-37.62,-2.81,330.96,-89.72,6.09
53.17101,-1.672944,218.69,7.69,3,315.01,21 / 22,1424414,2019-11-06 16:30:04:876,1.1881,0.2679,9.8871,0.0072,-0.0052,9.8066,0.0438,-0.1846,-0.0012,1.44,-37.75,-3.5,354.32,-89.82,12.97
53.17101,-1.672944,218.69,7.69,3,315.01,21 / 22,1424513,2019-11-06 16:30:04:975,-0.8922,-1.8211,9.3361,-0.0237,-0.0499,9.8065,-0.0087,0.1589,-0.1041,2.5,-37.69,-3.62,14.07,-89.68,50.34
53.17101,-1.672944,218.69,7.69,3,315.01,21 / 22,1424614,2019-11-06 16:30:05:076,-0.7065,0.635,10.3467,0.027,0.0084,9.8066,-0.011,-0.0791,-0.0683,2.69,-37.81,-3,7.68,-89.32,51.86
53.17101,-1.672944,218.69,7.69,3,315.01,21 / 22,1424714,2019-11-06 16:30:05:176,-1.2232,-3.266,10.5955,0.0148,0.0064,9.8066,0.1479,0.2911,-0.2183,3.13,-37.25,-1.87,359.17,-89.06,55.62
53.17101,-1.672944,218.69,7.69,3,315.01,21 / 22,1424814,2019-11-06 16:30:05:276,1.9576,-0.1561,9.4881,0.0013,-0.0026,9.8066,-0.0055,0.0024,-0.1422,2.94,-35.81,2.88,286.13,-89.05,68.87
53.17101,-1.672944,218.69,7.69,3,315.01,21 / 22,1424914,2019-11-06 16:30:05:376,0.4089,-1.3945,11.7294,-0.0154,-0.0545,9.8064,-0.093,-0.2267,0.0945,-11.06,-41.19,23.06,250.2,-89.28,96.86
53.17101,-1.672944,218.69,7.69,3,315.01,21 / 22,1425014,2019-11-06 16:30:05:476,-1.0352,0.7714,9.5978,0.0288,0.0511,9.8064,-0.0439,-0.0509,0.0835,-7.19,-39.87,-1.81,164.12,-89.31,89.03
53.17101,-1.672944,218.69,7.69,3,315.01,21 / 22,1425113,2019-11-06 16:30:05:575,-2.942,-2.2865,9.2887,-0.0048,0.0147,9.8066,-0.0236,-0.0518,-0.1317,-0.5,-38.56,-4.37,98.33,-89.14,90
53.17101,-1.672944,218.69,7.69,3,315.01,21 / 22,1425213,2019-11-06 16:30:05:675,4.0568,-4.2424,10.9518,-0.0307,0.0024,9.8066,0.0245,-0.5332,0.4398,0.13,-38.5,-5.12,104.39,-89.03,97.2
53.17101,-1.672944,218.69,7.69,3,315.01,21 / 22,1425313,2019-11-06 16:30:05:775,-3.8937,-0.8919,9.5964,-0.0219,-0.0142,9.8066,-0.0707,-0.0716,0.0718,0.25,-38.56,-4.75,103.06,-89.59,99.91
53.17101,-1.672944,218.69,7.69,3,315.01,21 / 22,1425414,2019-11-06 16:30:05:876,5.1499,-3.233,10.7145,-0.0973,-0.0282,9.8061,0.0382,-0.6811,0.3599,-1.81,-39.12,-4.62,95.65,-89.37,69.33
53.17101,-1.672944,218.69,7.69,3,315.01,21 / 22,1425514,2019-11-06 16:30:05:976,-1.7091,-1.1649,10.0412,0.0035,-0.0163,9.8065,-0.0129,0.4274,-0.2126,-15.62,-42.31,14.94,194.25,-89.51,61.33
53.17101,-1.672944,218.69,7.69,3,315.01,21 / 22,1425614,2019-11-06 16:30:06:076,-3.3951,3.4662,10.1158,0.0377,0.0244,9.8065,-0.0159,-0.1563,0.1718,1.81,-35.37,13.56,254.48,-89.37,67.85
53.17101,-1.672944,218.69,7.69,3,315.01,21 / 22,1425714,2019-11-06 16:30:06:176,1.1086,-1.7322,9.9165,-0.0159,0.0079,9.8066,-0.0624,0.1743,-0.1516,2.38,-36.44,1.19,281.17,-89.53,45.15
53.17101,-1.672944,218.69,7.69,3,315.01,21 / 22,1425813,2019-11-06 16:30:06:275,0.2473,0.0344,8.9041,-0.0337,-0.0048,9.8066,-0.0161,-0.2976,0.1893,1.44,-37.5,-2.87,43.89,-89.63,59.28
53.17101,-1.672944,218.69,7.69,3,315.01,21 / 22,1425913,2019-11-06 16:30:06:375,-0.7343,-3.3772,8.9811,-0.0143,0.0139,9.8065,-0.1338,0.1629,-0.0187,1.56,-37.87,-3.44,333.56,-89.69,8.7
53.17101,-1.672944,218.69,7.69,3,315.01,21 / 22,1426013,2019-11-06 16:30:06:475,1.5365,-0.8887,9.8118,-0.027,-0.0493,9.8065,0.0681,-0.1914,0.0602,1.56,-38.12,-3,341.33,-89.54,16.59
53.17101,-1.672944,218.69,7.69,3,315.01,21 / 22,1426113,2019-11-06 16:30:06:575,5.5112,0.6055,9.9046,0.0083,-0.033,9.8065,-0.129,0.7735,-0.3708,2.75,-37.31,-3.19,330.05,-89.45,17.46
53.17101,-1.672944,218.69,7.69,3,315.01,21 / 22,1426213,2019-11-06 16:30:06:675,-2.2844,-3.096,11.7298,0.0176,-0.0112,9.8066,-0.0101,0.6111,-0.4504,2.75,-37.06,-3.69,13.49,-88.85,48.37
53.17101,-1.672944,218.69,7.69,3,315.01,21 / 22,1426313,2019-11-06 16:30:06:775,5.3862,-0.194,11.2831,0.1188,0.062,9.8057,0.0929,0.6,-0.0664,1.69,-37.37,-3.37,33.89,-88.63,59.71
53.17101,-1.672944,218.69,7.69,3,315.01,21 / 22,1426414,2019-11-06 16:30:06:876,-2.4518,-4.2473,8.7835,0.095,0.0799,9.8058,-0.0986,0.5599,-0.2367,1.94,-37.31,-3.19,317.51,-89.33,-4.17
53.17101,-1.672944,218.69,7.69,3,315.01,21 / 22,1426514,2019-11-06 16:30:06:976,4.1635,4.4728,10.9232,-0.0284,0.0327,9.8065,0.0187,0.1351,0.0476,1.31,-37.56,-2.87,316.81,-89.41,-19.89
53.17101,-1.672944,218.69,7.69,3,315.01,21 / 22,1426614,2019-11-06 16:30:07:076,-3.4476,-1.9884,8.4078,0.0174,0.0612,9.8064,-0.1944,0.412,-0.2503,1.75,-37.75,-3.06,338.69,-89.62,13.85
53.17101,-1.672944,218.69,7.69,3,315.01,21 / 22,1426714,2019-11-06 16:30:07:176,-1.2626,-1.6939,10.4338,0.0197,-0.0128,9.8065,-0.0072,-0.1961,0.2135,2.19,-37.69,-2.44,327.35,-89.11,18.79
53.17101,-1.672944,218.69,7.69,3,315.01,21 / 22,1426814,2019-11-06 16:30:07:276,-3.5536,-4.2651,10.2587,0.1125,0.0971,9.8055,-0.0646,0.5595,-0.207,2.06,-37.75,-3.12,288.33,-88.91,-26.99
53.17146,-1.673719,217.96,5.23,3,318.04,20 / 22,1426914,2019-11-06 16:30:07:376,5.7957,0.6461,10.555,-0.0338,-0.0104,9.8066,0.1256,-0.5517,0.2799,1.38,-37.75,-2.62,292.32,-88.77,-35.49
53.17146,-1.673719,217.96,5.23,3,318.04,20 / 22,1427014,2019-11-06 16:30:07:476,-0.5113,2.3516,9.4115,-0.0313,0.0671,9.8063,0.1297,0.3929,-0.2644,2.25,-37.87,-2.37,252.44,-89.45,-55.45
53.17146,-1.673719,217.96,5.23,3,318.04,20 / 22,1427114,2019-11-06 16:30:07:576,4.5783,3.175,9.0673,-0.0216,-0.0285,9.8065,0.1101,-0.8621,0.4002,1.63,-37.25,-2.19,181.88,-89.81,-133.03
53.17146,-1.673719,217.96,5.23,3,318.04,20 / 22,1427214,2019-11-06 16:30:07:676,3.0078,0.6496,9.5072,0.0213,0.0027,9.8066,-0.0229,-0.3207,0.2018,1.75,-37.62,-2.12,204.73,-89.47,-107.29
53.17146,-1.673719,217.96,5.23,3,318.04,20 / 22,1427314,2019-11-06 16:30:07:776,-2.7538,-4.2907,9.7021,-0.0191,-0.0858,9.8062,0.0111,-0.8327,0.348,1.56,-37.94,-2.62,232.91,-89.14,-86.12
53.17146,-1.673719,217.96,5.23,3,318.04,20 / 22,1427414,2019-11-06 16:30:07:876,1.5587,-2.5461,10.1297,0.0052,-0.0975,9.8061,-0.0308,-0.356,0.0365,1.94,-37.56,-2.44,275.76,-89.15,-27.84
53.17146,-1.673719,217.96,5.23,3,318.04,20 / 22,1427514,2019-11-06 16:30:07:976,0.1684,-4.9887,10.4536,-0.0147,-0.1283,9.8058,0.1707,-0.4433,0.0334,2.63,-37.25,-2.37,305,-88.98,9.94
53.17146,-1.673719,217.96,5.23,3,318.04,20 / 22,1427613,2019-11-06 16:30:08:075,2.1629,1.765,9.4259,-0.0807,-0.0356,9.8062,0.0692,-0.4895,0.2508,3,-37.5,-3.25,10.44,-88.43,52.95
53.17146,-1.673719,217.96,5.23,3,318.04,20 / 22,1427713,2019-11-06 16:30:08:175,0.1046,-0.3901,8.9917,-0.0663,-0.0052,9.8063,0.0331,-0.0735,0.0401,2.63,-37.25,-3.19,37.64,-88.41,74.15
53.17146,-1.673719,217.96,5.23,3,318.04,20 / 22,1427813,2019-11-06 16:30:08:275,2.1166,0.303,9.4407,-0.0274,-0.0149,9.8066,0.0145,-0.403,0.4125,2.69,-37,-2.87,42.83,-88.28,77.56
53.17146,-1.673719,217.96,5.23,3,318.04,20 / 22,1427913,2019-11-06 16:30:08:375,-2.6575,-2.4828,10.6067,-0.0098,0.021,9.8066,-0.1738,-0.1925,0.441,1.63,-37.12,-3.31,32.69,-89.35,62.75
53.17146,-1.673719,217.96,5.23,3,318.04,20 / 22,1428013,2019-11-06 16:30:08:475,1.7291,2.8414,11.7615,0.0645,-0.0252,9.8063,0.1385,-0.1896,0.0165,1.75,-37.81,-2.69,292.74,-89.45,-28.19
53.17146,-1.673719,217.96,5.23,3,318.04,20 / 22,1428113,2019-11-06 16:30:08:575,0.2061,-2.0198,10.5034,0.0418,0.0148,9.8065,0.0117,0.3544,-0.2855,2.25,-37.75,-3,259.98,-89.07,-56.59
53.17146,-1.673719,217.96,5.23,3,318.04,20 / 22,1428213,2019-11-06 16:30:08:675,1.9483,-0.3678,10.0675,-0.0183,-0.0718,9.8063,0.0743,-0.1927,0.004,2,-37.94,-2.94,308.97,-89.31,-11.68
53.17146,-1.673719,217.96,5.23,3,318.04,20 / 22,1428314,2019-11-06 16:30:08:776,0.5951,-1.8153,10.7872,-0.0157,0.0049,9.8066,-0.1066,0.1761,-0.024,2.13,-38.31,-2.94,322.96,-89.5,-0.2
53.17146,-1.673719,217.96,5.23,3,318.04,20 / 22,1428414,2019-11-06 16:30:08:876,-3.1421,-1.8702,9.6287,-0.025,-0.0227,9.8065,0.0624,0.251,-0.044,1.81,-37.56,-3.06,350.54,-89.44,25.2
53.17146,-1.673719,217.96,5.23,3,318.04,20 / 22,1428514,2019-11-06 16:30:08:976,3.2437,0.8129,10.2354,0.0507,0.0496,9.8063,0.0896,0.1375,0.1034,1.13,-38,-1.94,337.64,-89.63,6.63
53.17146,-1.673719,217.96,5.23,3,318.04,20 / 22,1428614,2019-11-06 16:30:09:076,-1.659,-2.4221,9.1114,0.059,0.0706,9.8062,0.0063,0.2677,-0.1171,1.81,-37.69,-2.19,226.53,-89.19,-80.54
53.17146,-1.673719,217.96,5.23,3,318.04,20 / 22,1428714,2019-11-06 16:30:09:176,0.3331,1.1575,10.5065,0.0261,-0.0018,9.8065,0.0989,0.1219,-0.0193,1.13,-38.19,-2,231.72,-88.82,-85.79
53.17146,-1.673719,217.96,5.23,3,318.04,20 / 22,1428813,2019-11-06 16:30:09:275,-0.9043,-2.3525,10.2833,0.0208,0.0602,9.8064,-0.0677,0.2593,-0.0372,1.13,-38.12,-3,235.8,-88.67,-92.44
53.17146,-1.673719,217.96,5.23,3,318.04,20 / 22,1428913,2019-11-06 16:30:09:375,1.6433,-0.2678,10.9667,-0.0123,0.0114,9.8065,-0.0294,-0.1557,0.124,0.13,-38.31,-1.87,243.67,-88.54,-90.57
53.17146,-1.673719,217.96,5.23,3,318.04,20 / 22,1429013,2019-11-06 16:30:09:475,2.1085,0.1451,10.671,0.0039,0.0476,9.8065,0.032,0.1873,-0.0533,0.88,-38,-1.37,201.92,-88.32,-95.96
53.17146,-1.673719,217.96,5.23,3,318.04,20 / 22,1429114,2019-11-06 16:30:09:576,0.757,0.8009,10.0758,-0.0271,-0.0126,9.8066,0.0695,0.1066,-0.0558,0.88,-37.94,-1.37,196.23,-88.35,-106.3
53.17146,-1.673719,217.96,5.23,3,318.04,20 / 22,1429214,2019-11-06 16:30:09:676,-1.3829,-1.1654,10.1277,-0.0203,0.0196,9.8066,0.1316,0.261,-0.1784,2.06,-38,-0.69,172.13,-88.54,-127.84
53.17146,-1.673719,217.96,5.23,3,318.04,20 / 22,1429314,2019-11-06 16:30:09:776,1.9662,0.786,8.413,-0.0204,-0.0032,9.8066,0.1214,0.3121,-0.1662,2,-38,-0.06,136.78,-88.41,-154.39
53.17146,-1.673719,217.96,5.23,3,318.04,20 / 22,1429414,2019-11-06 16:30:09:876,0.2726,-3.7778,8.0021,-0.0378,-0.0021,9.8065,-0.1775,0.5547,-0.2953,1.81,-38.12,0.5,100.44,-88.26,-173.45
53.17146,-1.673719,217.96,5.23,3,318.04,20 / 22,1429514,2019-11-06 16:30:09:976,1.5487,2.0883,10.0738,-0.0404,0.0235,9.8065,-0.0421,0.2253,0.0291,2.25,-37.81,0.56,89.48,-88.43,178.21
53.17146,-1.673719,217.96,5.23,3,318.04,20 / 22,1429614,2019-11-06 16:30:10:076,-0.8901,-4.5094,9.6347,-0.0115,0.0411,9.8065,0.0624,0.5948,-0.2345,1.94,-38.44,1,101.9,-88.09,-175.29
53.17146,-1.673719,217.96,5.23,3,318.04,20 / 22,1429714,2019-11-06 16:30:10:176,-0.4835,1.5954,10.1145,-0.0087,0.1087,9.806,-0.0164,0.3147,-0.0036,2.25,-37.87,1.31,106.07,-88,-172.08
53.17146,-1.673719,217.96,5.23,3,318.04,20 / 22,1429813,2019-11-06 16:30:10:275,0.7196,-2.8326,9.5021,0.0226,0.0756,9.8063,-0.1298,0.5676,-0.0898,2.63,-37.87,1.5,113.48,-87.65,-146.21
53.17146,-1.673719,217.96,5.23,3,318.04,22 / 22,1429913,2019-11-06 16:30:10:375,-0.9171,1.5417,10.727,-0.0237,0.0352,9.8065,-0.046,0.3506,-0.0315,2,-38.62,1.63,120.43,-87.51,-135.69
53.17146,-1.673719,217.96,5.23,3,318.04,22 / 22,1430014,2019-11-06 16:30:10:476,0.5666,1.1719,10.2544,0.0185,0.0164,9.8066,0.0239,0.4332,-0.2578,2.56,-38.25,1.94,122.06,-87.69,-135.36
53.17146,-1.673719,217.96,5.23,3,318.04,22 / 22,1430114,2019-11-06 16:30:10:576,-0.2024,1.8715,10.1148,0.0288,-0.0218,9.8066,0.0018,0.4639,-0.3114,2.81,-38.37,1.5,104.97,-88.33,-148.57
53.17146,-1.673719,217.96,5.23,3,318.04,22 / 22,1430214,2019-11-06 16:30:10:676,1.2542,-3.2162,9.323,0.02,-0.0411,9.8065,-0.0509,0.4077,-0.3064,3.81,-37.81,1.63,62.8,-88.84,170.52
53.17146,-1.673719,217.96,5.23,3,318.04,22 / 22,1430314,2019-11-06 16:30:10:776,2.7701,-1.9519,9.2143,0.0148,0.0121,9.8066,-0.0863,0.6637,-0.2509,4.75,-37.75,2,20.52,-88.62,128.89
53.17146,-1.673719,217.96,5.23,3,318.04,22 / 22,1430413,2019-11-06 16:30:10:875,0.0866,-6.6416,8.773,0.0341,0.0328,9.8064,-0.0884,0.7386,-0.3691,5.31,-37.06,1.38,7.24,-88.57,107.24
53.17146,-1.673719,217.96,5.23,3,318.04,22 / 22,1430514,2019-11-06 16:30:10:976,-0.5402,0.8184,9.0193,-0.0186,0.0538,9.8065,0.093,0.382,-0.0726,5.44,-36.69,2.13,344.89,-88.6,99.22
53.17146,-1.673719,217.96,5.23,3,318.04,22 / 22,1430614,2019-11-06 16:30:11:076,0.9149,-3.1508,8.8639,-0.0659,0.0379,9.8064,-0.0877,0.6825,-0.183,5.44,-36.94,2.88,350.09,-88.72,112.45
53.17146,-1.673719,217.96,5.23,3,318.04,22 / 22,1430714,2019-11-06 16:30:11:176,-3.3311,2.5315,9.7921,0.0071,0.0194,9.8066,-0.0954,0.2154,0.0518,6.06,-36.37,3,345.34,-88.84,103.47
53.17146,-1.673719,217.96,5.23,3,318.04,22 / 22,1430814,2019-11-06 16:30:11:276,-0.5119,-1.408,9.589,-0.0318,0.0545,9.8064,-0.0502,0.6934,-0.2474,5.69,-37.31,3.38,328.7,-89.01,88.11
53.17146,-1.673719,217.96,5.23,3,318.04,22 / 22,1430913,2019-11-06 16:30:11:375,-1.8887,2.0648,9.9884,0.0262,-0.0089,9.8065,-0.0634,-0.0174,0.195,5.19,-37,4.25,307.99,-88.82,82.04
53.17146,-1.673719,217.96,5.23,3,318.04,22 / 22,1431014,2019-11-06 16:30:11:476,1.6204,-3.2229,10.0312,-0.0499,0.0522,9.8063,-0.029,0.5394,-0.1,5.94,-37.37,3.75,299.67,-88.98,67.93
53.17146,-1.673719,217.96,5.23,3,318.04,22 / 22,1431113,2019-11-06 16:30:11:575,1.1988,-2.4115,9.6155,0.0278,0.0081,9.8065,0.0011,-0.0587,0.217,5.88,-36.75,3.81,283.62,-88.89,52.87
53.17146,-1.673719,217.96,5.23,3,318.04,22 / 22,1431214,2019-11-06 16:30:11:676,0.9968,-4.5808,9.7492,0.0068,0.0562,9.8064,0.018,0.3801,0.0344,6.06,-36.81,4.31,259.53,-88.84,29.07
53.17146,-1.673719,217.96,5.23,3,318.04,22 / 22,1431313,2019-11-06 16:30:11:775,-1.4509,-1.3414,9.4456,0.0938,-0.05,9.806,0.0346,-0.2547,0.2219,6.56,-36.44,4.88,258.54,-88.66,29.59
53.17146,-1.673719,217.96,5.23,3,318.04,22 / 22,1431414,2019-11-06 16:30:11:876,-3.5595,0.3184,9.7844,0.0171,-0.0025,9.8066,-0.0263,0.1389,-0.0391,6.88,-36.94,5.5,265.69,-87.94,44.58
53.17146,-1.673719,217.96,5.23,3,318.04,22 / 22,1431514,2019-11-06 16:30:11:976,-0.7265,1.9742,9.1746,0.0944,-0.0997,9.8057,-0.1066,-0.1228,0.1457,7.5,-36.56,5.69,277.3,-87.6,53.03
53.17146,-1.673719,217.96,5.23,3,318.04,22 / 22,1431614,2019-11-06 16:30:12:076,0.8122,-1.9861,10.985,0.0611,-0.0006,9.8064,0.2003,0.2623,-0.2017,8.31,-36.06,6.31,282.99,-86.39,62.67
53.17146,-1.673719,217.96,5.23,3,318.04,22 / 22,1431714,2019-11-06 16:30:12:176,2.5661,-3.8463,9.6071,0.0638,-0.0178,9.8063,0.1269,-0.3062,0.1621,9,-36.62,7.31,288.59,-85.52,70.46
53.17146,-1.673719,217.96,5.23,3,318.04,22 / 22,1431814,2019-11-06 16:30:12:276,-5.3021,1.1871,9.9587,-0.0055,-0.0488,9.8065,0.0164,-0.2174,0.4085,8.81,-36.12,6.88,293.55,-85.76,73.88
53.17146,-1.673719,217.96,5.23,3,318.04,22 / 22,1431914,2019-11-06 16:30:12:376,2.1985,-2.4297,7.8506,0.0307,-0.0926,9.8061,-0.1353,-0.0198,0.3146,8.69,-35.94,8.44,290.83,-86.31,72.89
53.17146,-1.673719,217.96,5.23,3,318.04,22 / 22,1432014,2019-11-06 16:30:12:476,-3.3882,0.9341,11.5492,0.0172,-0.0211,9.8066,0.3046,-0.2541,0.3787,8.63,-35.94,9.88,293.93,-86.46,80.69
53.17146,-1.673719,217.96,5.23,3,318.04,22 / 22,1432114,2019-11-06 16:30:12:576,-0.0126,0.9131,8.5782,-0.036,0.0552,9.8064,0.235,0.3374,-0.1308,8.25,-36.19,11.25,297.56,-87.36,87.77
53.17146,-1.673719,217.96,5.23,3,318.04,22 / 22,1432214,2019-11-06 16:30:12:676,0.2833,1.5384,9.3329,0.0155,-0.015,9.8066,0.1363,0.2215,0.1705,8.56,-36,11.56,306.14,-87.23,94.69
53.17146,-1.673719,217.96,5.23,3,318.04,22 / 22,1432314,2019-11-06 16:30:12:776,0.5347,-0.0032,10.8485,0.0149,-0.0003,9.8066,0.0535,0.3611,0.002,7.88,-36.69,12.5,306.22,-87.39,99.76
53.17146,-1.673719,217.96,5.23,3,318.04,22 / 22,1432414,2019-11-06 16:30:12:876,1.0047,-0.1874,9.0515,0.0093,-0.0033,9.8066,-0.04,0.2395,0.0237,8.06,-36.12,12.63,305.24,-87.22,99.03
53.17146,-1.673719,217.96,5.23,3,318.04,22 / 22,1432514,2019-11-06 16:30:12:976,1.4648,-2.0768,9.9886,0.0349,-0.0197,9.8065,0.0367,-0.0567,0.2072,7.69,-36.06,13.69,302.38,-87.28,97.79
53.17146,-1.673719,217.96,5.23,3,318.04,22 / 22,1432614,2019-11-06 16:30:13:076,0.7372,0.1424,9.07,0.0059,-0.0152,9.8065,-0.026,0.2885,-0.0998,8.25,-36.12,14.75,304.19,-87.14,101.18
53.17146,-1.673719,217.96,5.23,3,318.04,22 / 22,1432714,2019-11-06 16:30:13:176,3.7035,-2.9115,9.8827,0.0326,-0.0324,9.8065,-0.0138,0.1191,0.135,7.94,-36.12,14.44,304.37,-86.75,100.68
53.17146,-1.673719,217.96,5.23,3,318.04,22 / 22,1432814,2019-11-06 16:30:13:276,2.0392,-2.0373,9.6845,0.0102,-0.0147,9.8066,0.0167,0.0794,0.098,7.44,-36.56,15.81,301.28,-86.63,103.81
53.17146,-1.673719,217.96,5.23,3,318.04,22 / 22,1432914,2019-11-06 16:30:13:376,3.3441,-0.3829,9.2525,-0.0231,-0.0031,9.8066,-0.0164,0.4087,0.1962,6.81,-36.44,16.88,305.45,-86.79,108.24
53.17146,-1.673719,217.96,5.23,3,318.04,22 / 22,1433014,2019-11-06 16:30:13:476,0.6237,-0.0291,10.0044,-0.0763,0.0433,9.8062,0.0646,0.1703,0.1713,6.75,-36.94,18.06,314.45,-87.79,116.24
53.17146,-1.673719,217.96,5.23,3,318.04,22 / 22,1433113,2019-11-06 16:30:13:575,-0.7396,-1.839,10.0986,-0.0479,0.0707,9.8062,0.0423,0.403,-0.0078,5.88,-37.06,18.31,320.31,-88.87,123.29
53.17146,-1.673719,217.96,5.23,3,318.04,22 / 22,1433213,2019-11-06 16:30:13:675,-2.4223,1.0603,9.4242,0.0026,0.0156,9.8066,0.0039,0.198,-0.0679,5.56,-36.94,18.44,319.65,-88.91,122.6
53.17146,-1.673719,217.96,5.23,3,318.04,22 / 22,1433313,2019-11-06 16:30:13:775,1.1863,-3.3328,10.374,0.0072,-0.0101,9.8066,-0.0532,0.2968,-0.0398,5.25,-37.19,19.25,306.56,-88.39,114.27
53.17146,-1.673719,217.96,5.23,3,318.04,22 / 22,1433414,2019-11-06 16:30:13:876,3.6567,-2.4864,10.782,0.0259,0.0001,9.8065,-0.0769,0.4814,-0.062,5.69,-37.37,20.44,305.6,-88.33,111.32
53.17146,-1.673719,217.96,5.23,3,318.04,22 / 22,1433514,2019-11-06 16:30:13:976,0.2496,1.2728,9.63,0.0045,-0.016,9.8066,0.0374,0.0946,0.0589,5.38,-36.69,20.5,295.5,-88.17,104.94
53.17146,-1.673719,217.96,5.23,3,318.04,22 / 22,1433614,2019-11-06 16:30:14:076,-0.1695,-1.1942,10.3998,-0.0228,0.008,9.8066,0.0981,0.2729,-0.0356,5.81,-37.56,20.75,306.07,-88.15,112.75
53.17146,-1.673719,217.96,5.23,3,318.04,22 / 22,1433714,2019-11-06 16:30:14:176,-1.4183,-3.1842,10.1936,0.0126,-0.021,9.8066,0.1994,-0.0351,0.167,4.63,-36.62,22.06,313.83,-87.85,123.59
53.17146,-1.673719,217.96,5.23,3,318.04,22 / 22,1433814,2019-11-06 16:30:14:276,0.0372,-1.9419,9.743,0.0128,-0.0495,9.8065,-0.1274,0.1796,0.0083,5.13,-36.87,22.75,324.07,-87.64,134.01
53.17146,-1.673719,217.96,5.23,3,318.04,22 / 22,1433914,2019-11-06 16:30:14:376,3.4454,-3.4635,9.7933,0.0559,-0.036,9.8064,0.052,-0.0228,0.2288,4.94,-36.94,22.94,320.19,-87.66,130.31
53.17146,-1.673719,217.96,5.23,3,318.04,22 / 22,1434013,2019-11-06 16:30:14:475,1.7169,-1.2211,10.6282,-0.0025,0.0303,9.8066,0.0041,0.3359,-0.1332,4.75,-36.62,23.88,317.75,-87.36,128.7
53.17146,-1.673719,217.96,5.23,3,318.04,22 / 22,1434113,2019-11-06 16:30:14:575,0.6322,-1.8673,10.3833,0.0475,-0.0099,9.8064,-0.0099,-0.1023,0.1078,4.88,-36.5,23.38,311.42,-87.05,122.58
53.17146,-1.673719,217.96,5.23,3,318.04,22 / 22,1434213,2019-11-06 16:30:14:675,-3.527,-1.2707,9.9703,0.0276,-0.0198,9.8065,0.0207,0.094,0.1653,4.75,-36.06,24.38,306.86,-86.7,119.02
53.17146,-1.673719,217.96,5.23,3,318.04,22 / 22,1434313,2019-11-06 16:30:14:775,-3.5485,-0.6901,8.5744,0.0429,0.0072,9.8065,-0.0225,0.0404,0.2103,4.25,-36.5,24.69,301.98,-86.49,117.18
53.17146,-1.673719,217.96,5.23,3,318.04,22 / 22,1434413,2019-11-06 16:30:14:875,0.4451,-0.9847,9.7154,-0.044,0.0084,9.8065,0.1103,0.0977,-0.0078,3.94,-36.81,25.13,305.55,-86.55,120.62
53.17146,-1.673719,217.96,5.23,3,318.04,22 / 22,1434513,2019-11-06 16:30:14:975,2.4736,-0.9272,9.3811,0.0043,0.022,9.8066,0.1401,-0.4395,0.3504,4,-36.56,24.75,310.62,-86.64,125.31
53.17146,-1.673719,217.96,5.23,3,318.04,22 / 22,1434613,2019-11-06 16:30:15:075,1.9712,-0.9488,9.2634,-0.036,-0.019,9.8065,-0.1604,0.0606,0.2289,3.94,-36,25.5,313.44,-87.13,127.58
53.17146,-1.673719,217.96,5.23,3,318.04,22 / 22,1434713,2019-11-06 16:30:15:175,-4.7671,0.1485,9.9306,0.0171,0.0387,9.8065,0.3519,-0.3246,0.2319,3.56,-37.12,24.88,320.67,-87.81,133.63
53.17146,-1.673719,217.96,5.23,3,318.04,22 / 22,1434813,2019-11-06 16:30:15:275,-0.6981,-0.0886,10.3585,-0.0254,0.0346,9.8065,-0.086,-0.3565,-0.0579,3.63,-36.94,24.63,315.55,-87.88,128.64
53.17146,-1.673719,217.96,5.23,3,318.04,22 / 22,1434914,2019-11-06 16:30:15:376,-1.0122,-3.4917,10.8502,0.0185,0.015,9.8066,-0.0326,0.0206,0.0011,3.75,-37,25.06,308.37,-88.19,121.37
53.17146,-1.673719,217.96,5.23,3,318.04,22 / 22,1435014,2019-11-06 16:30:15:476,-0.4485,-3.0054,11.1793,0.0688,-0.0174,9.8064,-0.0193,-0.2274,-0.1587,4.06,-37.06,24.56,301.5,-87.74,115.25
53.17146,-1.673719,217.96,5.23,3,318.04,22 / 22,1435114,2019-11-06 16:30:15:576,-1.9762,1.7713,6.4634,-0.0147,0.0185,9.8066,0.0353,0.1395,0.3822,4.06,-36.81,24.56,292.56,-87.69,106.6
53.17146,-1.673719,217.96,5.23,3,318.04,22 / 22,1435214,2019-11-06 16:30:15:676,3.8929,-2.1767,9.2212,-0.0776,0.0822,9.8059,0.1062,0.0054,-0.3089,3.69,-36.62,24.13,294.63,-88.25,107.6
53.17146,-1.673719,217.96,5.23,3,318.04,22 / 22,1435314,2019-11-06 16:30:15:776,-0.6523,-0.5347,12.4902,-0.0693,0.0901,9.8059,0.2761,0.1689,-0.3954,3.13,-36.87,25.5,300.59,-87.86,116.63
53.17146,-1.673719,217.96,5.23,3,318.04,22 / 22,1435414,2019-11-06 16:30:15:876,1.0322,0.596,8.3314,0.0875,-0.0358,9.8061,-0.2191,0.4214,-0.0954,3.69,-37.19,24.5,292.46,-87.59,106.65
53.17146,-1.673719,217.96,5.23,3,318.04,22 / 22,1435514,2019-11-06 16:30:15:976,4.9282,-2.8188,11.5523,0.0688,-0.0533,9.8062,-0.283,-0.3411,0.3443,4.13,-37.06,24.63,285.68,-86.63,101.37
53.17146,-1.673719,217.96,5.23,3,318.04,22 / 22,1435615,2019-11-06 16:30:16:077,-0.933,0.6952,10.2282,0.0123,0.0586,9.8064,0.2135,-0.6295,0.178,4.44,-36.75,24.31,280.03,-86.82,95.36
53.17146,-1.673719,217.96,5.23,3,318.04,22 / 22,1435713,2019-11-06 16:30:16:175,2.5352,-3.5494,10.489,-0.005,0.0273,9.8066,0.2692,-0.0614,0.1021,4.5,-37.06,23.81,294.58,-87.26,106.61
53.17146,-1.673719,217.96,5.23,3,318.04,22 / 22,1435814,2019-11-06 16:30:16:276,3.3366,-0.9419,8.5597,0.0321,-0.0624,9.8063,-0.1647,0.1968,0.0464,4.06,-36.75,25.06,299.65,-87.29,114.04
53.171486,-1.674126,217.56,6.54,3,232.46,22 / 22,1435914,2019-11-06 16:30:16:376,-7.8417,-0.8775,10.7898,0.0214,-0.0643,9.8063,-0.2058,0.5328,-0.2712,3.38,-37.12,25.56,301.31,-87.31,118
53.171486,-1.674126,217.56,6.54,3,232.46,22 / 22,1436013,2019-11-06 16:30:16:475,2.4327,-1.3311,8.7603,-0.0398,0.003,9.8065,-0.0581,0.7352,-0.3706,4.31,-36.44,24.69,292.99,-86.89,108.01
53.171486,-1.674126,217.56,6.54,3,232.46,22 / 22,1436113,2019-11-06 16:30:16:575,-4.2573,0.8815,8.6433,-0.0229,0.0367,9.8065,-0.0654,-0.1792,0.2023,3.75,-36.56,24.88,291.55,-86.67,107.03
53.171486,-1.674126,217.56,6.54,3,232.46,22 / 22,1436214,2019-11-06 16:30:16:676,5.1039,-0.0876,9.3349,-0.1244,0.0358,9.8057,0.0107,0.5658,-0.2143,3.88,-37,24.88,287.44,-87.46,101.91
53.171486,-1.674126,217.56,6.54,3,232.46,22 / 22,1436314,2019-11-06 16:30:16:776,0.3614,1.4369,11.6244,0.0369,0.0135,9.8065,-0.0826,-0.1609,0.1411,3.56,-37.12,24.13,293.17,-87.74,106.88
53.171486,-1.674126,217.56,6.54,3,232.46,22 / 22,1436414,2019-11-06 16:30:16:876,0.6981,3.5175,10.3246,0.0374,-0.0163,9.8065,-0.2036,0.3538,-0.2471,3.75,-36.81,24.19,283.42,-87.33,97.93
53.171486,-1.674126,217.56,6.54,3,232.46,22 / 22,1436514,2019-11-06 16:30:16:976,-1.846,2.0596,9.3969,-0.0243,0.0019,9.8066,0.2147,0.1721,-0.0219,4.44,-36.87,24.56,280.04,-87.05,95.22
53.171486,-1.674126,217.56,6.54,3,232.46,22 / 22,1436614,2019-11-06 16:30:17:076,3.9985,-0.9905,8.2925,-0.0428,0.0054,9.8065,0.0029,0.2745,-0.2051,4.25,-36.19,25.25,285.62,-87.02,100.64
53.171486,-1.674126,217.56,6.54,3,232.46,22 / 22,1436714,2019-11-06 16:30:17:176,-2.861,2.1453,11.2645,0.0069,0.0301,9.8065,0.0721,-0.0572,0.0839,3.56,-37.37,25.5,294.52,-86.83,109.87
53.171486,-1.674126,217.56,6.54,3,232.46,22 / 22,1436814,2019-11-06 16:30:17:276,-1.8921,0.9928,9.0487,0.0279,-0.0161,9.8066,-0.0787,-0.291,0.0255,3.94,-37,25.19,289.05,-86.55,104.76
53.171486,-1.674126,217.56,6.54,3,232.46,21 / 22,1436913,2019-11-06 16:30:17:375,-0.6822,2.3826,10.5135,-0.0349,0.0238,9.8065,-0.1798,0.4411,0.0303,3.5,-36.62,25.25,285.2,-86.7,100.8
53.171486,-1.674126,217.56,6.54,3,232.46,21 / 22,1437013,2019-11-06 16:30:17:475,-4.2551,-0.9987,9.3442,-0.0315,-0.014,9.8065,-0.011,-0.0415,0.0007,2.81,-37.25,25.44,284.78,-87.35,101.72
53.171486,-1.674126,217.56,6.54,3,232.46,21 / 22,1437114,2019-11-06 16:30:17:576,-1.4262,0.1983,10.0274,-0.0389,-0.0082,9.8065,-0.1546,0.3933,-0.1951,3.19,-36.19,24.94,289.66,-87.24,106.57
53.171486,-1.674126,217.56,6.54,3,232.46,21 / 22,1437214,2019-11-06 16:30:17:676,0.9381,-0.254,10.9867,-0.0021,0.0576,9.8064,0.1352,0.225,-0.1043,3.25,-36.75,25.06,277.86,-87.21,95.1
53.171486,-1.674126,217.56,6.54,3,232.46,21 / 22,1437314,2019-11-06 16:30:17:776,-0.094,2.5108,10.7451,-0.0304,0.0373,9.8065,0.0193,-0.1072,0.1452,3.44,-36.44,24.5,279.21,-87.17,96.38
53.171486,-1.674126,217.56,6.54,3,232.46,21 / 22,1437414,2019-11-06 16:30:17:876,-6.3174,-0.3681,9.4311,-0.0276,0.0094,9.8066,-0.0586,-0.5233,0.2285,3.56,-36.81,24.25,276.54,-87.8,90.41
53.171486,-1.674126,217.56,6.54,3,232.46,21 / 22,1437513,2019-11-06 16:30:17:975,-3.0694,4.0164,7.7362,-0.0253,0.0408,9.8065,0.0972,0.6446,-0.2754,2.75,-36.94,25.69,278.52,-87.92,94.86
53.171486,-1.674126,217.56,6.54,3,232.46,21 / 22,1437614,2019-11-06 16:30:18:076,-7.4423,-1.5953,7.1296,0.0243,0.048,9.8064,0.0611,-0.1141,-0.0677,3.25,-37.12,25,273.47,-87.8,89.86
53.171486,-1.674126,217.56,6.54,3,232.46,21 / 22,1437714,2019-11-06 16:30:18:176,0.7965,0.7785,10.5126,-0.1093,0.0557,9.8058,0.0247,0.3434,-0.2921,3.31,-37,24.19,263.68,-87.58,80.24
53.171486,-1.674126,217.56,6.54,3,232.46,21 / 22,1437814,2019-11-06 16:30:18:276,-2.6383,-1.8064,9.4009,-0.0009,0.0562,9.8064,0.1203,-0.4787,0.4493,2.88,-37.25,24.75,255.86,-87.64,72.37
53.171486,-1.674126,217.56,6.54,3,232.46,21 / 22,1437914,2019-11-06 16:30:18:376,4.1261,3.1907,12.0598,-0.0594,0.0901,9.806,0.2483,0.1587,-0.1817,2.44,-37,23.69,256.8,-87.72,75.44
53.171486,-1.674126,217.56,6.54,3,232.46,21 / 22,1438013,2019-11-06 16:30:18:475,-5.4753,2.2349,8.5711,0.0231,0.0518,9.8064,0.0831,-0.3601,-0.0366,3.25,-37.19,23.81,244.82,-87.9,60.59
53.171486,-1.674126,217.56,6.54,3,232.46,21 / 22,1438113,2019-11-06 16:30:18:575,-2.9116,-3.3047,10.9546,-0.0986,-0.0889,9.8057,-0.1164,0.7397,-0.3736,2.69,-36.31,24.5,259.13,-87.56,75.7
53.171486,-1.674126,217.56,6.54,3,232.46,21 / 22,1438213,2019-11-06 16:30:18:675,3.8171,-1.5844,8.0294,0.0627,-0.0254,9.8063,-0.0429,-0.7564,0.3852,2.38,-37.25,24.88,273.07,-88.14,91.24
53.171486,-1.674126,217.56,6.54,3,232.46,21 / 22,1438313,2019-11-06 16:30:18:775,-3.1526,-1.0466,10.4135,-0.088,-0.0151,9.8062,-0.2759,0.9834,-0.229,2.44,-36.69,24.88,284.63,-89,101.47
53.171486,-1.674126,217.56,6.54,3,232.46,21 / 22,1438413,2019-11-06 16:30:18:875,-7.153,1.9984,8.9084,-0.0209,0.0557,9.8064,-0.1103,0.5657,-0.4358,2.13,-37.25,24.63,260.49,-89.31,76.92
53.171486,-1.674126,217.56,6.54,3,232.46,21 / 22,1438513,2019-11-06 16:30:18:975,-7.6576,3.7052,10.3055,-0.1735,0.0034,9.8051,-0.0788,1.2274,-0.7758,2.69,-37.06,24.81,256.6,-88.44,71.98
53.171486,-1.674126,217.56,6.54,3,232.46,21 / 22,1438614,2019-11-06 16:30:19:076,10.9368,-1.6032,9.4832,-0.0524,-0.0231,9.8064,-0.2006,1.0606,-0.4554,2.81,-36.94,24.5,262.35,-88.75,77.33
53.171486,-1.674126,217.56,6.54,3,232.46,21 / 22,1438713,2019-11-06 16:30:19:175,-5.2691,-0.3449,9.888,-0.1467,-0.0077,9.8055,-0.0254,0.49,-0.4089,3.06,-37.06,24.56,263.96,-88.28,79.62
53.171486,-1.674126,217.56,6.54,3,232.46,21 / 22,1438813,2019-11-06 16:30:19:275,9.3589,1.6216,9.026,-0.0503,-0.0284,9.8065,-0.1908,1.0813,-0.4183,3,-36.94,24.56,269.51,-88.53,84.84
53.171486,-1.674126,217.56,6.54,3,232.46,21 / 22,1438913,2019-11-06 16:30:19:375,-1.9725,1.3012,12.4848,-0.0135,-0.0625,9.8063,-0.185,-0.0507,0.1319,2.69,-37,24.69,288.1,-88.55,103.29
53.171486,-1.674126,217.56,6.54,3,232.46,21 / 22,1439014,2019-11-06 16:30:19:476,3.0522,-0.4593,10.1747,-0.0196,-0.0164,9.8066,0.0951,0.2993,-0.2551,3.13,-36.25,24.88,287.78,-88.34,103.21
53.171486,-1.674126,217.56,6.54,3,232.46,21 / 22,1439114,2019-11-06 16:30:19:576,-0.9602,-2.9086,8.2509,0.0397,0.0359,9.8065,-0.0504,-0.1955,-0.0385,2.63,-37.19,25.25,285.83,-87.95,101.9
53.171486,-1.674126,217.56,6.54,3,232.46,21 / 22,1439214,2019-11-06 16:30:19:676,-0.4946,1.0625,10.189,0.0587,0.0175,9.8064,-0.0719,-0.0255,0.0075,3.44,-36.56,24.94,270.88,-87.17,88.2
53.171486,-1.674126,217.56,6.54,3,232.46,21 / 22,1439314,2019-11-06 16:30:19:776,3.7001,-0.2914,9.8751,0.0356,0.0357,9.8064,-0.2095,0.0931,-0.1698,3.63,-36.25,25.19,268.31,-87.07,83.38
53.171486,-1.674126,217.56,6.54,3,232.46,21 / 22,1439414,2019-11-06 16:30:19:876,-3.821,-0.9555,9.5835,0.0816,0.0309,9.8062,-0.138,-0.3695,0.3458,3.44,-36.87,24.69,253.42,-86.31,71.75
53.171486,-1.674126,217.56,6.54,3,232.46,21 / 22,1439514,2019-11-06 16:30:19:976,-1.3822,1.9683,8.6032,-0.001,0.0239,9.8066,-0.022,0.3626,-0.0521,4,-36.75,24.13,247.74,-86.48,63.21
53.171486,-1.674126,217.56,6.54,3,232.46,21 / 22,1439614,2019-11-06 16:30:20:076,-4.1537,-1.6978,9.4375,0.0108,0.0176,9.8066,0.0965,-0.2233,0.0528,4.06,-36.75,24.13,246.45,-86.35,62.04
53.171486,-1.674126,217.56,6.54,3,232.46,21 / 22,1439714,2019-11-06 16:30:20:176,-0.0898,1.0101,11.1631,-0.0656,-0.0172,9.8064,-0.0821,0.8439,-0.4439,3.25,-37.31,24.63,246.22,-86.51,64.04
53.171486,-1.674126,217.56,6.54,3,232.46,21 / 22,1439813,2019-11-06 16:30:20:275,5.7649,-0.7372,10.1481,0.0573,0.0153,9.8064,-0.0352,-0.0745,-0.026,4.31,-36.87,24,247.95,-86.29,63.68
53.171486,-1.674126,217.56,6.54,3,232.46,21 / 22,1439913,2019-11-06 16:30:20:375,4.5387,-1.1052,10.4277,-0.1021,-0.0075,9.806,-0.0217,0.9294,-0.4102,4,-36.5,23.75,248.65,-86.09,64.54
53.171486,-1.674126,217.56,6.54,3,232.46,21 / 22,1440013,2019-11-06 16:30:20:475,3.2849,2.5936,8.6349,-0.0186,-0.0423,9.8065,-0.1593,0.5276,-0.1184,4,-37.06,24.19,249.12,-86.5,64.61
53.171486,-1.674126,217.56,6.54,3,232.46,21 / 22,1440114,2019-11-06 16:30:20:576,-4.6234,0.2396,10.1243,-0.0835,0.0033,9.8062,-0.1747,0.5449,-0.171,3.69,-37.69,23.94,245.04,-86.86,59.99
53.171486,-1.674126,217.56,6.54,3,232.46,21 / 22,1440214,2019-11-06 16:30:20:676,1.304,-0.1864,11.2889,-0.075,0.0164,9.8063,-0.0784,0.7121,-0.2616,4.19,-37.19,24.19,240.25,-86.83,54.94
53.171486,-1.674126,217.56,6.54,3,232.46,21 / 22,1440314,2019-11-06 16:30:20:776,-6.1514,3.3337,8.8875,-0.0235,0.0511,9.8065,0.1164,0.1002,-0.0975,3.63,-37,24.38,239.32,-86.43,54.48
53.171486,-1.674126,217.56,6.54,3,232.46,21 / 22,1440414,2019-11-06 16:30:20:876,5.7096,-1.8369,10.0922,-0.0893,0.0392,9.8061,-0.0242,0.6088,-0.3884,3.94,-37.75,24.13,235.37,-86.26,50.67
53.171486,-1.674126,217.56,6.54,3,232.46,21 / 22,1440514,2019-11-06 16:30:20:976,2.5169,1.3778,9.0559,0.0294,0.0365,9.8065,0.1288,-0.3809,0.1719,4.31,-37.44,23.88,236.07,-86.05,51.54
53.171486,-1.674126,217.56,6.54,3,232.46,21 / 22,1440614,2019-11-06 16:30:21:076,7.5571,1.4207,9.2004,-0.0453,-0.0147,9.8065,-0.2254,0.3563,-0.0605,3.88,-37.31,23.69,234.17,-85.94,49.65
53.171486,-1.674126,217.56,6.54,3,232.46,21 / 22,1440713,2019-11-06 16:30:21:175,2.3847,0.7712,9.3584,0.1105,0.0287,9.8059,0.0001,-0.7423,0.3911,3.81,-37.87,23.88,232.92,-84.93,49.69
53.171486,-1.674126,217.56,6.54,3,232.46,21 / 22,1440814,2019-11-06 16:30:21:276,-2.5787,-1.1433,10.1018,-0.0034,0.0308,9.8065,0.0252,-0.1992,0.1251,3.81,-37.37,23.19,227.92,-84.97,43.88
53.171486,-1.674126,217.56,6.54,3,232.46,20 / 22,1440914,2019-11-06 16:30:21:376,-2.4157,-1.7141,10.9655,0.0481,0.0104,9.8065,0.2151,-0.3603,0.3436,3.13,-36.69,23.5,221.94,-85.06,39.77
53.171486,-1.674126,217.56,6.54,3,232.46,20 / 22,1441013,2019-11-06 16:30:21:475,-0.9305,1.8326,9.9664,-0.0249,-0.0302,9.8066,0.068,-0.105,0.067,2.69,-37.81,23.5,223.12,-85.45,40.81
53.171486,-1.674126,217.56,6.54,3,232.46,20 / 22,1441113,2019-11-06 16:30:21:575,1.9877,-3.0969,9.7976,0.0643,-0.0249,9.8063,-0.0646,-0.1657,0.1929,2.44,-37.44,23.56,220.16,-85.83,39.46
53.171486,-1.674126,217.56,6.54,3,232.46,20 / 22,1441214,2019-11-06 16:30:21:676,-2.9426,0.2528,11.1395,0.0554,0.0195,9.8064,-0.1182,-0.3456,0.0658,3.31,-37.56,24.06,224.23,-85.31,42.16
53.171486,-1.674126,217.56,6.54,3,232.46,20 / 22,1441313,2019-11-06 16:30:21:775,2.9829,-0.6878,10.0061,0.0092,-0.0357,9.8065,-0.2473,0.2318,-0.0219,2.81,-37.06,24.69,225.71,-85.2,43.83
53.171486,-1.674126,217.56,6.54,3,232.46,20 / 22,1441414,2019-11-06 16:30:21:876,2.7556,-3.4622,10.0442,0.038,0.0184,9.8065,0.2191,-0.0275,0.0098,3,-37.37,25.13,225.05,-85.1,43.21
53.171486,-1.674126,217.56,6.54,3,232.46,20 / 22,1441514,2019-11-06 16:30:21:976,5.7092,-1.1618,10.7021,-0.1162,0.0425,9.8059,0.1024,0.6417,-0.3954,2.56,-38.06,24.19,227.31,-85.43,45.38
53.171486,-1.674126,217.56,6.54,3,232.46,20 / 22,1441615,2019-11-06 16:30:22:077,-2.5644,0.8434,8.9415,0.0294,-0.0238,9.8065,-0.0976,0.0806,0.0113,2.94,-37.37,24.38,223.5,-85.76,40.77
53.171486,-1.674126,217.56,6.54,3,232.46,20 / 22,1441714,2019-11-06 16:30:22:176,-3.5826,-2.8229,10.1483,-0.0469,-0.0173,9.8065,-0.046,0.5201,-0.2953,1.88,-37.62,25.19,221.81,-85.52,41.68
53.171486,-1.674126,217.56,6.54,3,232.46,20 / 22,1441814,2019-11-06 16:30:22:276,-1.3356,0.337,10.3697,0.0412,0.0087,9.8065,-0.1322,0.29,-0.1426,2.31,-37.94,24.44,222.94,-85.46,42.97
53.171486,-1.674126,217.56,6.54,3,232.46,20 / 21,1441914,2019-11-06 16:30:22:376,-2.3012,0.8302,9.5304,-0.0595,0.0082,9.8064,-0.0975,0.5631,-0.1995,2.5,-37,24.44,223.01,-85.01,41
53.171486,-1.674126,217.56,6.54,3,232.46,20 / 21,1442014,2019-11-06 16:30:22:476,6.9349,-0.2761,10.0358,-0.0917,0.0191,9.8062,0.0182,0.6348,-0.3983,2.38,-37.81,24.69,218.92,-85,39.01
53.171486,-1.674126,217.56,6.54,3,232.46,20 / 21,1442114,2019-11-06 16:30:22:576,-1.295,-0.6562,10.1559,-0.1258,0.0095,9.8057,0.0274,0.5203,-0.2771,2.13,-37.69,24.94,220.21,-84.97,40.46
53.171486,-1.674126,217.56,6.54,3,232.46,20 / 21,1442213,2019-11-06 16:30:22:675,4.3814,-0.5289,8.7404,-0.0912,-0.0312,9.8061,-0.1908,0.6897,-0.3488,2.06,-37.37,24.63,214.61,-85.51,33.71
53.171486,-1.674126,217.56,6.54,3,232.46,20 / 21,1442313,2019-11-06 16:30:22:775,-3.4162,0.0111,10.6052,-0.0297,-0.0109,9.8065,-0.0649,0.1933,-0.2018,2.56,-37.19,24.44,219.2,-85.11,36.71
53.171486,-1.674126,217.56,6.54,3,232.46,20 / 21,1442414,2019-11-06 16:30:22:876,2.0538,-1.6756,8.9969,-0.0437,0.0041,9.8065,-0.0255,0.507,-0.4167,2.31,-37.56,24.81,217.99,-84.95,38.02
53.171486,-1.674126,217.56,6.54,3,232.46,20 / 21,1442513,2019-11-06 16:30:22:975,-4.4066,-0.5659,12.0624,-0.0821,-0.0064,9.8063,0,0.2589,-0.1972,2.75,-37.69,23.75,222.36,-85.07,40.36
53.171486,-1.674126,217.56,6.54,3,232.46,20 / 21,1442613,2019-11-06 16:30:23:075,2.1456,2.0095,8.8373,-0.0677,-0.0394,9.8063,-0.3316,0.608,-0.0683,2.75,-37.81,24.25,222.63,-85.12,40.61
53.171486,-1.674126,217.56,6.54,3,232.46,20 / 21,1442713,2019-11-06 16:30:23:175,-3.061,1.2107,8.6897,-0.037,-0.0287,9.8065,-0.1095,0.1645,0.0384,2.25,-37,24.5,216.24,-84.97,35.95
53.171486,-1.674126,217.56,6.54,3,232.46,20 / 21,1442813,2019-11-06 16:30:23:275,5.2868,-1.2496,10.8048,-0.0797,0.004,9.8062,0.0565,0.642,-0.3815,2.38,-37.81,24.5,214.65,-85.31,34.03
53.171486,-1.674126,217.56,6.54,3,232.46,21 / 21,1442913,2019-11-06 16:30:23:375,-4.3684,0.5064,8.8307,-0.0722,0.0298,9.8063,0.1391,0.2922,-0.1464,2.25,-37.31,24.31,219.45,-85.29,39.2
53.171486,-1.674126,217.56,6.54,3,232.46,21 / 21,1443013,2019-11-06 16:30:23:475,0.8873,0.447,9.5426,-0.1032,-0.0065,9.806,-0.1688,0.5469,-0.4167,1.94,-37.19,24.56,216.21,-85.5,35.48
53.171486,-1.674126,217.56,6.54,3,232.46,21 / 21,1443113,2019-11-06 16:30:23:575,-4.1935,0.0577,9.9461,-0.0412,-0.0118,9.8065,-0.0264,0.1197,0.0023,2.38,-37.69,24.81,215.78,-85.3,35.28
53.171486,-1.674126,217.56,6.54,3,232.46,21 / 21,1443214,2019-11-06 16:30:23:676,0.5466,0.3922,9.5338,-0.0424,-0.022,9.8065,-0.0995,0.3379,-0.1809,2.38,-37.69,24.13,216.38,-85.29,35.94
53.171486,-1.674126,217.56,6.54,3,232.46,21 / 21,1443314,2019-11-06 16:30:23:776,-4.4377,0.6202,10.2617,0.0291,0.0011,9.8065,0.1348,-0.3365,0.2653,1.94,-38.06,24.06,216.13,-85.32,35.63
53.171486,-1.674126,217.56,6.54,3,232.46,21 / 21,1443414,2019-11-06 16:30:23:876,1.9115,-1.9636,8.6951,-0.052,-0.0314,9.8064,-0.1421,0.1447,-0.0579,2,-37.75,25.25,216.87,-85.59,36.23
53.171486,-1.674126,217.56,6.54,3,232.46,21 / 21,1443514,2019-11-06 16:30:23:976,1.5545,0.4984,9.7753,0.0143,0.0036,9.8066,0.0789,-0.364,0.2593,2.06,-37.37,25.38,213.56,-85.65,32.46
53.171486,-1.674126,217.56,6.54,3,232.46,21 / 21,1443613,2019-11-06 16:30:24:075,1.3831,0.2877,8.8369,-0.0481,-0.0018,9.8064,0.0609,-0.019,-0.0224,2.19,-38.19,25.31,210.06,-85.92,28.52
53.171486,-1.674126,217.56,6.54,3,232.46,21 / 21,1443713,2019-11-06 16:30:24:175,0.8455,-0.5308,10.5317,0.0648,-0.0044,9.8064,0.0548,-0.3677,0.1644,1.75,-37.37,24.88,216.89,-85.84,35.92
53.171486,-1.674126,217.56,6.54,3,232.46,21 / 21,1443813,2019-11-06 16:30:24:275,-2.0873,2.8273,10.4391,0.009,-0.0172,9.8065,-0.0537,0.116,-0.0198,2,-37.19,25.06,217,-85.98,35.93
53.171486,-1.674126,217.56,6.54,3,232.46,21 / 21,1443913,2019-11-06 16:30:24:375,-1.1764,1.1427,9.4688,0.0443,-0.0039,9.8065,-0.0063,-0.2065,0.1567,1.94,-37.87,26.13,217.48,-86.01,36.55
53.171486,-1.674126,217.56,6.54,3,232.46,21 / 21,1444013,2019-11-06 16:30:24:475,0.8192,-1.1062,9.2779,-0.0398,-0.0079,9.8065,0.0174,-0.0632,0.0193,1.75,-38.12,25.63,218.28,-86.12,37.33
53.171486,-1.674126,217.56,6.54,3,232.46,21 / 21,1444114,2019-11-06 16:30:24:576,-3.0797,-0.3547,11.0898,-0.0196,-0.0197,9.8066,0.0809,0.2992,-0.0972,1.88,-37.5,26,212.72,-86.3,31.11
53.171486,-1.674126,217.56,6.54,3,232.46,21 / 21,1444214,2019-11-06 16:30:24:676,-0.4791,0.0849,9.6498,0.0187,-0.0434,9.8065,0.0293,0.2287,-0.2677,2.13,-36.94,25.69,222.09,-86.6,40.87
53.171486,-1.674126,217.56,6.54,3,232.46,21 / 21,1444313,2019-11-06 16:30:24:775,-1.3969,-0.7658,9.8831,-0.0239,-0.0145,9.8066,0.0599,0.2645,-0.2223,1.69,-37.31,26.63,231.01,-86.51,50.44
53.171486,-1.674126,217.56,6.54,3,232.46,21 / 21,1444413,2019-11-06 16:30:24:875,4.192,1.1309,6.8753,0.0047,-0.0157,9.8066,-0.1918,0.2192,-0.0003,2.19,-37.87,26.38,234.91,-86.25,54.94
53.171486,-1.674126,217.56,6.54,3,232.46,21 / 21,1444513,2019-11-06 16:30:24:975,-4.3746,2.7561,10.6374,0.0048,0.0097,9.8066,-0.0198,-0.2712,0.1907,1.44,-37.12,25.63,222.11,-86.27,43.41
53.171486,-1.674126,217.56,6.54,3,232.46,21 / 21,1444613,2019-11-06 16:30:25:075,-1.3707,-0.9537,12.3852,0.0393,0.0437,9.8065,0.1536,0.0023,-0.2622,1.88,-37.44,26.69,224.71,-86.01,44.25
53.171486,-1.674126,217.56,6.54,3,232.46,21 / 21,1444713,2019-11-06 16:30:25:175,0.774,0.7511,9.7014,0.041,0.0193,9.8065,-0.0285,-0.0801,-0.0384,2.13,-37.12,26.31,232.45,-85.47,53.08
53.171486,-1.674126,217.56,6.54,3,232.46,21 / 21,1444814,2019-11-06 16:30:25:276,1.2032,1.4547,8.8604,-0.0121,0.0222,9.8066,-0.1736,0.2004,-0.0154,2.25,-36.94,26.06,230.32,-84.89,51.4
53.17115,-1.674692,216.35,4.71,2,220.47,21 / 21,1444916,2019-11-06 16:30:25:378,-0.298,-1.7203,9.3573,-0.0188,-0.016,9.8066,-0.1671,0.0719,-0.0547,2.44,-37.25,26.88,228.79,-84.78,49.81
53.17115,-1.674692,216.35,4.71,2,220.47,21 / 21,1445014,2019-11-06 16:30:25:476,-1.3899,-0.5689,9.0412,-0.1237,-0.0865,9.8055,-0.0467,0.7085,-0.0161,2,-36.5,26.69,227.25,-85.44,47.38
53.17115,-1.674692,216.35,4.71,2,220.47,21 / 21,1445114,2019-11-06 16:30:25:576,-8.5921,-1.361,10.6951,0.0398,-0.006,9.8066,-0.1269,-0.3317,0.2206,1.88,-37,26.88,225.85,-85.95,45.53
53.17115,-1.674692,216.35,4.71,2,220.47,21 / 21,1445214,2019-11-06 16:30:25:676,1.8861,0.4965,10.7052,-0.0455,0.0352,9.8064,-0.1428,0.3304,-0.2045,1.88,-37.81,26.13,224.59,-85.4,44.81
53.17115,-1.674692,216.35,4.71,2,220.47,21 / 21,1445314,2019-11-06 16:30:25:776,-0.353,1.9096,9.9548,0.0897,0.0258,9.8062,0.1133,-0.6896,0.4218,1.88,-37.25,25.75,223.29,-84.79,43.85
53.17115,-1.674692,216.35,4.71,2,220.47,21 / 21,1445414,2019-11-06 16:30:25:876,-1.6986,-1.2528,9.2643,-0.0409,-0.0417,9.8064,-0.0532,0.2729,-0.1428,2.13,-37.12,26.13,226.4,-84.82,47.22
53.17115,-1.674692,216.35,4.71,2,220.47,21 / 21,1445513,2019-11-06 16:30:25:975,-6.0251,-1.8033,10.954,0.0607,-0.0121,9.8064,0.2405,-0.6764,0.4278,1.63,-36.75,26.31,230.56,-84.78,51.78
53.17115,-1.674692,216.35,4.71,2,220.47,21 / 21,1445614,2019-11-06 16:30:26:076,-0.9531,-0.5782,9.7318,-0.0406,-0.0296,9.8065,0.04,-0.1706,0.1274,2,-37.44,27,230.48,-85.33,51.09
53.17115,-1.674692,216.35,4.71,2,220.47,21 / 21,1445713,2019-11-06 16:30:26:175,6.0056,-0.212,10.5671,0.0701,0.0049,9.8063,0.0882,-0.639,0.4382,1.19,-36.94,26.38,225.69,-85.67,47.81
53.17115,-1.674692,216.35,4.71,2,220.47,21 / 21,1445813,2019-11-06 16:30:26:275,4.8798,0.6938,10.9047,0.0022,0.0035,9.8066,-0.1218,-0.1568,0.2779,0.63,-37.12,27.06,223.44,-85.72,45.28
53.17115,-1.674692,216.35,4.71,2,220.47,22 / 22,1445914,2019-11-06 16:30:26:376,1.2493,0.5151,9.4488,0.1014,0.0016,9.806,0.028,-0.7672,0.5472,0.44,-37.62,27.56,213.55,-85.97,36.51
53.17115,-1.674692,216.35,4.71,2,220.47,22 / 22,1446013,2019-11-06 16:30:26:475,-6.6872,-0.2686,9.7309,-0.0175,-0.0102,9.8066,0.0537,-0.0316,0.218,-0.37,-37.31,26.94,214.34,-86.05,37.33
53.17115,-1.674692,216.35,4.71,2,220.47,22 / 22,1446113,2019-11-06 16:30:26:575,-3.6062,-0.143,10.8575,0.0674,0.0434,9.8062,0.1368,-0.587,0.4494,0,-37.19,27.31,216.31,-86,39.49
53.17115,-1.674692,216.35,4.71,2,220.47,22 / 22,1446213,2019-11-06 16:30:26:675,-2.2278,-2.3887,8.7639,-0.0485,0.0333,9.8064,-0.072,-0.0963,0.1841,-1,-37.44,27.06,204.95,-86.19,29.23
53.17115,-1.674692,216.35,4.71,2,220.47,22 / 22,1446313,2019-11-06 16:30:26:775,1.0659,-3.1024,8.9239,0.0492,0.0838,9.8061,-0.0582,-0.2984,0.1677,-1.06,-38.06,27.38,201.89,-86.02,26.05
53.17115,-1.674692,216.35,4.71,2,220.47,22 / 22,1446414,2019-11-06 16:30:26:876,-3.706,1.2572,11.3463,0.0178,0.0315,9.8066,-0.0886,-0.0004,0.1708,-1.31,-37.75,26.81,200.63,-85.09,25.12
53.17115,-1.674692,216.35,4.71,2,220.47,22 / 22,1446514,2019-11-06 16:30:26:976,0.4051,0.5176,10.4706,0.0505,0.0275,9.8064,-0.0592,0.0509,0.0634,-1.37,-37.62,26.75,200.43,-84.77,25.03
53.17115,-1.674692,216.35,4.71,2,220.47,22 / 22,1446613,2019-11-06 16:30:27:075,2.0663,-0.6566,11.186,0.0236,0.0116,9.8066,0.0407,0.3106,-0.079,-1,-37.62,26.19,202.16,-84.25,27.43
53.17115,-1.674692,216.35,4.71,2,220.47,22 / 22,1446714,2019-11-06 16:30:27:176,6.2006,0.8825,9.7513,0.0823,0.0443,9.8061,0.0171,-0.4722,0.3576,-1.62,-37.62,26.56,203.07,-83.65,30.67
53.17115,-1.674692,216.35,4.71,2,220.47,22 / 22,1446814,2019-11-06 16:30:27:276,2.6172,0.8248,8.4219,-0.0462,0.0279,9.8064,-0.0455,-0.1044,0.2701,-2.31,-37.87,26.5,197.88,-83.82,24.68
53.17115,-1.674692,216.35,4.71,2,220.47,22 / 22,1446914,2019-11-06 16:30:27:376,4.6095,0.0692,9.5573,0.1079,0.0094,9.8059,-0.134,-0.6687,0.3255,-2.5,-38.19,26.5,192.73,-83.96,18.77
53.17115,-1.674692,216.35,4.71,2,220.47,22 / 22,1447014,2019-11-06 16:30:27:476,-7.9231,-1.0137,10.4561,0.0538,0.0705,9.8062,0.0437,-0.6402,0.4968,-2.75,-37.87,25.94,191.62,-83.47,20.04
53.17115,-1.674692,216.35,4.71,2,220.47,22 / 22,1447113,2019-11-06 16:30:27:575,0.5834,-0.735,7.9926,0.098,0.0456,9.806,0.1091,-0.5327,0.166,-2.37,-38.06,27.06,190.43,-83.65,16.21
53.17115,-1.674692,216.35,4.71,2,220.47,22 / 22,1447213,2019-11-06 16:30:27:675,-9.4159,-3.3698,10.3183,0.1388,0.0184,9.8056,0.127,-0.8713,0.4709,-2.75,-38.12,26.38,194.17,-83.41,23
53.17115,-1.674692,216.35,4.71,2,220.47,22 / 22,1447313,2019-11-06 16:30:27:775,6.4058,-1.6962,10.2794,0.1107,0.0071,9.806,-0.1955,-0.3551,0.0729,-2.56,-38.12,26.88,198.81,-82.93,28.2
53.17115,-1.674692,216.35,4.71,2,220.47,22 / 22,1447413,2019-11-06 16:30:27:875,-3.5712,-1.4131,9.725,0.1976,0.1137,9.804,0.2928,-1.0174,0.412,-2.06,-37.62,26,200.63,-82.33,28.79
53.17115,-1.674692,216.35,4.71,2,220.47,22 / 22,1447513,2019-11-06 16:30:27:975,10.1179,2.4328,10.1245,0.0573,0.0261,9.8064,0.0843,-0.2103,0.1622,-2.62,-37.75,26.13,199.37,-82.53,29.39
53.17115,-1.674692,216.35,4.71,2,220.47,22 / 22,1447613,2019-11-06 16:30:28:075,-4.2405,-0.0018,11.89,0.1355,0.0682,9.8054,0.0063,-1.0962,0.6327,-2.5,-38.44,26.63,200.63,-82.26,28.51
53.17115,-1.674692,216.35,4.71,2,220.47,22 / 22,1447714,2019-11-06 16:30:28:176,5.7249,1.9767,9.7114,-0.0965,-0.0376,9.806,-0.098,0.3941,-0.295,-2.25,-38.62,26.19,195.34,-82.06,22.73
53.17115,-1.674692,216.35,4.71,2,220.47,22 / 22,1447813,2019-11-06 16:30:28:275,-5.2535,-1.6462,8.498,0.1108,0.0309,9.8059,0.0139,-0.2579,0.2851,-3.19,-38.44,26,191.02,-82.28,19.64
53.17115,-1.674692,216.35,4.71,2,220.47,22 / 22,1447913,2019-11-06 16:30:28:375,-4.6505,0.3432,9.5075,0.0235,-0.0103,9.8065,0.0443,0.6284,-0.384,-3,-38.06,26.38,193.7,-82.32,22.8
53.17115,-1.674692,216.35,4.71,2,220.47,22 / 22,1448013,2019-11-06 16:30:28:475,-0.9496,-5.6219,8.0821,0.0404,-0.0072,9.8065,-0.0385,0.0368,-0.1212,-1.69,-38,26,199.8,-82.12,27.91
53.17115,-1.674692,216.35,4.71,2,220.47,22 / 22,1448113,2019-11-06 16:30:28:575,-4.4884,0.833,10.3908,-0.0853,0.032,9.8062,-0.2312,0.4769,-0.2068,-1.37,-37.75,25.75,202.65,-81.63,29.34
53.17115,-1.674692,216.35,4.71,2,220.47,22 / 22,1448213,2019-11-06 16:30:28:675,7.5552,-1.1536,9.6809,-0.0336,0.0486,9.8064,-0.036,0.4216,-0.5062,-0.75,-37.87,25.25,199.72,-81.08,26.35
53.17115,-1.674692,216.35,4.71,2,220.47,22 / 22,1448313,2019-11-06 16:30:28:775,0.8622,-2.8402,9.894,-0.1664,0.0132,9.8051,0.2219,0.7808,-0.4642,-0.81,-38.12,25.81,201.92,-80.64,28.96
53.17115,-1.674692,216.35,4.71,2,220.47,22 / 22,1448413,2019-11-06 16:30:28:875,6.9265,1.1893,8.9365,-0.0809,-0.0342,9.8062,-0.169,0.6949,-0.4221,-0.94,-38.69,24.63,199.61,-81.07,26.34
53.17115,-1.674692,216.35,4.71,2,220.47,22 / 22,1448514,2019-11-06 16:30:28:976,-5.8598,-1.9866,11.2366,-0.1408,-0.0612,9.8053,-0.2048,0.4805,-0.0013,-2.12,-37.94,24.38,193.4,-81.44,21.14
53.17115,-1.674692,216.35,4.71,2,220.47,22 / 22,1448614,2019-11-06 16:30:29:076,-1.8568,-2.8608,9.3955,-0.2038,-0.0934,9.804,0.0388,0.6379,-0.495,-1.94,-37.87,25,189.46,-81.94,15.95
53.17115,-1.674692,216.35,4.71,2,220.47,22 / 22,1448714,2019-11-06 16:30:29:176,-10.7784,-2.3608,7.355,-0.0882,0.0481,9.8061,-0.0129,0.752,-0.3861,-1.56,-38.06,25,195.18,-81.45,22.98
53.17115,-1.674692,216.35,4.71,2,220.47,22 / 22,1448814,2019-11-06 16:30:29:276,4.0245,1.6706,10.5482,-0.1474,-0.0184,9.8054,-0.1865,0.9724,-0.7933,-1.06,-38.44,24.69,197.38,-80.98,23.55
53.17115,-1.674692,216.35,4.71,2,220.47,22 / 22,1448914,2019-11-06 16:30:29:376,-3.5484,-0.4615,10.4884,0.0155,0.0051,9.8066,-0.102,-0.617,0.2902,-0.44,-37.87,24.13,202.95,-80.11,28.75
53.17115,-1.674692,216.35,4.71,2,220.47,22 / 22,1449013,2019-11-06 16:30:29:475,0.1342,-1.2551,9.4418,-0.168,0.0062,9.8052,-0.1907,-0.1347,0.3338,-1.06,-38.31,24.25,194.8,-80.13,20.95
53.17115,-1.674692,216.35,4.71,2,220.47,22 / 22,1449113,2019-11-06 16:30:29:575,3.8361,-1.5827,9.5445,0.1399,-0.02,9.8056,0.1258,-0.6987,0.3583,-1.44,-38.56,23.5,188.23,-80.13,12.78
53.17115,-1.674692,216.35,4.71,2,220.47,22 / 22,1449213,2019-11-06 16:30:29:675,3.1913,-2.8275,9.2489,0.0246,0.0207,9.8065,-0.0658,0.2164,0.054,-1.12,-37.5,23.5,191.12,-80.02,16.3
53.17115,-1.674692,216.35,4.71,2,220.47,22 / 22,1449313,2019-11-06 16:30:29:775,-2.3422,-0.153,9.402,0.1595,0.0041,9.8053,0.0837,-1.0671,0.385,-0.5,-38.37,24.06,194.8,-80.26,18.53
53.17115,-1.674692,216.35,4.71,2,220.47,22 / 22,1449414,2019-11-06 16:30:29:876,-4.7581,-2.7228,11.7977,-0.0384,0.0438,9.8064,0.1519,-0.2913,0.0013,0,-38.87,23.75,197.56,-79.81,22.29
53.17115,-1.674692,216.35,4.71,2,220.47,22 / 22,1449514,2019-11-06 16:30:29:976,-9.1094,-3.3531,10.8437,0.1074,0.0325,9.8059,0.4486,-1.1713,0.6137,0,-37.44,23.25,198.26,-79.83,23.11
53.17115,-1.674692,216.35,4.71,2,220.47,22 / 22,1449614,2019-11-06 16:30:30:076,-0.8111,-1.465,8.5993,-0.0616,-0.0434,9.8063,0.0721,-0.1148,0.113,-0.25,-38.31,24.56,196.98,-80.89,20.81
53.17115,-1.674692,216.35,4.71,2,220.47,22 / 22,1449714,2019-11-06 16:30:30:176,10.7715,-1.8085,9.4621,0.2068,-0.0173,9.8044,0.0762,-1.2132,0.8366,-0.37,-38.56,24.69,195.21,-81.26,18.6
53.17115,-1.674692,216.35,4.71,2,220.47,22 / 22,1449814,2019-11-06 16:30:30:276,1.9577,-2.811,9.8574,0.0162,0.0082,9.8065,0.1482,-0.7184,0.2908,-1.06,-37.87,24.56,195.42,-81.51,20.97
53.17115,-1.674692,216.35,4.71,2,220.47,22 / 22,1449914,2019-11-06 16:30:30:376,2.2585,-0.2159,9.2377,0.1842,0.0496,9.8047,-0.0566,-1.082,0.5679,0.25,-38.25,24.56,194.55,-81.42,17.66
53.17115,-1.674692,216.35,4.71,2,220.47,22 / 22,1450014,2019-11-06 16:30:30:476,-13.1939,-3.0349,9.4147,0.0333,0.0727,9.8063,0.044,-0.7745,0.3553,-0.25,-38.19,23.44,195.98,-80.34,20.14
