GPS LATITUDE (degrees), GPS LONGITUDE (degrees), GPS ALTITUDE (m), GPS SPEED (Kmh), GPS ACCURACY (m), GPS ORIENTATION (Â°),GPS SATELLITES IN RANGE, TIME SINCE START (ms), DATE (YYYY-MO-DD HH-MI-SS_SSS), ACCELEROMETER X (m/s²) , ACCELEROMETER Y (m/s²), ACCELEROMETER Z (m/s²), GRAVITY X (m/s²), GRAVITY Y (m/s²), GRAVITY Z (m/s²), GYROSCOPE Yaw (rad/s), GYROSCOPE Pitch (rad/s), GYROSCOPE Roll (rad/s), MAGNETIC FIELD X (Î¼T), MAGNETIC FIELD Y (Î¼T), MAGNETIC FIELD Z (Î¼T), ORIENTATION (Yaw) (Â°), ORIENTATION (Pitch) (Â°), ORIENTATION (Roll ) (Â°)
52.895805,-1.77048,137.37,17.26,4,41.66,20 / 22,1181512,2019-11-06 12:05:35:393,-2.258,1.0211,9.7153,-0.0012,0.0382,9.8065,-0.0228,0.1237,-0.1567,-29.19,-36.06,3.06,269.35,-85.12,179.49
52.895805,-1.77048,137.37,17.26,4,41.66,20 / 22,1181611,2019-11-06 12:05:35:492,-2.5852,-0.3908,9.8456,0.0163,0.0122,9.8066,0.0215,0.3419,-0.043,-29.56,-36.37,1.88,268.75,-84.99,-179.04
52.895805,-1.77048,137.37,17.26,4,41.66,20 / 22,1181712,2019-11-06 12:05:35:593,-3.3709,3.7497,9.0434,-0.0095,0.0585,9.8064,0.1094,-0.2198,0.1524,-29.37,-37.25,1.75,270.97,-85.09,-176.7
52.895805,-1.77048,137.37,17.26,4,41.66,20 / 22,1181812,2019-11-06 12:05:35:693,-3.9293,0.2972,9.2928,-0.0276,0.041,9.8064,-0.1114,0.0819,0.0024,-28.94,-37.62,0.63,266.69,-85.21,-179.01
52.895805,-1.77048,137.37,17.26,4,41.66,20 / 22,1181912,2019-11-06 12:05:35:793,-1.1522,4.635,8.566,0.0161,0.0015,9.8066,0.1823,-0.3462,0.4488,-28.06,-37.12,1.44,266.36,-85.12,-179.24
52.895805,-1.77048,137.37,17.26,4,41.66,20 / 22,1182012,2019-11-06 12:05:35:893,-3.8691,-3.5402,11.2403,-0.0248,0.0676,9.8063,0.0334,-0.1725,-0.1052,-28.81,-36.94,1.63,267.87,-85.11,-179.84
52.895805,-1.77048,137.37,17.26,4,41.66,20 / 22,1182112,2019-11-06 12:05:35:993,-4.5359,2.9772,8.4382,0.018,-0.0231,9.8066,-0.1859,-0.3224,0.2439,-28.62,-37.62,1.06,267.34,-84.62,-177.57
52.895805,-1.77048,137.37,17.26,4,41.66,20 / 22,1182212,2019-11-06 12:05:36:093,-3.2043,-3.4017,10.5169,0.0156,0.0527,9.8065,0.2012,-0.0651,0.1327,-28.69,-37.19,1.31,263.8,-84.73,178.52
52.895805,-1.77048,137.37,17.26,4,41.66,20 / 22,1182312,2019-11-06 12:05:36:193,-6.2628,2.435,7.6067,-0.0038,0.0421,9.8065,0.1956,-0.2796,0.0721,-28.06,-37.69,0.75,267.69,-85.1,-177.7
52.895805,-1.77048,137.37,17.26,4,41.66,20 / 22,1182412,2019-11-06 12:05:36:293,-3.4408,-3.2717,8.5617,-0.0189,0.008,9.8065,-0.0691,-0.3303,0.1705,-29,-37.06,1.5,269.34,-84.99,-178.2
52.895805,-1.77048,137.37,17.26,4,41.66,21 / 21,1182512,2019-11-06 12:05:36:393,-2.8621,3.8064,9.3079,0.0149,-0.0668,9.8064,-0.0497,-0.203,0.2731,-28.25,-37.44,0.88,267.78,-84.71,-177.26
52.895805,-1.77048,137.37,17.26,4,41.66,21 / 21,1182612,2019-11-06 12:05:36:493,-2.2237,-0.431,9.0561,-0.0338,0.0225,9.8066,0.0315,-0.3117,0.1955,-28.94,-37.25,1.5,267.94,-85.03,-179.66
52.895805,-1.77048,137.37,17.26,4,41.66,21 / 21,1182711,2019-11-06 12:05:36:592,-4.1137,1.6237,9.1398,0.0022,-0.0099,9.8066,0.032,-0.0763,0.0173,-28.56,-36.87,1.19,268.72,-85.34,-177.29
52.895805,-1.77048,137.37,17.26,4,41.66,21 / 21,1182813,2019-11-06 12:05:36:694,-1.7225,-0.627,9.7695,-0.004,0.0024,9.8066,0.0085,-0.0951,0.1044,-29.06,-36.37,1.44,267.7,-85.41,-178.58
52.895805,-1.77048,137.37,17.26,4,41.66,21 / 21,1182912,2019-11-06 12:05:36:793,-2.236,0.294,9.2325,0.0124,0.0078,9.8066,0.0465,0.0493,-0.0076,-28.37,-37.19,1.69,268,-85.24,-179.8
52.895805,-1.77048,137.37,17.26,4,41.66,21 / 21,1183012,2019-11-06 12:05:36:893,-3.1101,0.5248,9.8303,0.0012,-0.0042,9.8066,0.0494,0.0419,-0.1658,-27.75,-37.69,1.31,266.19,-85.16,-179.29
52.895805,-1.77048,137.37,17.26,4,41.66,21 / 21,1183111,2019-11-06 12:05:36:992,-2.0247,-1.3278,10.3904,0.0011,-0.0034,9.8066,-0.0509,-0.0584,0.2128,-28.62,-37.19,0.88,265.68,-85.04,-179.97
52.895805,-1.77048,137.37,17.26,4,41.66,21 / 21,1183212,2019-11-06 12:05:37:093,-2.761,0.5078,10.3393,-0.0076,-0.006,9.8065,-0.009,0.103,-0.0099,-27.81,-37.37,1.88,265.44,-84.9,178.07
52.895805,-1.77048,137.37,17.26,4,41.66,21 / 21,1183312,2019-11-06 12:05:37:193,-1.0372,-0.9918,10.3677,-0.0252,0.008,9.8065,-0.0278,0.1306,-0.1199,-27.94,-37.37,2,263.48,-84.73,176.3
52.895805,-1.77048,137.37,17.26,4,41.66,21 / 21,1183412,2019-11-06 12:05:37:293,-0.7656,1.1825,9.5578,-0.0052,-0.0165,9.8065,-0.0276,0.2155,-0.0689,-27.56,-37.81,1.06,261.93,-84.68,177.03
52.895805,-1.77048,137.37,17.26,4,41.66,20 / 20,1183513,2019-11-06 12:05:37:394,0.2706,1.264,8.9373,-0.0353,0.0073,9.8065,-0.1134,0.0601,0.0813,-28,-37.12,1,262.22,-84.78,177
52.895805,-1.77048,137.37,17.26,4,41.66,20 / 20,1183612,2019-11-06 12:05:37:493,-2.5818,-3.2261,9.5783,-0.0245,-0.002,9.8066,-0.0333,0.3016,-0.24,-28.12,-36.87,0.88,264.06,-85.31,178.18
52.895805,-1.77048,137.37,17.26,4,41.66,20 / 20,1183712,2019-11-06 12:05:37:593,-0.9316,-1.6471,8.9336,-0.0283,0.0545,9.8064,0.0073,-0.0012,-0.0885,-27.44,-36.81,1.19,262.83,-85.77,176.46
52.895805,-1.77048,137.37,17.26,4,41.66,20 / 20,1183814,2019-11-06 12:05:37:695,-0.0762,2.1158,10.4755,0.0165,-0.0156,9.8066,0.1355,0.3444,-0.2007,-28.06,-37.25,1.81,268.76,-85.7,-179.64
52.895805,-1.77048,137.37,17.26,4,41.66,20 / 20,1183912,2019-11-06 12:05:37:793,-2.5521,2.5485,9.6745,0.006,0.0558,9.8065,0.0889,-0.1167,0.0973,-29.44,-36.06,2.06,265.45,-85.68,176.84
52.895805,-1.77048,137.37,17.26,4,41.66,20 / 20,1184012,2019-11-06 12:05:37:893,-1.2606,0.5578,9.026,-0.0103,0.0273,9.8065,-0.0247,0.095,-0.1474,-28.87,-35.31,2.25,267.32,-85.59,178.68
52.895805,-1.77048,137.37,17.26,4,41.66,20 / 20,1184112,2019-11-06 12:05:37:993,-1.0346,-1.8761,10.1431,-0.021,0.0126,9.8066,-0.0503,0.1914,-0.1217,-29.12,-36.12,1.44,264.42,-85.59,177.89
52.895805,-1.77048,137.37,17.26,4,41.66,20 / 20,1184212,2019-11-06 12:05:38:093,-1.3914,0.2362,9.9213,-0.0021,-0.0154,9.8066,-0.0816,0.2089,-0.0043,-28.37,-36.62,0.63,263.63,-85.77,177.14
52.895805,-1.77048,137.37,17.26,4,41.66,20 / 20,1184312,2019-11-06 12:05:38:193,-1.3783,-1.6996,10.336,-0.003,0.0042,9.8066,0.0353,0.0109,0.0324,-28.62,-36.81,0.69,263.62,-85.64,177.17
52.895805,-1.77048,137.37,17.26,4,41.66,20 / 20,1184412,2019-11-06 12:05:38:293,-0.2859,0.1851,9.8058,0.0012,0.0021,9.8066,-0.0974,0.1547,-0.0972,-27.87,-36.69,0.5,264.73,-85.54,178.56
52.895805,-1.77048,137.37,17.26,4,41.66,21 / 21,1184512,2019-11-06 12:05:38:393,-1.1721,-0.1604,9.625,-0.0373,0.0136,9.8065,-0.0324,0.0271,-0.0273,-27.62,-37.5,1.69,267.22,-85.81,178.66
52.895805,-1.77048,137.37,17.26,4,41.66,21 / 21,1184612,2019-11-06 12:05:38:493,0.6273,1.1899,9.5075,-0.018,0.0084,9.8066,-0.0804,0.1621,-0.0284,-28,-37.37,1.56,266.77,-85.95,178.01
52.895805,-1.77048,137.37,17.26,4,41.66,21 / 21,1184712,2019-11-06 12:05:38:593,-0.5569,0.9167,10.5669,-0.0148,0.015,9.8065,-0.0424,-0.1592,0.1214,-27.56,-37.56,1.19,264.73,-86.12,177.93
52.895805,-1.77048,137.37,17.26,4,41.66,21 / 21,1184812,2019-11-06 12:05:38:693,-0.5657,-1.6316,9.3072,-0.0002,0.036,9.8065,-0.0712,0.0844,-0.0017,-27.75,-37.31,1.13,262.71,-86.2,175.64
52.895805,-1.77048,137.37,17.26,4,41.66,21 / 21,1184911,2019-11-06 12:05:38:792,-1.0813,-0.9966,9.8635,0.0081,0.0149,9.8065,-0.0049,-0.118,0.0777,-27.94,-36.81,1.5,266.45,-86.16,177.43
52.895805,-1.77048,137.37,17.26,4,41.66,21 / 21,1185012,2019-11-06 12:05:38:893,-0.9616,-0.1677,9.6989,0.0037,0.0204,9.8066,-0.0265,0.0551,0.0219,-28.19,-37.37,1.56,267.02,-86.11,178.07
52.895805,-1.77048,137.37,17.26,4,41.66,21 / 21,1185112,2019-11-06 12:05:38:993,0.0213,1.9977,9.0705,-0.004,-0.0011,9.8066,0.0716,-0.2179,0.1512,-27.37,-37.25,1.56,267.7,-86.15,178.73
52.895805,-1.77048,137.37,17.26,4,41.66,21 / 21,1185212,2019-11-06 12:05:39:093,1.1843,3.3887,10.3744,0.0036,0.0353,9.8065,0.0081,0.2836,-0.1702,-27.31,-37.44,1.31,266.15,-86.07,179.4
52.895805,-1.77048,137.37,17.26,4,41.66,21 / 21,1185312,2019-11-06 12:05:39:193,1.048,-0.0543,10.6462,0.0081,-0.0318,9.8066,-0.0193,-0.1887,0.1371,-28,-37,1.5,270.27,-85.97,-178.49
52.895805,-1.77048,137.37,17.26,4,41.66,21 / 21,1185412,2019-11-06 12:05:39:293,1.6537,-3.955,10.2707,-0.0901,0.0207,9.8061,0.145,-0.5092,0.2328,-29,-35.37,2,271.91,-86.39,-177.67
52.895805,-1.77048,137.37,17.26,4,41.66,24 / 24,1185512,2019-11-06 12:05:39:393,-0.0328,0.7942,8.8586,0.0128,0.0153,9.8066,0.0043,-0.2522,0.1345,-28.94,-34.75,1.5,273.43,-86.26,-176.01
52.895805,-1.77048,137.37,17.26,4,41.66,24 / 24,1185612,2019-11-06 12:05:39:493,-2.2666,4.5607,10.0873,-0.0071,0.0919,9.8061,-0.0167,-0.4195,0.2126,-28.31,-35.94,1.13,270.2,-86.29,-177.06
52.895805,-1.77048,137.37,17.26,4,41.66,24 / 24,1185712,2019-11-06 12:05:39:593,0.341,2.8124,9.9066,0.0022,0.0929,9.8061,-0.0646,0.5457,-0.3291,-28.44,-35.94,0.88,259.77,-86.2,172.52
52.895805,-1.77048,137.37,17.26,4,41.66,24 / 24,1185812,2019-11-06 12:05:39:693,-2.715,2.784,9.3615,-0.0116,0.0594,9.8064,-0.0497,-0.1362,0.0615,-27.81,-36.69,0.38,252.93,-86.1,167.83
52.895805,-1.77048,137.37,17.26,4,41.66,24 / 24,1185912,2019-11-06 12:05:39:793,-1.1727,-5.6623,11.0271,-0.0357,0.0937,9.8061,-0.1296,0.6025,-0.3497,-27.69,-37,0.88,251.61,-86.2,164.3
52.895805,-1.77048,137.37,17.26,4,41.66,24 / 24,1186012,2019-11-06 12:05:39:893,-2.5118,0.0891,9.5625,0.0112,0.0307,9.8066,-0.0021,0.0328,-0.0613,-27.19,-37.12,1.06,250.92,-86.05,163.88
52.895805,-1.77048,137.37,17.26,4,41.66,24 / 24,1186114,2019-11-06 12:05:39:995,1.8986,-4.2377,10.8179,0.0578,-0.0428,9.8063,-0.0679,0.5514,-0.3263,-27.56,-37.56,0.88,249.17,-85.88,162.31
52.895805,-1.77048,137.37,17.26,4,41.66,24 / 24,1186214,2019-11-06 12:05:40:095,-0.389,2.4713,9.464,0.0237,-0.0007,9.8066,-0.0796,0.376,-0.1078,-27.19,-37.75,0.88,249.23,-85.55,162.92
52.895805,-1.77048,137.37,17.26,4,41.66,24 / 24,1186312,2019-11-06 12:05:40:193,1.6432,-2.8765,9.7858,-0.033,0.0229,9.8065,-0.1262,0.1923,-0.1979,-27.25,-37,1.13,248.37,-85.56,161.87
52.895805,-1.77048,137.37,17.26,4,41.66,24 / 24,1186412,2019-11-06 12:05:40:293,-0.2836,2.0559,9.2853,-0.0173,-0.0315,9.8065,-0.1306,0.3802,-0.2033,-26.75,-37.5,1.06,249.73,-86.05,162.65
52.895805,-1.77048,137.37,17.26,4,41.66,22 / 22,1186512,2019-11-06 12:05:40:393,-1.7885,2.0405,9.6331,-0.0171,-0.018,9.8066,-0.0408,-0.0902,0.1499,-26.5,-37.94,0.44,245.48,-86.28,160.39
52.895805,-1.77048,137.37,17.26,4,41.66,22 / 22,1186612,2019-11-06 12:05:40:493,-3.5727,1.6898,9.1059,0.0336,-0.0391,9.8065,-0.1071,0.3711,-0.1356,-26.5,-37.5,0.31,248.03,-86.24,162.97
52.895805,-1.77048,137.37,17.26,4,41.66,22 / 22,1186712,2019-11-06 12:05:40:593,2.6336,3.5147,9.9944,0.022,-0.058,9.8064,0.0169,-0.2641,0.283,-26.69,-37.62,0.56,249.52,-86.11,162.5
52.895805,-1.77048,137.37,17.26,4,41.66,22 / 22,1186812,2019-11-06 12:05:40:693,0.5041,-2.3285,9.6424,0.015,-0.0257,9.8065,0.0701,0.0443,-0.1029,-26.75,-37.44,0.94,246.57,-85.68,159.83
52.895805,-1.77048,137.37,17.26,4,41.66,22 / 22,1186912,2019-11-06 12:05:40:793,2.9159,1.4625,10.0097,0.0027,-0.0297,9.8066,-0.0474,0.2858,-0.1493,-27.31,-37.12,1.38,247.85,-85.46,161.44
52.895805,-1.77048,137.37,17.26,4,41.66,22 / 22,1187012,2019-11-06 12:05:40:893,-1.1772,-3.3024,10.0336,-0.0211,0.0245,9.8066,-0.0763,-0.2413,0.1695,-26.19,-37.37,0.88,243.88,-85.66,157.17
52.895805,-1.77048,137.37,17.26,4,41.66,22 / 22,1187111,2019-11-06 12:05:40:992,-0.7371,0.1597,9.2066,-0.0079,-0.0072,9.8066,-0.027,-0.1367,0.1098,-26.44,-36.62,0.25,241.07,-86,156
52.895805,-1.77048,137.37,17.26,4,41.66,22 / 22,1187212,2019-11-06 12:05:41:093,1.4284,2.2057,10.5381,0.0045,0.0482,9.8064,-0.0783,-0.1743,0.1709,-26.56,-37.44,0.56,238.13,-86.17,150.41
52.895805,-1.77048,137.37,17.26,4,41.66,22 / 22,1187311,2019-11-06 12:05:41:192,3.2985,1.2332,9.9619,-0.0113,0.0076,9.8066,-0.0084,0.1243,-0.0651,-26,-37,0.25,235.43,-86.32,149.7
52.895805,-1.77048,137.37,17.26,4,41.66,22 / 22,1187412,2019-11-06 12:05:41:293,-3.1745,0.9429,9.6523,0.0163,0.0272,9.8066,0.0514,-0.1294,0.0994,-26.19,-36.62,-0.12,235.98,-86.12,150.51
52.895805,-1.77048,137.37,17.26,4,41.66,23 / 24,1187512,2019-11-06 12:05:41:393,0.3704,-1.3082,9.9715,-0.018,0.0179,9.8066,-0.0412,0.2009,-0.0759,-26,-37.31,0.69,237.44,-85.96,150.03
52.895805,-1.77048,137.37,17.26,4,41.66,23 / 24,1187612,2019-11-06 12:05:41:493,1.0509,-0.6255,9.644,0.0181,0.012,9.8066,0.0474,0.0021,0.0529,-26.25,-36.94,0.38,236.15,-85.97,150.85
52.895805,-1.77048,137.37,17.26,4,41.66,23 / 24,1187712,2019-11-06 12:05:41:593,0.9329,-1.0056,10.0064,-0.0076,0.0231,9.8066,-0.0093,0.1588,-0.0233,-26,-36.87,0.13,236.62,-86.04,151.27
52.895805,-1.77048,137.37,17.26,4,41.66,23 / 24,1187812,2019-11-06 12:05:41:693,-0.815,-0.0117,9.9622,0.0066,-0.0029,9.8066,-0.0818,0.0298,-0.0317,-26.31,-37.44,1,240.25,-86.26,152.62
52.895805,-1.77048,137.37,17.26,4,41.66,23 / 24,1187912,2019-11-06 12:05:41:793,0.1877,-0.3424,9.9757,-0.0051,0.013,9.8066,0.0248,0.0798,0.0005,-27.19,-36.87,0.94,239.74,-86.33,151.92
52.895805,-1.77048,137.37,17.26,4,41.66,23 / 24,1188012,2019-11-06 12:05:41:893,-0.3165,1.3285,9.9082,0.0053,-0.0129,9.8066,-0.0718,0.1829,-0.1395,-26,-37.75,0.06,237.71,-86.41,152.11
52.895805,-1.77048,137.37,17.26,4,41.66,23 / 24,1188112,2019-11-06 12:05:41:993,-0.4713,-0.0197,9.2495,0.0069,0.018,9.8065,0.0907,0.0176,-0.0871,-25.94,-37.37,0,234.74,-86.42,148.86
52.895805,-1.77048,137.37,17.26,4,41.66,23 / 24,1188212,2019-11-06 12:05:42:093,0.3813,1.148,9.4218,0.0154,0.0016,9.8066,-0.0313,0.1244,-0.0465,-26.06,-37.25,0.38,235.77,-86.42,149.94
52.895805,-1.77048,137.37,17.26,4,41.66,23 / 24,1188312,2019-11-06 12:05:42:193,0.3984,0.4146,9.6489,0.0073,-0.0066,9.8066,0.0165,-0.0891,0.0432,-26.19,-36.81,0.13,235.21,-86.46,149.31
52.895805,-1.77048,137.37,17.26,4,41.66,23 / 24,1188412,2019-11-06 12:05:42:293,0.0666,-1.3089,10.4256,-0.0172,-0.0126,9.8066,0.0213,0.0571,-0.0528,-26.25,-36.12,0.5,237.55,-86.62,149.25
52.895805,-1.77048,137.37,17.26,4,41.66,24 / 24,1188512,2019-11-06 12:05:42:393,1.059,0.8744,9.552,-0.0048,-0.0098,9.8066,-0.0047,0.1527,-0.0436,-26.25,-37.56,0.56,236.59,-86.76,148.29
52.895805,-1.77048,137.37,17.26,4,41.66,24 / 24,1188612,2019-11-06 12:05:42:493,1.7687,-1.988,9.873,0.017,0.0047,9.8066,0.0135,0.0266,0.1061,-26.12,-37.19,-0.25,236.34,-86.6,150.34
52.895805,-1.77048,137.37,17.26,4,41.66,24 / 24,1188712,2019-11-06 12:05:42:593,0.7284,1.5666,10.4606,0.0267,-0.0393,9.8065,-0.0504,-0.1153,0.1707,-26,-38.06,0.38,239.64,-86.52,153.99
52.895805,-1.77048,137.37,17.26,4,41.66,24 / 24,1188812,2019-11-06 12:05:42:693,0.8789,-0.9273,10.4402,0.0048,-0.0199,9.8066,-0.0026,-0.106,-0.0271,-26.12,-37.06,0.44,237.93,-86.42,152.21
52.895805,-1.77048,137.37,17.26,4,41.66,24 / 24,1188912,2019-11-06 12:05:42:793,1.1443,1.434,10.2751,-0.0227,0.0004,9.8066,-0.0483,-0.1511,0.0345,-25.56,-37.25,0.81,240.96,-86.49,153.09
52.895805,-1.77048,137.37,17.26,4,41.66,24 / 24,1189012,2019-11-06 12:05:42:893,0.1766,-0.2552,9.4575,-0.0101,0.0318,9.8065,-0.0006,-0.1277,0.1726,-26.12,-37.25,1.25,240.35,-86.49,152.45
52.895805,-1.77048,137.37,17.26,4,41.66,24 / 24,1189112,2019-11-06 12:05:42:993,-1.1138,0.1465,9.4994,-0.0213,-0.0292,9.8065,0.0595,-0.0121,0.013,-27.5,-36.75,0.81,242.92,-86.67,154.82
52.895805,-1.77048,137.37,17.26,4,41.66,24 / 24,1189212,2019-11-06 12:05:43:093,2.5336,0.1826,9.6967,-0.0119,0.0044,9.8066,0.0722,-0.2069,0.0555,-26.37,-36.75,0.5,241.91,-86.6,153.94
52.895805,-1.77048,137.37,17.26,4,41.66,24 / 24,1189312,2019-11-06 12:05:43:193,0.4443,-2.129,10.3184,-0.0052,0.0287,9.8066,-0.0301,0.1525,0.0049,-26.56,-36.94,0.19,240.74,-86.56,154.81
52.895805,-1.77048,137.37,17.26,4,41.66,24 / 24,1189412,2019-11-06 12:05:43:293,0.8619,-0.9316,10.524,-0.0149,0.0076,9.8066,0.0705,-0.0432,0.0761,-26.06,-37.75,-0.06,244.58,-86.59,159.05
52.895805,-1.77048,137.37,17.26,4,41.66,23 / 23,1189513,2019-11-06 12:05:43:394,-0.1141,-1.1224,9.5023,-0.0061,0.0035,9.8066,0.112,0.1018,-0.0995,-25.94,-37.31,0,244.92,-86.65,159.2
52.895805,-1.77048,137.37,17.26,4,41.66,23 / 23,1189612,2019-11-06 12:05:43:493,1.8089,1.4013,10.5788,0.0123,0.0052,9.8066,-0.0191,-0.0942,0.1401,-24.87,-37.25,0.38,247.15,-86.62,161.73
52.895805,-1.77048,137.37,17.26,4,41.66,23 / 23,1189712,2019-11-06 12:05:43:593,1.4364,0.0087,10.2419,0.004,0.0135,9.8066,0.0652,-0.0181,-0.0474,-24.94,-37.37,3.25,255.58,-86.77,163.33
52.895805,-1.77048,137.37,17.26,4,41.66,23 / 23,1189812,2019-11-06 12:05:43:693,1.3056,0.9631,10.2212,-0.0134,-0.0201,9.8066,0.0233,-0.0666,0.0899,-29.81,-36.06,2.75,257.01,-86.81,165
52.895805,-1.77048,137.37,17.26,4,41.66,23 / 23,1189912,2019-11-06 12:05:43:793,-0.4666,-0.0959,10.0332,-0.0075,0.0007,9.8066,-0.0045,-0.0648,0.0017,-28.44,-36.87,-0.06,253.38,-86.9,167.29
52.895805,-1.77048,137.37,17.26,4,41.66,23 / 23,1190011,2019-11-06 12:05:43:892,-1.0054,0.8555,9.8244,0.0121,-0.0091,9.8066,0.0317,0.0497,-0.1215,-27.5,-37.75,0.69,259.05,-86.92,171.18
52.895805,-1.77048,137.37,17.26,4,41.66,23 / 23,1190111,2019-11-06 12:05:43:992,1.3824,0.3722,9.4783,0.0104,-0.0309,9.8066,0.0012,0.0584,0.1069,-27.12,-37.56,0.5,260.43,-86.82,172.72
52.895805,-1.77048,137.37,17.26,4,41.66,23 / 23,1190211,2019-11-06 12:05:44:092,-0.8861,0.4608,8.8784,0.0106,0.0031,9.8066,0.1344,0.0285,-0.0168,-27.25,-37.06,0.38,258.75,-86.68,173.2
52.895805,-1.77048,137.37,17.26,4,41.66,23 / 23,1190312,2019-11-06 12:05:44:193,-0.8658,-1.2874,10.5023,-0.0111,-0.0258,9.8066,-0.0127,-0.0912,0.1389,-27.94,-36.87,0.69,265.21,-86.67,177.55
52.895805,-1.77048,137.37,17.26,4,41.66,23 / 23,1190412,2019-11-06 12:05:44:293,-0.2341,0.5413,10.2472,0.0118,-0.0147,9.8065,0.0184,0.0179,-0.0216,-27.56,-36.87,0.25,268.15,-86.51,-177.24
52.896706,-1.769315,140.96,15.7,4,35.09,23 / 23,1190512,2019-11-06 12:05:44:393,2.1444,-0.387,12.0073,0.0434,-0.0154,9.8065,0.0123,-0.0454,-0.0143,-27.25,-37.5,0.56,270.14,-86.01,-176.51
52.896706,-1.769315,140.96,15.7,4,35.09,23 / 23,1190612,2019-11-06 12:05:44:493,1.2196,0.4941,10.4504,-0.0104,0.0191,9.8066,-0.0286,-0.0324,0.0177,-27.06,-36.56,0.56,262.53,-85.6,176.39
52.896706,-1.769315,140.96,15.7,4,35.09,23 / 23,1190712,2019-11-06 12:05:44:593,1.3841,-1.6472,9.5824,-0.0117,0.0433,9.8065,-0.0032,-0.219,-0.0392,-26.12,-36,1.81,259.52,-85.56,171.13
52.896706,-1.769315,140.96,15.7,4,35.09,23 / 23,1190812,2019-11-06 12:05:44:693,0.3438,-0.5761,9.1762,-0.024,-0.0082,9.8065,-0.0856,0.1669,-0.0688,-26.81,-35.44,2.44,255.69,-85.75,166.76
52.896706,-1.769315,140.96,15.7,4,35.09,23 / 23,1190912,2019-11-06 12:05:44:793,0.6168,2.3722,8.9126,0.0052,-0.0326,9.8065,-0.0517,-0.0409,0.009,-28.19,-35.94,1.88,255.66,-85.95,166.58
52.896706,-1.769315,140.96,15.7,4,35.09,23 / 23,1191012,2019-11-06 12:05:44:893,0.8679,-0.1059,9.7262,0.0091,-0.0324,9.8065,-0.0772,0.2349,-0.0646,-28.19,-36.37,0.94,256.82,-86.02,169.74
52.896706,-1.769315,140.96,15.7,4,35.09,23 / 23,1191111,2019-11-06 12:05:44:992,-1.2278,0.0049,11.067,0.0361,-0.0444,9.8065,0.0361,0.0275,-0.0162,-27.81,-37,0.88,259.61,-85.91,172.86
52.896706,-1.769315,140.96,15.7,4,35.09,23 / 23,1191212,2019-11-06 12:05:45:093,0.5416,-1.2497,10.3245,0.0058,0.0095,9.8066,-0.0169,0.108,-0.0288,-27.25,-37.31,1.06,260.18,-85.91,173.57
52.896706,-1.769315,140.96,15.7,4,35.09,23 / 23,1191312,2019-11-06 12:05:45:193,1.8327,1.7505,9.6853,0.0126,0.0066,9.8066,-0.0042,0.2345,-0.2238,-27,-37.56,1,259.23,-85.71,173.02
52.896706,-1.769315,140.96,15.7,4,35.09,23 / 23,1191412,2019-11-06 12:05:45:293,-0.5565,-1.2642,9.0914,-0.028,0.0319,9.8065,-0.0072,-0.0315,-0.0485,-27.06,-37.44,0.88,256.98,-86.16,169.96
52.896706,-1.769315,140.96,15.7,4,35.09,23 / 23,1191513,2019-11-06 12:05:45:394,1.2528,-1.173,9.811,-0.0274,0,9.8066,-0.0537,0.1257,-0.1185,-27.25,-37.62,0.88,257.42,-86.38,170.25
52.896706,-1.769315,140.96,15.7,4,35.09,23 / 23,1191612,2019-11-06 12:05:45:493,1.6255,-1.9971,10.0134,0.0021,0.0222,9.8066,-0.0013,-0.2549,0.1001,-27.5,-37.25,0.88,255.76,-86.48,168.3
52.896706,-1.769315,140.96,15.7,4,35.09,23 / 23,1191712,2019-11-06 12:05:45:593,0.0067,0.263,10.185,0.0008,0.0116,9.8066,-0.0102,0.0198,0.0652,-27.56,-37.75,1.25,257.15,-86.51,169.71
52.896706,-1.769315,140.96,15.7,4,35.09,23 / 23,1191812,2019-11-06 12:05:45:693,0.0224,1.4305,9.9463,-0.0107,0.0105,9.8066,0.0405,-0.0987,-0.0149,-26.75,-37.37,1.06,258.23,-86.5,170.79
52.896706,-1.769315,140.96,15.7,4,35.09,23 / 23,1191912,2019-11-06 12:05:45:793,0.6226,0.8665,9.8091,-0.0055,0.0292,9.8065,-0.0045,0.2032,-0.1518,-26.56,-37.12,1.13,256.04,-86.52,168.53
52.896706,-1.769315,140.96,15.7,4,35.09,23 / 23,1192011,2019-11-06 12:05:45:892,0.001,1.7473,9.1544,-0.0029,0.0335,9.8066,-0.111,0.0109,0.0663,-26.75,-37.75,0.75,254.21,-86.57,166.71
52.896706,-1.769315,140.96,15.7,4,35.09,23 / 23,1192113,2019-11-06 12:05:45:994,-0.5015,-1.5168,9.8971,-0.0114,0.0293,9.8066,0.0446,-0.2189,0.0298,-27.06,-36.87,0.38,252.02,-86.69,166.31
52.896706,-1.769315,140.96,15.7,4,35.09,23 / 23,1192211,2019-11-06 12:05:46:092,-0.8588,2.1591,9.2345,-0.0023,-0.0209,9.8066,-0.0908,0.2693,-0.1494,-27.06,-38,0.94,253.89,-86.65,166.29
52.896706,-1.769315,140.96,15.7,4,35.09,23 / 23,1192312,2019-11-06 12:05:46:193,-0.4501,-0.7286,9.8942,-0.0174,0.0139,9.8065,-0.0563,0.0638,0.0078,-26.06,-37.87,0.69,251.6,-86.85,163.75
52.896706,-1.769315,140.96,15.7,4,35.09,23 / 23,1192412,2019-11-06 12:05:46:293,0.083,-1.2129,9.8149,-0.0026,-0.0277,9.8065,-0.0196,0.1701,-0.123,-26.94,-37.25,0.94,249.15,-86.83,161.06
52.896706,-1.769315,140.96,15.7,4,35.09,24 / 24,1192512,2019-11-06 12:05:46:393,-3.3201,0.1763,9.3951,-0.0079,-0.019,9.8065,-0.062,0.0707,-0.0412,-26.87,-37.31,0.44,247.61,-86.98,161.41
52.896706,-1.769315,140.96,15.7,4,35.09,24 / 24,1192612,2019-11-06 12:05:46:493,-4.9809,-0.9308,9.7316,-0.0036,0.0303,9.8065,-0.0818,0.0218,0.1726,-26.56,-38.12,0.19,242.78,-87.19,156.28
52.896706,-1.769315,140.96,15.7,4,35.09,24 / 24,1192712,2019-11-06 12:05:46:593,-4.7788,-0.896,9.6315,-0.0225,-0.0075,9.8065,0.043,0.1131,-0.1289,-26.56,-37.87,0.25,242.61,-87.4,155.84
52.896706,-1.769315,140.96,15.7,4,35.09,24 / 24,1192812,2019-11-06 12:05:46:693,-5.0119,1.1314,10.0094,0.009,0.0099,9.8066,-0.1269,0.036,0.0203,-26.5,-37.81,0,237.65,-87.44,150.79
52.896706,-1.769315,140.96,15.7,4,35.09,24 / 24,1192912,2019-11-06 12:05:46:793,-5.0551,0.9215,8.6963,-0.0093,0.006,9.8065,0.007,-0.0074,0.1587,-26.37,-37.19,-0.12,237.87,-87.61,150.74
52.896706,-1.769315,140.96,15.7,4,35.09,24 / 24,1193012,2019-11-06 12:05:46:893,-3.3289,-0.4307,10.045,-0.0089,-0.023,9.8065,0.051,0.0203,-0.0591,-25.62,-37.56,-0.06,241,-87.5,154.18
52.896706,-1.769315,140.96,15.7,4,35.09,24 / 24,1193112,2019-11-06 12:05:46:993,-3.2482,0.2928,9.5592,0.0105,-0.0269,9.8065,-0.0039,-0.0654,0.0615,-26.31,-37.25,-0.75,243.2,-87.56,158.48
52.896706,-1.769315,140.96,15.7,4,35.09,24 / 24,1193212,2019-11-06 12:05:47:093,-2.8851,0.8704,9.9289,-0.0168,-0.0063,9.8065,0.0697,0.089,-0.0789,-26,-37.56,0,246.59,-87.62,159.77
52.896706,-1.769315,140.96,15.7,4,35.09,24 / 24,1193312,2019-11-06 12:05:47:193,-4.5785,0.1362,8.7295,0.0049,-0.0116,9.8066,0.1263,-0.0928,-0.037,-25.94,-37.69,0.13,244.25,-87.57,157.44
52.896706,-1.769315,140.96,15.7,4,35.09,24 / 24,1193412,2019-11-06 12:05:47:293,-2.975,0.2885,10.8294,-0.002,-0.0175,9.8066,-0.0016,0.1402,-0.0688,-25.81,-37.81,-0.19,242.55,-87.67,155.56
52.896706,-1.769315,140.96,15.7,4,35.09,20 / 21,1193512,2019-11-06 12:05:47:393,-5.0421,-2.1648,9.8926,0.0196,-0.0053,9.8065,0.1119,0.0161,0.0289,-26.19,-37.56,-0.12,243.72,-87.73,156.67
52.896706,-1.769315,140.96,15.7,4,35.09,20 / 21,1193612,2019-11-06 12:05:47:493,-1.3121,0.647,10.2422,0.0197,-0.0568,9.8064,0.0061,0.3201,-0.1575,-26.81,-37.25,-0.94,242.72,-87.77,157.53
52.896706,-1.769315,140.96,15.7,4,35.09,20 / 21,1193712,2019-11-06 12:05:47:593,-1.3277,3.2342,8.9446,0.0249,-0.0421,9.8065,0.1307,-0.1984,0.1577,-26.94,-36.56,-0.44,256.09,-87.74,169.09
52.896706,-1.769315,140.96,15.7,4,35.09,20 / 21,1193812,2019-11-06 12:05:47:693,-2.2866,1.9871,9.1772,0.0361,-0.0706,9.8062,-0.0073,0.2817,-0.1629,-26.87,-36.69,-0.12,266.94,-87.54,-179.69
52.896706,-1.769315,140.96,15.7,4,35.09,20 / 21,1193912,2019-11-06 12:05:47:793,-0.8533,2.0707,9.9219,0.0308,-0.0713,9.8062,0.024,-0.5062,0.3012,-26.87,-37.19,-0.12,269.97,-87.41,-176.47
52.896706,-1.769315,140.96,15.7,4,35.09,20 / 21,1194012,2019-11-06 12:05:47:893,-0.7039,-4.5723,10.2924,0.0097,-0.0124,9.8066,0.0264,-0.0603,0.0867,-26.87,-36.94,-0.06,273.14,-87.4,-173.3
52.896706,-1.769315,140.96,15.7,4,35.09,20 / 21,1194112,2019-11-06 12:05:47:993,-0.4245,1.2273,10.5372,0.0408,-0.0675,9.8063,0.0467,-0.3898,0.2753,-26.81,-37.19,0,275.78,-87.16,-170.34
52.896706,-1.769315,140.96,15.7,4,35.09,20 / 21,1194212,2019-11-06 12:05:48:093,-0.7091,-3.8021,10.6809,-0.0045,0.0177,9.8066,0.0272,-0.3267,0.1668,-27.06,-37.06,0.13,274.24,-87.18,-171.9
52.896706,-1.769315,140.96,15.7,4,35.09,20 / 21,1194312,2019-11-06 12:05:48:193,-0.8185,0.2427,9.7694,0.004,-0.0078,9.8066,0.0805,-0.1508,0.1451,-27.12,-37.06,0,273.99,-87.25,-172.24
52.896706,-1.769315,140.96,15.7,4,35.09,20 / 21,1194412,2019-11-06 12:05:48:293,-0.2622,1.6528,9.2747,0.0026,0.0284,9.8066,0.1141,-0.2566,0.1053,-26.62,-36.69,0.38,270.03,-87.13,-176.03
52.896706,-1.769315,140.96,15.7,4,35.09,21 / 21,1194512,2019-11-06 12:05:48:393,0.8124,1.51,9.4317,0.0257,0.0172,9.8066,-0.0468,0.079,-0.0552,-26.87,-36.94,0.56,271.48,-86.89,-176.38
52.896706,-1.769315,140.96,15.7,4,35.09,21 / 21,1194612,2019-11-06 12:05:48:493,0.6959,0.3348,9.9152,-0.0143,0.025,9.8066,0.071,-0.1571,0.091,-27.19,-36.87,0.5,269.45,-86.95,-178.49
52.896706,-1.769315,140.96,15.7,4,35.09,21 / 21,1194712,2019-11-06 12:05:48:593,1.5468,-1.9126,10.0228,-0.0145,0.0221,9.8065,-0.0508,0.2589,-0.1397,-26.37,-36.87,0.63,269.91,-86.93,-177.92
52.896706,-1.769315,140.96,15.7,4,35.09,21 / 21,1194812,2019-11-06 12:05:48:693,1.2578,0.0561,9.8165,-0.0074,0.0001,9.8066,0.0375,0.0511,-0.0256,-27.06,-37.19,0,267.63,-86.88,-178.09
52.896706,-1.769315,140.96,15.7,4,35.09,21 / 21,1194912,2019-11-06 12:05:48:793,0.4973,-2.005,10.2793,0.0002,0.0409,9.8065,0.014,0.2048,-0.1057,-26.81,-37.31,0,266.18,-86.84,-179.5
52.896706,-1.769315,140.96,15.7,4,35.09,21 / 21,1195012,2019-11-06 12:05:48:893,1.0518,1.1062,10.025,0.0254,0.0036,9.8065,-0.1046,0.1367,-0.0827,-27.31,-36.94,0.5,269.45,-86.61,-178.01
52.896706,-1.769315,140.96,15.7,4,35.09,21 / 21,1195113,2019-11-06 12:05:48:994,-0.0996,-2.2999,10.6022,0.0025,0.0178,9.8066,0.065,0.1511,-0.1104,-26.56,-36.81,0.06,266.24,-86.66,-179.19
52.896706,-1.769315,140.96,15.7,4,35.09,21 / 21,1195211,2019-11-06 12:05:49:092,0.9006,0.9077,9.8709,0.0274,-0.0248,9.8065,-0.0707,0.2518,-0.1403,-26.69,-35.69,1.25,268.33,-86.71,-179.4
52.896706,-1.769315,140.96,15.7,4,35.09,21 / 21,1195311,2019-11-06 12:05:49:192,-0.3282,0.7154,9.1826,0.0215,0.0073,9.8065,0.0726,-0.0484,-0.0054,-28.31,-34.31,1.5,270.19,-86.52,-179.67
52.896706,-1.769315,140.96,15.7,4,35.09,21 / 21,1195412,2019-11-06 12:05:49:293,1.713,1.4816,10.1715,-0.0097,-0.0238,9.8066,0.0269,0.1264,-0.1269,-28.69,-34.69,0.38,267.85,-86.68,-178.14
52.896706,-1.769315,140.96,15.7,4,35.09,20 / 21,1195512,2019-11-06 12:05:49:393,-0.3872,0.9296,9.4477,0.005,-0.0099,9.8066,0.0242,-0.212,0.0945,-27.44,-36.06,-0.56,264.05,-86.72,-179.48
52.896706,-1.769315,140.96,15.7,4,35.09,20 / 21,1195613,2019-11-06 12:05:49:494,0.8752,-1.4831,9.9335,-0.0092,-0.0018,9.8066,0.0508,-0.2243,0.0781,-27.06,-35.81,0,265.96,-86.79,-179.77
52.896706,-1.769315,140.96,15.7,4,35.09,20 / 21,1195711,2019-11-06 12:05:49:592,0.1556,-1.2303,10.4332,-0.0212,-0.0207,9.8066,0.0526,0.1343,-0.0666,-26.81,-36.12,0.19,268.1,-86.9,-177.77
52.896706,-1.769315,140.96,15.7,4,35.09,20 / 21,1195812,2019-11-06 12:05:49:693,0.4973,-2.2812,10.6373,-0.0377,0.0113,9.8065,0.0888,-0.2706,0.0946,-26.69,-36.44,0.75,270.43,-86.97,-177.65
52.896706,-1.769315,140.96,15.7,4,35.09,20 / 21,1195912,2019-11-06 12:05:49:793,1.2394,-1.0179,9.9718,-0.0187,-0.0091,9.8065,-0.0099,0.0395,-0.0539,-27.25,-36.94,0.63,270.15,-87.25,-178.21
52.896706,-1.769315,140.96,15.7,4,35.09,20 / 21,1196012,2019-11-06 12:05:49:893,0.9375,2.5949,9.1747,-0.0149,0.032,9.8065,0.0767,-0.2365,0.1699,-26.75,-37,0.19,265.24,-87.28,178.95
52.896706,-1.769315,140.96,15.7,4,35.09,20 / 21,1196112,2019-11-06 12:05:49:993,1.3688,-0.2789,10.5437,-0.015,0.0255,9.8065,-0.09,0.1559,-0.0962,-26.44,-37.12,0.25,267.77,-87.28,-178.35
52.896706,-1.769315,140.96,15.7,4,35.09,20 / 21,1196212,2019-11-06 12:05:50:093,0.6345,2.3795,8.8978,-0.0065,0.0307,9.8066,0.0103,-0.1752,0.1186,-26.69,-37.19,0.44,268.54,-87.21,-177.63
52.896706,-1.769315,140.96,15.7,4,35.09,20 / 21,1196312,2019-11-06 12:05:50:193,0.3302,1.0291,9.9194,-0.0331,0.0309,9.8065,-0.1153,0.357,-0.1723,-26.75,-37.37,-0.06,269.99,-87.28,-176.27
52.896706,-1.769315,140.96,15.7,4,35.09,20 / 21,1196412,2019-11-06 12:05:50:293,-0.7589,2.6664,9.3961,-0.0116,0.0281,9.8065,0.0413,-0.0788,0.0744,-26.62,-37,0.19,273.44,-87.19,-172.71
52.896706,-1.769315,140.96,15.7,4,35.09,21 / 21,1196512,2019-11-06 12:05:50:393,1.2126,-3.5996,10.001,0.015,-0.0399,9.8065,0.0663,-0.4254,0.2169,-26.5,-36.69,0.31,274.2,-87.07,-171.63
52.896706,-1.769315,140.96,15.7,4,35.09,21 / 21,1196612,2019-11-06 12:05:50:493,0.1203,-0.9238,8.7354,0.0003,-0.0671,9.8064,-0.1156,-0.1038,0.1599,-26.87,-36.69,-0.06,277.86,-87.11,-168.2
52.896706,-1.769315,140.96,15.7,4,35.09,21 / 21,1196712,2019-11-06 12:05:50:593,1.2793,-1.966,10.1925,-0.0003,-0.0681,9.8064,-0.0254,0.5205,-0.2286,-26.69,-35.94,0.25,275.8,-87.22,-170.49
52.896706,-1.769315,140.96,15.7,4,35.09,21 / 21,1196812,2019-11-06 12:05:50:693,0.0997,5.3087,9.3215,0.0597,-0.0449,9.8063,0.1525,0.094,-0.2352,-27.44,-35.94,0.81,280.25,-86.92,-167.81
52.896706,-1.769315,140.96,15.7,4,35.09,21 / 21,1196912,2019-11-06 12:05:50:793,1.5978,-1.9946,10.7641,-0.0268,0.0359,9.8065,0.0442,0.1926,-0.2418,-26.94,-36.19,1,271.81,-86.7,-175.9
52.896706,-1.769315,140.96,15.7,4,35.09,21 / 21,1197012,2019-11-06 12:05:50:893,1.5,0.8961,9.1664,-0.0359,-0.0092,9.8065,-0.1271,0.3043,-0.0597,-26.5,-37.12,0,266.82,-86.79,-178.62
52.896706,-1.769315,140.96,15.7,4,35.09,21 / 21,1197112,2019-11-06 12:05:50:993,-2.193,1.033,10.0933,-0.0111,0.0313,9.8065,-0.051,-0.034,0.022,-26.5,-36.94,-0.37,261.36,-86.9,175.72
52.896706,-1.769315,140.96,15.7,4,35.09,21 / 21,1197212,2019-11-06 12:05:51:093,0.586,0.182,10.3818,-0.0029,0.0041,9.8066,0.0872,0.0268,-0.0324,-26.69,-36.94,-0.19,263.91,-86.98,178.02
52.896706,-1.769315,140.96,15.7,4,35.09,21 / 21,1197312,2019-11-06 12:05:51:193,-1.1876,1.1072,9.8501,0.0007,-0.0163,9.8066,0.0944,-0.1798,0.1033,-26.94,-37.25,-0.19,263.19,-87.1,177.14
52.896706,-1.769315,140.96,15.7,4,35.09,21 / 21,1197412,2019-11-06 12:05:51:293,1.5705,-1.2383,10.3085,-0.0173,0.0179,9.8066,-0.0531,-0.0774,0.0691,-25.94,-37.62,0.38,262.93,-87.09,177.14
52.896706,-1.769315,140.96,15.7,4,35.09,20 / 21,1197512,2019-11-06 12:05:51:393,-0.9001,0.1963,9.7589,0.0108,0.0124,9.8066,0.0609,-0.1155,0.0908,-26.12,-37.56,0.25,262.17,-86.99,176.53
52.896706,-1.769315,140.96,15.7,4,35.09,20 / 21,1197612,2019-11-06 12:05:51:493,0.571,-0.8048,10.8027,-0.0138,0.0191,9.8066,-0.0073,-0.0271,-0.0446,-25.56,-37.56,0.06,261.63,-87.03,175.93
52.896706,-1.769315,140.96,15.7,4,35.09,20 / 21,1197712,2019-11-06 12:05:51:593,0.5097,1.1063,9.6502,0.0142,-0.008,9.8066,-0.0522,-0.0722,0.1028,-25.94,-37.5,0.44,260.16,-86.98,174.39
52.896706,-1.769315,140.96,15.7,4,35.09,20 / 21,1197812,2019-11-06 12:05:51:693,-0.5136,-0.2918,8.7685,-0.0117,0.0254,9.8066,-0.0442,-0.0748,0.0008,-26.44,-37.62,-0.44,256.39,-87.14,170.45
52.896706,-1.769315,140.96,15.7,4,35.09,20 / 21,1197912,2019-11-06 12:05:51:793,0.3204,-0.3767,10.0481,0.0124,-0.0025,9.8066,0.0693,0.0728,-0.0887,-26.12,-37.75,0,256.58,-87.23,170.51
52.896706,-1.769315,140.96,15.7,4,35.09,20 / 21,1198012,2019-11-06 12:05:51:893,1.5776,0.631,10.6113,0.0138,-0.0151,9.8066,-0.057,0.0604,0.1294,-26.31,-36.94,0.31,257.59,-86.99,171.77
52.896706,-1.769315,140.96,15.7,4,35.09,20 / 21,1198112,2019-11-06 12:05:51:993,0.6848,0.4659,10.6275,-0.0077,-0.0063,9.8066,-0.0371,-0.0103,0.0277,-25.56,-37.75,0,258.58,-86.83,173.12
52.896706,-1.769315,140.96,15.7,4,35.09,20 / 21,1198212,2019-11-06 12:05:52:093,1.2174,0.0386,9.3691,0.0089,-0.0153,9.8066,-0.0523,0.008,0.0786,-25.94,-37.62,0.63,263.75,-86.77,176.23
52.896706,-1.769315,140.96,15.7,4,35.09,20 / 21,1198312,2019-11-06 12:05:52:193,0.6922,-0.6458,10.3514,-0.0097,-0.0269,9.8066,-0.0947,0.0948,0.0518,-26,-36.94,0.31,260.11,-86.8,174.6
52.896706,-1.769315,140.96,15.7,4,35.09,20 / 21,1198412,2019-11-06 12:05:52:293,2.1254,0.6672,9.3437,0.0153,0.0086,9.8066,0.0635,-0.0478,-0.0667,-25.62,-37.75,0.38,257.86,-86.7,172.56
52.896706,-1.769315,140.96,15.7,4,35.09,22 / 22,1198512,2019-11-06 12:05:52:393,0.8255,-0.1142,9.9775,0.0098,0.0016,9.8066,0.0348,-0.0063,0.0703,-25.44,-37.37,-0.06,256.15,-86.61,171
52.896706,-1.769315,140.96,15.7,4,35.09,22 / 22,1198612,2019-11-06 12:05:52:493,0.7784,0.4675,9.95,-0.0073,0.0083,9.8066,-0.0064,-0.0014,0.0162,-25.25,-37.5,-0.44,254.29,-86.53,169.22
52.896706,-1.769315,140.96,15.7,4,35.09,22 / 22,1198712,2019-11-06 12:05:52:593,1.3893,-0.2896,9.9837,-0.0069,0.0147,9.8066,0.0175,-0.0641,0.0621,-25.81,-37.25,0,253.8,-86.55,168.51
52.896706,-1.769315,140.96,15.7,4,35.09,22 / 22,1198812,2019-11-06 12:05:52:693,0.9009,0.3436,10.2479,0.0008,0.0073,9.8066,-0.0474,0.0845,0.0067,-25.94,-38,0.19,254.13,-86.6,168.88
52.896706,-1.769315,140.96,15.7,4,35.09,22 / 22,1198911,2019-11-06 12:05:52:792,0.3723,0.3875,9.4722,-0.0021,-0.0067,9.8066,0.0052,0.0725,-0.0225,-25.31,-37.62,0,254.81,-86.69,169.65
52.896706,-1.769315,140.96,15.7,4,35.09,22 / 22,1199012,2019-11-06 12:05:52:893,-0.4717,-0.2161,9.7227,-0.0133,-0.0083,9.8066,0.0124,0.0446,-0.0208,-25.44,-37.5,-0.06,256.39,-86.77,171.03
52.896706,-1.769315,140.96,15.7,4,35.09,22 / 22,1199112,2019-11-06 12:05:52:993,0.5074,-0.4392,9.7991,0.0029,-0.0146,9.8065,-0.071,0.0726,0.0256,-25.62,-37.69,0,260.34,-86.83,174.91
52.896706,-1.769315,140.96,15.7,4,35.09,22 / 22,1199212,2019-11-06 12:05:53:093,2.0331,-0.1553,9.5322,0.0197,-0.001,9.8066,-0.024,0.0711,-0.0623,-25.44,-36.87,0,260.82,-86.8,175.49
52.896706,-1.769315,140.96,15.7,4,35.09,22 / 22,1199312,2019-11-06 12:05:53:193,0.672,-0.0557,10.5067,-0.0118,-0.0093,9.8066,0.0953,0.0244,-0.0371,-25.5,-37.69,0,261.82,-86.9,176.49
52.896706,-1.769315,140.96,15.7,4,35.09,22 / 22,1199412,2019-11-06 12:05:53:293,-1.0701,-0.5962,10.0693,0.0209,0.016,9.8065,0.0398,0.0298,-0.0078,-25.56,-37.12,0,261.44,-86.76,175.99
52.897728,-1.768239,143.78,16.35,4,29.61,21 / 21,1199512,2019-11-06 12:05:53:393,1.1562,-0.0396,9.3734,0.0018,-0.0103,9.8066,-0.0225,0.066,-0.0084,-26.31,-38.06,0.13,263.47,-86.83,178.08
52.897728,-1.768239,143.78,16.35,4,29.61,21 / 21,1199612,2019-11-06 12:05:53:493,0.5443,-0.4077,9.9074,-0.0036,0.0075,9.8066,-0.0054,0.0443,-0.032,-25.12,-37.37,-0.19,265.45,-86.88,-179.94
52.897728,-1.768239,143.78,16.35,4,29.61,21 / 21,1199712,2019-11-06 12:05:53:593,-0.6754,-1.0051,9.8724,-0.0019,0.0043,9.8066,0.0432,0.0759,-0.0047,-25.94,-37,0.44,267.23,-86.93,-178.4
52.897728,-1.768239,143.78,16.35,4,29.61,21 / 21,1199812,2019-11-06 12:05:53:693,-0.1357,-0.0891,10.4197,0.001,0.0126,9.8066,0.0454,-0.1554,0.1351,-25.37,-37.31,-0.19,267.5,-86.81,-177.78
52.897728,-1.768239,143.78,16.35,4,29.61,21 / 21,1199912,2019-11-06 12:05:53:793,0.731,-0.917,10.8792,0.001,0.0479,9.8065,0.0458,-0.0584,-0.0858,-26,-36.81,0.75,266.08,-86.69,178.57
52.897728,-1.768239,143.78,16.35,4,29.61,21 / 21,1200012,2019-11-06 12:05:53:893,-0.5464,1.3996,9.6296,-0.0069,0.0003,9.8066,-0.1118,0.247,-0.0584,-25.5,-37.31,0.5,263.34,-86.57,176.09
52.897728,-1.768239,143.78,16.35,4,29.61,21 / 21,1200112,2019-11-06 12:05:53:993,0.6031,2.6377,10.1558,-0.0266,0.0124,9.8066,-0.0007,-0.3267,0.2293,-25.12,-37.81,0.63,258.97,-86.56,171.79
52.897728,-1.768239,143.78,16.35,4,29.61,21 / 21,1200212,2019-11-06 12:05:54:093,-0.5511,3.2141,9.4719,-0.0023,-0.0462,9.8065,-0.0141,-0.0243,-0.0381,-25,-37.62,0.19,254.73,-86.48,169.88
52.897728,-1.768239,143.78,16.35,4,29.61,21 / 21,1200312,2019-11-06 12:05:54:193,-1.2808,-1.3505,9.4339,0.0075,-0.0352,9.8066,-0.0703,-0.1729,0.2797,-25.44,-37.94,-0.12,259.12,-86.58,174.22
52.897728,-1.768239,143.78,16.35,4,29.61,21 / 21,1200412,2019-11-06 12:05:54:293,1.576,-0.6764,9.2907,-0.021,-0.0365,9.8065,-0.0507,-0.1896,0.0064,-25,-37.56,-0.44,261.41,-86.89,176.08
52.897728,-1.768239,143.78,16.35,4,29.61,20 / 20,1200512,2019-11-06 12:05:54:393,-0.4845,-1.5184,9.1084,-0.0353,0.0317,9.8065,-0.0968,-0.127,0.0999,-25,-37.25,-0.25,262.59,-87.27,176.61
52.897728,-1.768239,143.78,16.35,4,29.61,20 / 20,1200612,2019-11-06 12:05:54:493,1.2889,-0.3232,9.9503,-0.038,0.0247,9.8065,-0.0603,0.1653,-0.0241,-25.19,-37.75,0.44,256.37,-87.67,169.8
52.897728,-1.768239,143.78,16.35,4,29.61,20 / 20,1200712,2019-11-06 12:05:54:593,-0.0351,0.3618,9.9176,0.0034,-0.0044,9.8066,0.0737,0.0741,-0.0881,-24.87,-37.69,-0.25,255.04,-87.63,168.52
52.897728,-1.768239,143.78,16.35,4,29.61,20 / 20,1200812,2019-11-06 12:05:54:693,-0.1753,-2.0785,9.8581,0.0072,0.0052,9.8066,-0.0879,0.1703,0.0234,-25.37,-37.44,-0.87,251.03,-87.45,166.88
52.897728,-1.768239,143.78,16.35,4,29.61,20 / 20,1200912,2019-11-06 12:05:54:793,2.5916,0.4026,9.8357,-0.0097,-0.053,9.8065,0.0491,0.1328,-0.13,-24.94,-37.31,0.31,252.71,-87.32,166.49
52.897728,-1.768239,143.78,16.35,4,29.61,20 / 20,1201012,2019-11-06 12:05:54:893,-0.1303,1.822,10.8354,-0.0014,-0.0187,9.8066,0.0481,-0.066,0.1341,-24.75,-37.06,-0.31,258.93,-87.38,172.73
52.897728,-1.768239,143.78,16.35,4,29.61,20 / 20,1201112,2019-11-06 12:05:54:993,0.2299,1.0296,10.3339,0.0198,-0.0489,9.8065,0.0566,0.1351,-0.1687,-25.31,-37.44,0.44,264.9,-87.07,179.22
52.897728,-1.768239,143.78,16.35,4,29.61,20 / 20,1201213,2019-11-06 12:05:55:094,1.4462,1.6065,9.7026,0.0114,-0.0169,9.8065,0.0776,0.2808,-0.0584,-24.94,-37.44,0.5,263.94,-86.87,176.26
52.897728,-1.768239,143.78,16.35,4,29.61,20 / 20,1201312,2019-11-06 12:05:55:193,2.257,-0.2106,10.3244,-0.0182,0.0098,9.8066,-0.0431,-0.1577,0.0692,-24.69,-37.25,0.13,259.58,-86.81,174.22
52.897728,-1.768239,143.78,16.35,4,29.61,20 / 20,1201412,2019-11-06 12:05:55:293,-0.7891,-1.6975,8.2184,-0.0007,0.015,9.8066,-0.0816,0.0964,-0.1497,-25.5,-37.06,-0.25,258.23,-87.03,172.53
52.897728,-1.768239,143.78,16.35,4,29.61,21 / 21,1201512,2019-11-06 12:05:55:393,-0.9833,-0.5505,10.1966,-0.001,0.023,9.8065,0.0849,-0.0387,0.0811,-25.19,-37.62,-0.37,259.29,-87.16,173.53
52.897728,-1.768239,143.78,16.35,4,29.61,21 / 21,1201612,2019-11-06 12:05:55:493,1.5512,-0.9495,9.8218,0.0537,-0.0133,9.8065,0.1159,0.1822,-0.0847,-25.37,-37,-0.62,256.95,-86.85,173.77
52.897728,-1.768239,143.78,16.35,4,29.61,21 / 21,1201712,2019-11-06 12:05:55:593,-0.0317,1.0364,9.9255,0.0134,-0.0038,9.8066,0.0009,0.0364,-0.0443,-25.5,-37.5,-0.06,260.53,-86.64,175.43
52.897728,-1.768239,143.78,16.35,4,29.61,21 / 21,1201812,2019-11-06 12:05:55:693,0.8113,-0.1666,10.0254,-0.0041,0.0139,9.8066,-0.068,0.1911,0.0673,-25.31,-37.87,-0.25,260.94,-86.6,176.04
52.897728,-1.768239,143.78,16.35,4,29.61,21 / 21,1201912,2019-11-06 12:05:55:793,-0.9578,0.0608,9.59,0.0012,-0.0198,9.8066,-0.0519,0.0919,-0.092,-24.75,-37,-0.25,264.36,-86.59,179.39
52.897728,-1.768239,143.78,16.35,4,29.61,21 / 21,1202012,2019-11-06 12:05:55:893,0.0622,0.4677,9.8395,-0.0246,-0.0022,9.8066,-0.0106,0.0112,-0.0498,-25.44,-36.56,-0.12,262.65,-86.78,177.38
52.897728,-1.768239,143.78,16.35,4,29.61,21 / 21,1202112,2019-11-06 12:05:55:993,-0.0354,0.4959,9.6433,0.0057,-0.0042,9.8066,0.0328,0.1406,-0.0075,-25.19,-36.25,0,263.03,-86.7,177.75
52.897728,-1.768239,143.78,16.35,4,29.61,21 / 21,1202212,2019-11-06 12:05:56:093,1.3938,0.6201,9.9902,0.0049,-0.011,9.8065,-0.0252,0.0112,0.0356,-25,-37.12,-0.94,260.71,-86.65,177.88
52.897728,-1.768239,143.78,16.35,4,29.61,21 / 21,1202311,2019-11-06 12:05:56:192,1.8162,-0.6199,9.5738,-0.0109,-0.0104,9.8066,0.0025,-0.0016,-0.0203,-24.75,-37.12,-0.44,261.04,-86.67,175.91
52.897728,-1.768239,143.78,16.35,4,29.61,21 / 21,1202412,2019-11-06 12:05:56:293,-0.6673,-0.0196,9.458,-0.0033,-0.0003,9.8066,-0.0604,0.0332,-0.0213,-24.94,-37.37,-1.25,257.31,-86.71,174.34
52.897728,-1.768239,143.78,16.35,4,29.61,21 / 21,1202512,2019-11-06 12:05:56:393,1.4451,-0.6726,10.4344,0.0059,-0.0042,9.8066,-0.0374,-0.1255,0.0686,-24.81,-37.87,-0.19,260.68,-86.8,175.47
52.897728,-1.768239,143.78,16.35,4,29.61,21 / 21,1202611,2019-11-06 12:05:56:492,0.0691,-0.9586,9.4665,0.0075,0.0234,9.8066,0.0112,0.0762,-0.0336,-24.94,-37.44,-0.69,258.63,-86.92,175.37
52.897728,-1.768239,143.78,16.35,4,29.61,21 / 21,1202712,2019-11-06 12:05:56:593,-0.2589,-0.4043,9.286,-0.0108,0.0114,9.8066,-0.0727,-0.0116,0.0525,-24.94,-37.44,-0.25,265.29,-86.96,179.77
52.897728,-1.768239,143.78,16.35,4,29.61,21 / 21,1202812,2019-11-06 12:05:56:693,0.5869,-2.1691,10.0852,-0.0003,0.0175,9.8066,-0.0075,0.2571,-0.156,-24.75,-37.44,-0.69,263.06,-87.17,179.5
52.897728,-1.768239,143.78,16.35,4,29.61,21 / 21,1202912,2019-11-06 12:05:56:793,-0.2217,1.046,10.3533,0.0115,-0.017,9.8066,-0.0168,0.2237,-0.1074,-25.19,-38,-1.12,265.73,-87.13,-177.63
52.897728,-1.768239,143.78,16.35,4,29.61,21 / 21,1203012,2019-11-06 12:05:56:893,0.1417,1.2754,9.5625,0.009,0.017,9.8066,-0.0413,-0.0345,-0.031,-24.94,-37.06,-0.87,264.47,-87.11,-178.98
52.897728,-1.768239,143.78,16.35,4,29.61,21 / 21,1203111,2019-11-06 12:05:56:992,-0.5865,1.3303,9.1812,0.0126,-0.0166,9.8066,-0.1022,0.3096,-0.1264,-24.44,-37,-1.25,264.21,-87.18,-179.08
52.897728,-1.768239,143.78,16.35,4,29.61,21 / 21,1203212,2019-11-06 12:05:57:093,0.5686,0.9092,9.9037,-0.0236,-0.0072,9.8065,-0.0732,0.0396,0.0178,-25.5,-37.69,-0.81,262.23,-87.44,178.36
52.897728,-1.768239,143.78,16.35,4,29.61,21 / 21,1203312,2019-11-06 12:05:57:193,-1.058,-1.0587,9.5962,0.0073,-0.0168,9.8066,-0.0623,0.1929,-0.059,-25,-36.87,-1.37,259.67,-87.63,175.4
52.897728,-1.768239,143.78,16.35,4,29.61,21 / 21,1203412,2019-11-06 12:05:57:293,1.1038,1.0078,9.8626,-0.0051,-0.0277,9.8065,-0.0425,-0.1562,0.1328,-24.81,-37.12,-1.81,259.28,-87.67,177.22
52.897728,-1.768239,143.78,16.35,4,29.61,22 / 22,1203512,2019-11-06 12:05:57:393,-0.6151,-0.8318,9.7591,0.0231,0.0067,9.8066,-0.0055,0.0405,-0.0209,-24.19,-37.69,-1.31,259.46,-87.58,175.6
52.897728,-1.768239,143.78,16.35,4,29.61,22 / 22,1203612,2019-11-06 12:05:57:493,0.0559,0.7031,10.4987,0.0053,-0.0137,9.8066,-0.0365,-0.058,0.0016,-24.44,-37.19,-1.44,257.24,-87.51,173.37
52.897728,-1.768239,143.78,16.35,4,29.61,22 / 22,1203712,2019-11-06 12:05:57:593,0.0658,2.7472,9.2618,-0.0047,0.0428,9.8065,0.0804,-0.0751,0.0247,-23.87,-37.31,-1.56,243.71,-87.19,162.32
52.897728,-1.768239,143.78,16.35,4,29.61,22 / 22,1203812,2019-11-06 12:05:57:693,1.9704,3.0065,9.8594,-0.001,0.0218,9.8066,-0.1326,0.1121,0.0618,-23.87,-37.75,-1.56,241.82,-87.09,160.61
52.897728,-1.768239,143.78,16.35,4,29.61,22 / 22,1203912,2019-11-06 12:05:57:793,-0.1093,2.5898,8.2597,-0.0321,0.0079,9.8066,-0.0844,-0.1297,0.1162,-23.75,-37.31,-1.56,242.14,-87.18,160.71
52.897728,-1.768239,143.78,16.35,4,29.61,22 / 22,1204013,2019-11-06 12:05:57:894,-0.1812,0.2703,10.001,-0.025,-0.0077,9.8066,0.0675,0.14,-0.049,-23.56,-36.62,-2.19,242.71,-87.54,160.82
52.897728,-1.768239,143.78,16.35,4,29.61,22 / 22,1204111,2019-11-06 12:05:57:992,1.1119,2.7232,10.3968,0.0201,0.0195,9.8066,0.0137,-0.182,0.2164,-24,-36.44,-2.37,250.15,-87.29,168.71
52.897728,-1.768239,143.78,16.35,4,29.61,22 / 22,1204212,2019-11-06 12:05:58:093,-1.1177,-0.415,10.9515,0.0092,0.0078,9.8066,0.0214,0.0254,-0.0183,-24.19,-37.44,-1.81,256.09,-87.24,174.96
52.897728,-1.768239,143.78,16.35,4,29.61,22 / 22,1204312,2019-11-06 12:05:58:193,0.5669,1.1156,9.6527,-0.0052,0.0154,9.8065,0.0382,-0.0469,0.0567,-24.19,-37.44,-1.56,258.39,-87.07,177.56
52.897728,-1.768239,143.78,16.35,4,29.61,22 / 22,1204411,2019-11-06 12:05:58:292,-0.488,0.429,9.2416,-0.0165,0.0049,9.8066,-0.0162,-0.1279,0.0163,-23.69,-37.87,-1.5,258.67,-87.15,175.47
52.897728,-1.768239,143.78,16.35,4,29.61,23 / 23,1204512,2019-11-06 12:05:58:393,0.9722,1.9377,9.2265,-0.0034,-0.0044,9.8066,-0.0313,-0.0285,0.0018,-23.56,-37.12,-2.44,256.06,-87.34,174.78
52.897728,-1.768239,143.78,16.35,4,29.61,23 / 23,1204613,2019-11-06 12:05:58:494,-0.2191,1.829,9.046,-0.0066,0.0485,9.8064,-0.0107,0.1974,-0.0495,-24,-36.87,-2.62,251.86,-87.4,172.74
52.897728,-1.768239,143.78,16.35,4,29.61,23 / 23,1204711,2019-11-06 12:05:58:592,0.462,2.8793,9.5921,-0.011,0.0128,9.8066,0.0295,0.0372,0.0368,-23.94,-36.81,-2.12,256.51,-87.49,175.01
52.897728,-1.768239,143.78,16.35,4,29.61,23 / 23,1204812,2019-11-06 12:05:58:693,1.6261,-1.5902,10.6067,-0.0144,0.0139,9.8066,-0.0646,0.3439,-0.1757,-23.87,-37.5,-2.19,258.27,-87.45,176.86
52.897728,-1.768239,143.78,16.35,4,29.61,23 / 23,1204912,2019-11-06 12:05:58:793,2.7466,0.22,10.4864,-0.0097,0.0063,9.8066,0.0374,-0.1237,0.0612,-23.81,-37.37,-2.44,265.12,-87.41,-176.15
52.897728,-1.768239,143.78,16.35,4,29.61,23 / 23,1205012,2019-11-06 12:05:58:893,1.3386,0.5708,9.7991,0.0047,0.0465,9.8065,0.0253,-0.2869,0.2803,-23.5,-36.69,-2.69,263.22,-87.28,-175.05
52.897728,-1.768239,143.78,16.35,4,29.61,23 / 23,1205112,2019-11-06 12:05:58:993,0.389,3.9852,10.8663,-0.0053,0.0381,9.8065,0.0081,-0.116,0.1226,-23.25,-37.56,-2.31,267.06,-87.1,-173.21
52.897728,-1.768239,143.78,16.35,4,29.61,23 / 23,1205212,2019-11-06 12:05:59:093,2.8275,-0.8133,9.2332,0.0345,0.0528,9.8064,-0.0136,-0.1745,0.2131,-23.5,-36.94,-2,268.72,-86.98,-171.47
52.897728,-1.768239,143.78,16.35,4,29.61,23 / 23,1205312,2019-11-06 12:05:59:193,0.7088,0.3136,9.9019,-0.0092,0.0463,9.8065,-0.0066,-0.0547,0.0382,-23.25,-37.56,-2.12,265.76,-86.89,-174.15
52.897728,-1.768239,143.78,16.35,4,29.61,23 / 23,1205411,2019-11-06 12:05:59:292,0.1976,-1.9396,9.6913,-0.0109,0.0512,9.8064,0.0283,-0.2956,0.2095,-22.75,-36.69,-2.12,263.99,-86.85,-176.01
52.897728,-1.768239,143.78,16.35,4,29.61,21 / 21,1205512,2019-11-06 12:05:59:393,0.4874,4.5072,10.0465,-0.0058,0.0215,9.8066,0.0903,-0.1184,0.0209,-22.56,-37.62,-1.87,264.67,-86.72,-174.97
52.897728,-1.768239,143.78,16.35,4,29.61,21 / 21,1205612,2019-11-06 12:05:59:493,0.0208,1.6954,10.1856,-0.0147,0.0602,9.8064,0.0833,0.3445,-0.1924,-22.81,-37.12,-2.56,259.32,-86.62,-177.96
52.897728,-1.768239,143.78,16.35,4,29.61,21 / 21,1205712,2019-11-06 12:05:59:593,-0.9796,2.9433,10.2866,0.0003,0.0073,9.8066,-0.0415,0.1016,-0.0014,-22.87,-37.25,-2.75,262.74,-86.65,-174.54
52.897728,-1.768239,143.78,16.35,4,29.61,21 / 21,1205812,2019-11-06 12:05:59:693,-0.1715,-1.4907,9.6164,0.0088,0.0289,9.8065,0.0089,0.345,-0.1774,-22.75,-36.94,-2.25,266.1,-86.64,-173.54
52.897728,-1.768239,143.78,16.35,4,29.61,21 / 21,1205912,2019-11-06 12:05:59:793,-1.6109,3.1168,9.653,0.0473,-0.0204,9.8065,-0.0494,0.3834,-0.2043,-23.06,-36.81,-2.5,271.31,-86.38,-167.9
52.897728,-1.768239,143.78,16.35,4,29.61,21 / 21,1206012,2019-11-06 12:05:59:893,3.434,-3.3412,11.1726,0.018,0.0422,9.8065,-0.0029,0.3185,-0.3121,-23.25,-37.44,-2.81,267.11,-86.27,-169.51
52.897728,-1.768239,143.78,16.35,4,29.61,21 / 21,1206112,2019-11-06 12:05:59:993,1.6525,1.4094,10.3068,0.0247,-0.0022,9.8066,-0.1008,0.3432,-0.1926,-23.25,-37.19,-2,267.64,-86.09,-171.12
52.897728,-1.768239,143.78,16.35,4,29.61,21 / 21,1206211,2019-11-06 12:06:00:092,0.715,-2.4025,9.8932,-0.0253,0.0447,9.8064,-0.063,0.2357,-0.1037,-22.56,-37.06,-2.44,263.54,-86.16,-175.37
52.897728,-1.768239,143.78,16.35,4,29.61,21 / 21,1206312,2019-11-06 12:06:00:193,1.4408,0.0932,11.1051,0.0391,-0.0235,9.8065,-0.0327,0.1243,-0.158,-22.94,-37,-2.19,262.52,-86.14,-176.37
52.897728,-1.768239,143.78,16.35,4,29.61,21 / 21,1206412,2019-11-06 12:06:00:293,-1.4776,0.8743,9.8636,0.0463,0.0357,9.8064,0.1681,-0.2428,0.0126,-23.25,-37.69,-2.81,255.52,-86.04,179.22
52.897728,-1.768239,143.78,16.35,4,29.61,20 / 21,1206512,2019-11-06 12:06:00:393,2.7707,-1.2362,10.438,0.0503,0.0578,9.8063,-0.0259,-0.2288,0.2652,-22,-37.5,-2.56,251.28,-85.56,176.02
52.897728,-1.768239,143.78,16.35,4,29.61,20 / 21,1206612,2019-11-06 12:06:00:493,-0.2796,6.3094,9.3287,0.02,-0.0245,9.8066,-0.0033,-0.4051,0.2462,-21.87,-37.25,-2.56,252.48,-85.63,177.17
52.897728,-1.768239,143.78,16.35,4,29.61,20 / 21,1206712,2019-11-06 12:06:00:593,-1.0861,1.0733,10.1393,-0.0297,0.0556,9.8064,0.0476,-0.6221,0.4619,-22.12,-37.19,-2.37,256.52,-85.78,178.58
52.897728,-1.768239,143.78,16.35,4,29.61,20 / 21,1206812,2019-11-06 12:06:00:693,-0.8271,6.2094,10.2203,0.0189,-0.0028,9.8066,0.0453,-0.1557,0.1351,-22,-36.87,-2.87,255.07,-85.77,179.64
52.897728,-1.768239,143.78,16.35,4,29.61,20 / 21,1206912,2019-11-06 12:06:00:793,0.574,-1.3536,10.5926,0.0055,0.0805,9.8063,0.0779,-0.5105,0.3364,-22.37,-37.06,-1.94,255.62,-85.49,178.13
52.897728,-1.768239,143.78,16.35,4,29.61,20 / 21,1207012,2019-11-06 12:06:00:893,0.6661,-1.7827,11.0316,0.0091,0.0301,9.8065,-0.0034,0.2086,-0.0981,-21.87,-37.5,-2.12,257.06,-85.26,179.98
52.897728,-1.768239,143.78,16.35,4,29.61,20 / 21,1207112,2019-11-06 12:06:00:993,-0.3863,-0.3778,10.5248,0.0124,0.0437,9.8064,-0.0082,-0.0613,0.0164,-22.37,-37.37,-2.62,251.9,-84.96,177.62
52.897728,-1.768239,143.78,16.35,4,29.61,20 / 21,1207212,2019-11-06 12:06:01:093,-0.0111,-2.4981,10.6362,-0.0445,0.0323,9.8064,-0.1559,0.4392,-0.2674,-22.19,-36.75,-2.69,250.48,-84.92,176.19
52.897728,-1.768239,143.78,16.35,4,29.61,20 / 21,1207312,2019-11-06 12:06:01:193,-0.4602,3.4809,8.4761,-0.0304,-0.0034,9.8066,0.0037,0.1381,-0.0307,-22,-36.69,-2.19,253.32,-84.86,176.74
52.897728,-1.768239,143.78,16.35,4,29.61,20 / 21,1207412,2019-11-06 12:06:01:293,0.3275,1.394,10.2526,-0.0281,0.0183,9.8065,0.0018,0.36,-0.1808,-21.62,-37.44,-2,253.59,-85.09,176.66
52.897728,-1.768239,143.78,16.35,4,29.61,18 / 20,1207512,2019-11-06 12:06:01:393,0.8669,0.1332,10.5305,0.032,-0.0178,9.8065,-0.0068,0.2679,-0.102,-21.62,-37.25,-2.44,256.4,-84.9,179.88
52.897728,-1.768239,143.78,16.35,4,29.61,18 / 20,1207612,2019-11-06 12:06:01:493,1.5772,-3.2758,11.6086,-0.0018,0.016,9.8066,0.0399,-0.1552,0.1897,-22.44,-37.81,-2.31,256.77,-84.82,-179.37
52.897728,-1.768239,143.78,16.35,4,29.61,18 / 20,1207711,2019-11-06 12:06:01:592,-0.7741,-0.0777,9.8535,0.0228,-0.051,9.8064,-0.0913,0.3618,-0.1647,-22.44,-37.37,-2,259.65,-84.85,-176.65
52.897728,-1.768239,143.78,16.35,4,29.61,18 / 20,1207813,2019-11-06 12:06:01:694,-0.6146,1.2282,10.1722,-0.0358,-0.01,9.8065,0.0834,0.137,-0.1407,-23.06,-37.31,-2.06,263.51,-84.96,-173.48
52.897728,-1.768239,143.78,16.35,4,29.61,18 / 20,1207912,2019-11-06 12:06:01:793,-2.3668,3.3235,9.4097,0.0142,-0.0616,9.8064,-0.0217,0.4193,-0.316,-22.12,-37.75,-2.62,261.89,-84.91,-171.69
52.897728,-1.768239,143.78,16.35,4,29.61,18 / 20,1208012,2019-11-06 12:06:01:893,-1.4072,-1.326,11.3113,-0.0084,-0.0082,9.8066,-0.1079,0.0402,0.0486,-23.06,-37.69,-2.25,263.07,-85.01,-173.78
52.897728,-1.768239,143.78,16.35,4,29.61,18 / 20,1208112,2019-11-06 12:06:01:993,-1.8095,-2.0919,8.934,0.0127,-0.0361,9.8065,-0.0524,0.2943,-0.2209,-22.81,-37.31,-2.25,262.29,-85.08,-174.91
52.897728,-1.768239,143.78,16.35,4,29.61,18 / 20,1208212,2019-11-06 12:06:02:093,-3.5722,1.6033,9.1737,-0.0217,-0.0223,9.8066,0.0076,0.2272,-0.148,-21.94,-37.37,-2,262.91,-85.25,-173.98
52.897728,-1.768239,143.78,16.35,4,29.61,18 / 20,1208312,2019-11-06 12:06:02:193,-4.089,-2.8726,7.1733,-0.0055,-0.0157,9.8066,-0.1892,0.1914,-0.0199,-21.81,-37.81,-2.69,260.75,-85.53,-173.92
52.897728,-1.768239,143.78,16.35,4,29.61,18 / 20,1208412,2019-11-06 12:06:02:293,-2.9983,2.1302,10.8149,-0.0512,-0.0623,9.8063,0.1518,0.246,-0.3067,-22,-37.87,-3,261.35,-85.9,-173.94
52.89912,-1.767162,146.07,20.81,4,16.15,19 / 22,1208512,2019-11-06 12:06:02:393,-4.9001,-1.8335,8.0353,-0.041,-0.0065,9.8065,0.1004,0.0459,-0.0614,-21.75,-37.56,-2.5,258.63,-86,-179.43
52.89912,-1.767162,146.07,20.81,4,16.15,19 / 22,1208613,2019-11-06 12:06:02:494,-4.8179,-1.3884,9.5469,-0.0063,-0.0201,9.8066,0.0358,-0.0405,-0.0137,-21.62,-37.81,-2.5,256.1,-85.97,178.01
52.89912,-1.767162,146.07,20.81,4,16.15,19 / 22,1208712,2019-11-06 12:06:02:593,-3.8829,-1.0562,9.2762,0.0111,0.0131,9.8066,-0.0194,-0.1318,0.0347,-20.94,-38,-2.44,251.86,-86.18,173.82
52.89912,-1.767162,146.07,20.81,4,16.15,19 / 22,1208812,2019-11-06 12:06:02:693,-5.2566,-2.3263,9.1838,-0.0177,0.0112,9.8066,-0.055,-0.0835,0.0903,-21.19,-37.87,-3.69,245.75,-86.22,172.63
52.89912,-1.767162,146.07,20.81,4,16.15,19 / 22,1208911,2019-11-06 12:06:02:792,-1.1583,0.0726,8.9711,-0.0123,0.0068,9.8066,-0.0253,0.0371,-0.0203,-21.5,-37.62,-3.25,247.72,-86.34,171.89
52.89912,-1.767162,146.07,20.81,4,16.15,19 / 22,1209012,2019-11-06 12:06:02:893,-2.4259,-1.0131,9.4616,-0.0139,0.0305,9.8066,-0.0557,0.2018,-0.2135,-20.94,-37.69,-3.31,246.01,-86.44,169.94
52.89912,-1.767162,146.07,20.81,4,16.15,19 / 22,1209112,2019-11-06 12:06:02:993,-3.2802,2.5219,9.7049,-0.0082,0.02,9.8065,-0.0327,0.0348,0.0203,-21.31,-37.94,-3.37,245.39,-86.57,169.08
52.89912,-1.767162,146.07,20.81,4,16.15,19 / 22,1209212,2019-11-06 12:06:03:093,-1.1527,-5.5776,10.2469,-0.004,0.0525,9.8065,0.1575,-0.5182,0.2779,-21.06,-37.87,-3,245.45,-86.49,169.28
52.89912,-1.767162,146.07,20.81,4,16.15,19 / 22,1209311,2019-11-06 12:06:03:192,-2.5545,3.1276,10.2538,0.0323,-0.018,9.8065,-0.064,0.4459,-0.2466,-21.37,-38,-3.25,248.1,-86.17,172.57
52.89912,-1.767162,146.07,20.81,4,16.15,19 / 22,1209411,2019-11-06 12:06:03:292,-0.9461,-5.7258,9.4867,-0.024,0.0598,9.8064,-0.0531,0.4837,-0.2645,-21.19,-37.5,-3.06,247.44,-85.93,172.09
52.89912,-1.767162,146.07,20.81,4,16.15,22 / 23,1209511,2019-11-06 12:06:03:392,-2.0233,4.3833,10.0667,0.016,-0.0658,9.8063,-0.0079,0.7165,-0.454,-21.25,-37.75,-2.94,251.56,-85.94,176.58
52.89912,-1.767162,146.07,20.81,4,16.15,22 / 23,1209612,2019-11-06 12:06:03:493,-3.8569,1.5543,8.8888,0.0165,0.008,9.8066,0.1296,-0.0637,-0.0659,-21.37,-37.37,-3.37,247.36,-85.95,171.99
52.89912,-1.767162,146.07,20.81,4,16.15,22 / 23,1209712,2019-11-06 12:06:03:593,-3.7307,3.1186,9.7713,0.0453,-0.0634,9.8062,0.026,0.5132,-0.2473,-21.37,-37.19,-2.37,255.34,-85.85,177.81
52.89912,-1.767162,146.07,20.81,4,16.15,22 / 23,1209812,2019-11-06 12:06:03:693,-2.8434,1.5911,10.033,0.0521,-0.0473,9.8063,0.0915,-0.4126,0.2066,-21.19,-38.19,-2.44,254.47,-85.67,177.42
52.89912,-1.767162,146.07,20.81,4,16.15,22 / 23,1209912,2019-11-06 12:06:03:793,0.5314,-3.2689,10.6638,0.0143,-0.0423,9.8065,0.1185,-0.0187,0.0077,-21.81,-38,-2.5,254.52,-85.56,177.06
52.89912,-1.767162,146.07,20.81,4,16.15,22 / 23,1210012,2019-11-06 12:06:03:893,-0.9629,0.9815,9.8046,0.0367,-0.0306,9.8065,0.0499,-0.3991,0.2481,-21.69,-38.25,-2.56,256.42,-85.35,-178.08
52.89912,-1.767162,146.07,20.81,4,16.15,22 / 23,1210112,2019-11-06 12:06:03:993,0.6918,-3.1576,9.612,-0.0086,0.0024,9.8066,0.0379,-0.233,0.1163,-21.37,-37.25,-2.12,260.21,-85.49,-176.55
52.89912,-1.767162,146.07,20.81,4,16.15,22 / 23,1210211,2019-11-06 12:06:04:092,-2.7203,-0.435,9.7185,0.0144,-0.0223,9.8066,0.0294,-0.154,0.0258,-21.56,-37.37,-2.62,258.67,-85.42,-176.08
52.89912,-1.767162,146.07,20.81,4,16.15,22 / 23,1210312,2019-11-06 12:06:04:193,-3.1835,-1.6037,10.1753,-0.0023,0.0288,9.8066,0.0193,-0.026,0.1205,-21.44,-37.94,-2.25,256.16,-85.35,179.74
52.89912,-1.767162,146.07,20.81,4,16.15,22 / 23,1210412,2019-11-06 12:06:04:293,-1.7599,0.3669,10.9397,0.0344,-0.0086,9.8065,0.0573,-0.1537,0.0185,-21.81,-37.87,-1.87,257.16,-85.08,-179.39
52.89912,-1.767162,146.07,20.81,4,16.15,21 / 22,1210512,2019-11-06 12:06:04:393,-1.2886,-0.0607,10.5954,0.0075,0.038,9.8065,0.0221,-0.3083,0.2312,-21.5,-38,-1.69,252.88,-84.82,177.23
52.89912,-1.767162,146.07,20.81,4,16.15,21 / 22,1210611,2019-11-06 12:06:04:492,-3.2006,1.3508,9.5899,-0.012,-0.0046,9.8066,0.0369,0.0306,0.1304,-21.37,-38,-1.87,254.84,-84.86,179.21
52.89912,-1.767162,146.07,20.81,4,16.15,21 / 22,1210712,2019-11-06 12:06:04:593,-1.6149,-0.9477,9.2785,-0.0155,0.0171,9.8065,-0.0363,-0.1544,0.0326,-21.12,-37.31,-1.75,254.68,-84.87,178.8
52.89912,-1.767162,146.07,20.81,4,16.15,21 / 22,1210812,2019-11-06 12:06:04:693,0.539,-0.0696,10.0597,-0.0089,0.0057,9.8066,0.068,0.0012,0.0789,-20.62,-38,-1.87,253.03,-85,177.08
52.89912,-1.767162,146.07,20.81,4,16.15,21 / 22,1210912,2019-11-06 12:06:04:793,-1.2711,1.2766,9.9147,-0.0188,0.0511,9.8064,0.1104,-0.2752,0.1493,-21.19,-37.94,-1.94,250.13,-84.92,174.15
52.89912,-1.767162,146.07,20.81,4,16.15,21 / 22,1211012,2019-11-06 12:06:04:893,-3.1689,1.5079,9.9923,0.0075,0.0358,9.8066,0.0294,0.1877,-0.1787,-21.19,-38.31,-1.69,248.67,-84.74,172.91
52.89912,-1.767162,146.07,20.81,4,16.15,21 / 22,1211112,2019-11-06 12:06:04:993,-1.6071,1.3451,9.9202,-0.0068,0.0376,9.8065,-0.0127,-0.0112,0.0723,-20.19,-38.19,-2.19,248.9,-84.52,174.27
52.89912,-1.767162,146.07,20.81,4,16.15,21 / 22,1211212,2019-11-06 12:06:05:093,-1.0937,-2.7723,10.1531,0.005,0.0333,9.8065,-0.0231,-0.2868,0.1533,-20.75,-37.12,-2.12,247.49,-84.38,172
52.89912,-1.767162,146.07,20.81,4,16.15,21 / 22,1211312,2019-11-06 12:06:05:193,-1.4223,1.0771,9.1334,0.0208,0.0076,9.8066,-0.1051,0.1946,-0.124,-20.75,-38.06,-1.37,250.12,-84.26,172.59
52.89912,-1.767162,146.07,20.81,4,16.15,21 / 22,1211414,2019-11-06 12:06:05:295,-1.0943,-4.295,10.0042,-0.0435,0.0553,9.8063,-0.1581,0.4102,-0.2087,-20.25,-38,-1.56,245.16,-84.45,170.35
52.89912,-1.767162,146.07,20.81,4,16.15,21 / 23,1211512,2019-11-06 12:06:05:393,-1.7063,2.1037,10.3169,-0.0099,-0.0416,9.8065,0.0094,0.5166,-0.2336,-20.81,-37.75,-1.94,246.83,-84.63,171.12
52.89912,-1.767162,146.07,20.81,4,16.15,21 / 23,1211612,2019-11-06 12:06:05:493,-2.1077,2.0681,8.8615,0.0157,-0.008,9.8066,-0.1278,0.2026,-0.183,-20.94,-37.87,-2,247.82,-84.82,171.87
52.89912,-1.767162,146.07,20.81,4,16.15,21 / 23,1211712,2019-11-06 12:06:05:593,-2.2282,3.8331,8.9776,0.0199,-0.0565,9.8064,-0.157,0.523,-0.3169,-19.81,-38.62,-2,248.9,-85.03,173.6
52.89912,-1.767162,146.07,20.81,4,16.15,21 / 23,1211812,2019-11-06 12:06:05:693,-1.0103,0.9814,9.2169,-0.0212,-0.028,9.8065,0.0529,-0.178,0.1013,-20.19,-38.12,-1.94,246.33,-85.24,170.26
52.89912,-1.767162,146.07,20.81,4,16.15,21 / 23,1211912,2019-11-06 12:06:05:793,-0.6431,-0.7721,10.4355,0.0023,-0.0386,9.8066,-0.003,0.2768,-0.1489,-20.12,-38.44,-2.25,245.13,-85.25,168.95
52.89912,-1.767162,146.07,20.81,4,16.15,21 / 23,1212012,2019-11-06 12:06:05:893,-1.1565,4.1231,9.3142,0.0268,-0.051,9.8064,0.037,-0.2863,0.1779,-19.81,-37.56,-2,244.5,-85.33,168.15
52.89912,-1.767162,146.07,20.81,4,16.15,21 / 23,1212112,2019-11-06 12:06:05:993,0.6111,0.1423,9.8296,-0.0132,-0.0199,9.8066,0.0105,-0.0749,0.0378,-20.06,-37.69,-2.69,240.01,-85.36,166.04
52.89912,-1.767162,146.07,20.81,4,16.15,21 / 23,1212212,2019-11-06 12:06:06:093,-2.0821,2.2202,9.1692,-0.0059,-0.0185,9.8066,-0.1142,0.2044,-0.0099,-19.87,-37.81,-2.19,244.1,-85.72,167.05
52.89912,-1.767162,146.07,20.81,4,16.15,21 / 23,1212313,2019-11-06 12:06:06:194,-0.6562,-1.7959,10.0526,0.0121,0.0312,9.8065,-0.0578,-0.0409,0.1597,-19.56,-37.87,-3.06,240.45,-85.8,165.8
52.89912,-1.767162,146.07,20.81,4,16.15,21 / 23,1212413,2019-11-06 12:06:06:294,-0.7439,0.2,9.0503,0.0233,-0.0384,9.8065,-0.1022,0.1945,-0.2017,-19.25,-38.06,-2.56,241.08,-85.85,167.19
52.89912,-1.767162,146.07,20.81,4,16.15,21 / 23,1212512,2019-11-06 12:06:06:393,0.4775,-2.8278,10.0649,-0.0182,0.0287,9.8065,-0.0014,-0.3001,0.2576,-19.87,-37.62,-2.25,239.58,-86.01,161.76
52.89912,-1.767162,146.07,20.81,4,16.15,21 / 23,1212612,2019-11-06 12:06:06:493,-0.8536,2.7212,9.348,-0.0186,-0.0031,9.8066,0.0162,-0.0381,0.0541,-19.37,-38.44,-2.5,241.64,-86.12,164.4
52.89912,-1.767162,146.07,20.81,4,16.15,21 / 23,1212712,2019-11-06 12:06:06:593,-0.8985,2.4974,9.1169,-0.0345,0.0166,9.8065,-0.0609,-0.2643,0.2223,-19.06,-37.56,-2.81,240.52,-86.36,165.73
52.89912,-1.767162,146.07,20.81,4,16.15,21 / 23,1212812,2019-11-06 12:06:06:693,-0.7538,1.7141,9.2687,-0.0264,-0.0007,9.8066,-0.0046,0.2414,-0.0568,-20,-37.81,-3.25,242.74,-86.75,166.68
52.89912,-1.767162,146.07,20.81,4,16.15,21 / 23,1212912,2019-11-06 12:06:06:793,-1.2212,0.6923,9.8422,-0.0003,0.0106,9.8066,-0.0169,-0.1161,0.1497,-19.56,-37.81,-2.75,246.54,-86.74,170.67
52.89912,-1.767162,146.07,20.81,4,16.15,21 / 23,1213012,2019-11-06 12:06:06:893,0.2238,-2.4616,10.2585,-0.0073,0.0268,9.8066,-0.0651,0.1639,-0.0386,-19.62,-37.5,-2.81,250.22,-86.75,174.34
52.89912,-1.767162,146.07,20.81,4,16.15,21 / 23,1213112,2019-11-06 12:06:06:993,1.1184,-0.4873,9.3078,-0.021,0.0228,9.8065,-0.0722,-0.1001,0.0844,-20.19,-37.62,-2.69,254.12,-86.79,178.43
52.89912,-1.767162,146.07,20.81,4,16.15,21 / 23,1213212,2019-11-06 12:06:07:093,0.5816,-2.1742,9.7929,-0.0339,0.0176,9.8065,-0.0334,0.317,-0.1456,-20.12,-37.12,-3,256.97,-87.11,-179.35
