GPS LATITUDE (degrees), GPS LONGITUDE (degrees), GPS ALTITUDE (m), GPS SPEED (Kmh), GPS ACCURACY (m), GPS ORIENTATION (Â°),GPS SATELLITES IN RANGE, TIME SINCE START (ms), DATE (YYYY-MO-DD HH-MI-SS_SSS), ACCELEROMETER X (m/s²) , ACCELEROMETER Y (m/s²), ACCELEROMETER Z (m/s²), GRAVITY X (m/s²), GRAVITY Y (m/s²), GRAVITY Z (m/s²), GYROSCOPE Yaw (rad/s), GYROSCOPE Pitch (rad/s), GYROSCOPE Roll (rad/s), MAGNETIC FIELD X (Î¼T), MAGNETIC FIELD Y (Î¼T), MAGNETIC FIELD Z (Î¼T), ORIENTATION (Yaw) (Â°), ORIENTATION (Pitch) (Â°), ORIENTATION (Roll ) (Â°)
53.060383,-1.759178,325.8,0,3,358.41,21 / 23,1187914,2019-11-06 13:02:09:622,-0.0562,0.7708,9.7879,0.0023,-0.0056,9.8066,0.0009,0.0002,-0.0134,3.19,-43.31,-14.87,66.12,-87.71,71.51
53.060383,-1.759178,325.8,0,3,358.41,21 / 23,1188014,2019-11-06 13:02:09:722,-0.3215,0.7614,9.8066,0.001,-0.0024,9.8066,0.0061,0.0078,-0.002,2.56,-43.87,-14.81,65.61,-87.68,70.81
53.060383,-1.759178,325.8,0,3,358.41,21 / 23,1188114,2019-11-06 13:02:09:822,-0.0781,0.8479,9.9041,0.0014,-0.0049,9.8066,-0.0044,0.0099,0.0045,2.94,-43.5,-14.75,64.25,-87.69,69.67
53.060383,-1.759178,325.8,0,3,358.41,21 / 23,1188214,2019-11-06 13:02:09:922,-0.1203,0.7392,9.8044,0.0008,-0.0018,9.8066,-0.0045,0.0123,-0.005,2.94,-43.5,-14.87,62.26,-87.68,67.77
53.060383,-1.759178,325.8,0,3,358.41,21 / 23,1188314,2019-11-06 13:02:10:022,-0.0103,0.6853,9.7912,0.0024,-0.0029,9.8066,0.002,0.0109,-0.0241,3.44,-43.69,-15.44,61.69,-87.66,67.04
53.060383,-1.759178,325.8,0,3,358.41,21 / 23,1188415,2019-11-06 13:02:10:123,-0.2582,0.8632,9.7849,0.0028,-0.0049,9.8066,0.0046,0.0115,-0.0068,2.75,-43.31,-15.87,60.33,-87.63,65.49
53.060383,-1.759178,325.8,0,3,358.41,22 / 22,1188515,2019-11-06 13:02:10:223,-0.0022,0.7701,9.8191,0.003,-0.0033,9.8066,-0.0006,0.0176,-0.007,3.31,-43.31,-15.06,59.1,-87.62,64.64
53.060383,-1.759178,325.8,0,3,358.41,22 / 22,1188615,2019-11-06 13:02:10:323,-0.2389,0.8703,9.8026,0.004,-0.0019,9.8066,-0.002,0.0171,-0.0193,2.88,-43.5,-14.62,57.39,-87.62,63.04
53.060383,-1.759178,325.8,0,3,358.41,22 / 22,1188715,2019-11-06 13:02:10:423,-0.0024,0.8185,9.8114,0.0005,-0.0033,9.8066,-0.0019,-0.0013,0.0056,3.56,-43.37,-15.19,52.7,-87.6,62.3
53.060383,-1.759178,325.8,0,3,358.41,22 / 22,1188814,2019-11-06 13:02:10:522,-0.3042,0.8536,9.8087,0.0048,-0.0067,9.8066,-0.0027,0.0168,-0.0102,3.19,-43.56,-14.94,55.07,-87.56,60.59
53.060383,-1.759178,325.8,0,3,358.41,22 / 22,1188914,2019-11-06 13:02:10:622,-0.1859,0.8896,9.9177,-0.001,-0.0034,9.8066,-0.0046,-0.0036,0.003,3.19,-43.56,-15.12,53.57,-87.53,59.12
53.060383,-1.759178,325.8,0,3,358.41,22 / 22,1189015,2019-11-06 13:02:10:723,-0.3231,0.7296,9.7585,0.0038,-0.0015,9.8066,0.0007,0.013,0.0076,3.25,-43.19,-15.19,52.77,-87.52,58.5
53.060383,-1.759178,325.8,0,3,358.41,22 / 22,1189115,2019-11-06 13:02:10:823,-0.2663,0.7954,9.7863,-0.0025,-0.0047,9.8066,0.0056,-0.0161,0.0127,2.75,-43.81,-14.87,51.63,-87.51,57.3
53.060383,-1.759178,325.8,0,3,358.41,22 / 22,1189215,2019-11-06 13:02:10:923,0.026,0.9953,9.877,-0.0029,0,9.8066,-0.0046,-0.022,0.0129,2.94,-43.44,-15.56,51.27,-87.47,56.65
53.060383,-1.759178,325.8,0,3,358.41,22 / 22,1189315,2019-11-06 13:02:11:023,-0.2581,0.7182,9.7798,-0.0035,-0.0028,9.8066,-0.0088,-0.0156,0.0055,2.75,-43.12,-14.81,49.68,-87.45,55.49
53.060383,-1.759178,325.8,0,3,358.41,22 / 22,1189415,2019-11-06 13:02:11:123,-0.4189,2.29,8.9415,0.0049,-0.0247,9.8066,-0.0296,0.1143,-0.0568,2.94,-43.19,-14.81,48.84,-87.41,54.64
53.060383,-1.759178,325.8,0,3,358.41,21 / 22,1189514,2019-11-06 13:02:11:222,-1.0396,0.9214,9.8539,0.0305,-0.0118,9.8066,0.0334,0.0933,-0.0672,3.06,-43.37,-15.06,42.87,-87.36,49.09
53.060383,-1.759178,325.8,0,3,358.41,21 / 22,1189615,2019-11-06 13:02:11:323,-0.0899,0.7858,9.6274,0.001,-0.0066,9.8066,0.0294,-0.0068,-0.0007,2.81,-43.25,-15.06,43.35,-87.38,49.56
53.060383,-1.759178,325.8,0,3,358.41,21 / 22,1189715,2019-11-06 13:02:11:423,-0.3063,0.8957,9.792,0.0077,0.0005,9.8066,-0.0071,0.0148,-0.0261,3.13,-43.62,-14.81,43.07,-87.37,49.19
53.060383,-1.759178,325.8,0,3,358.41,21 / 22,1189814,2019-11-06 13:02:11:522,0.1816,1.0314,9.7969,0.0063,0.0006,9.8066,-0.0193,0.0858,-0.0442,3.5,-43.37,-14.44,38.44,-87.34,49.46
53.060383,-1.759178,325.8,0,3,358.41,21 / 22,1189915,2019-11-06 13:02:11:623,-0.2562,0.9858,9.7973,0.0092,0.0058,9.8065,-0.016,0.0835,-0.0118,3.13,-43.37,-15.44,41.69,-87.3,47.92
53.060383,-1.759178,325.8,0,3,358.41,21 / 22,1190014,2019-11-06 13:02:11:722,-0.7412,0.6797,9.7581,0.0112,0.0039,9.8066,-0.0008,0.0368,-0.0622,3.06,-43.25,-15.19,41.36,-87.3,47.62
53.060383,-1.759178,325.8,0,3,358.41,21 / 22,1190114,2019-11-06 13:02:11:822,0.5514,-1.319,9.7427,-0.0145,-0.0172,9.8065,0.0691,0.1592,-0.0841,3.38,-43.37,-15.06,42.14,-87.26,48.25
53.060383,-1.759178,325.8,0,3,358.41,21 / 22,1190214,2019-11-06 13:02:11:922,-0.1613,0.6782,9.5929,0.0172,-0.0043,9.8066,0.0305,0.1075,-0.065,2.94,-42.87,-14.69,42.26,-87.23,48.3
53.060383,-1.759178,325.8,0,3,358.41,21 / 22,1190314,2019-11-06 13:02:12:022,0.2252,1.2265,10.0305,0.0165,-0.0074,9.8065,0.0114,0.0225,-0.0522,2.88,-43.81,-15.94,44.8,-87.28,50.2
53.060383,-1.759178,325.8,0,3,358.41,21 / 22,1190414,2019-11-06 13:02:12:122,-0.5371,0.8063,9.7765,-0.0005,-0.0008,9.8066,-0.0089,-0.0271,-0.0101,3.25,-43.56,-14.56,42.34,-87.27,48.32
53.060383,-1.759178,325.8,0,3,358.41,21 / 22,1190514,2019-11-06 13:02:12:222,-0.0912,1.2078,9.9157,0.0023,-0.0004,9.8066,-0.0199,0.0925,-0.0186,3.44,-43.56,-15,41.06,-87.25,47.14
53.060383,-1.759178,325.8,0,3,358.41,21 / 22,1190615,2019-11-06 13:02:12:323,-1.0454,0.8296,9.6994,0.0123,-0.0017,9.8066,-0.0121,0.1039,-0.087,2.44,-43.44,-15.87,45.15,-87.26,47.06
53.060383,-1.759178,325.8,0,3,358.41,21 / 22,1190715,2019-11-06 13:02:12:423,-0.7958,1.5237,9.2716,0.0117,-0.0012,9.8066,0.0319,0.0737,-0.2041,3,-43.5,-14.94,41.08,-87.26,47.29
53.060383,-1.759178,325.8,0,3,358.41,21 / 22,1190815,2019-11-06 13:02:12:523,-1.5016,0.8225,9.7968,0.0348,0.0101,9.8065,-0.0129,0.2276,-0.0482,2.94,-43,-15.25,44.94,-87.32,50.89
53.060383,-1.759178,325.8,0,3,358.41,21 / 22,1190914,2019-11-06 13:02:12:622,0.3063,1.1623,10.1389,0.0006,-0.0041,9.8066,-0.0673,0.0643,0.0332,3.13,-42.75,-15.12,44.77,-87.25,50.6
53.060383,-1.759178,325.8,0,3,358.41,21 / 22,1191014,2019-11-06 13:02:12:722,-0.4563,0.8238,9.706,0.0181,0.0018,9.8066,0.0239,0.0176,-0.0301,3.19,-43.31,-14.87,42.56,-87.29,48.68
53.060383,-1.759178,325.8,0,3,358.41,21 / 22,1191114,2019-11-06 13:02:12:822,-0.7081,0.7022,9.6338,-0.0069,0.0164,9.8065,-0.0471,-0.015,0.0339,2.56,-43.06,-14.75,45.84,-87.32,51.7
53.060383,-1.759178,325.8,0,3,358.41,21 / 22,1191214,2019-11-06 13:02:12:922,0.0072,1.0559,9.8408,-0.0062,-0.0045,9.8066,0.0251,-0.0494,0.0325,3,-43.75,-15.19,47.73,-87.34,53.33
53.060383,-1.759178,325.8,0,3,358.41,21 / 22,1191314,2019-11-06 13:02:13:022,-0.5133,0.7764,9.6797,-0.0048,0.0015,9.8066,-0.0022,0.0068,0.0034,3.06,-43.31,-14.81,48.3,-87.36,54.02
53.060383,-1.759178,325.8,0,3,358.41,21 / 22,1191414,2019-11-06 13:02:13:122,-0.1348,1.1375,10.0369,0.002,0.0099,9.8066,-0.0256,-0.011,0.0009,3.13,-43.19,-15.44,48.26,-87.36,53.99
53.060383,-1.759178,325.8,0,3,358.41,21 / 22,1191514,2019-11-06 13:02:13:222,-1.0316,0.5943,9.7933,-0.0028,-0.0312,9.8065,0.0378,0.1094,0.0307,2.94,-43.62,-14.62,44.59,-87.2,50.2
53.060383,-1.759178,325.8,0,3,358.41,21 / 22,1191614,2019-11-06 13:02:13:322,-0.0188,0.7912,9.616,-0.0044,-0.0124,9.8066,-0.0323,0.0648,-0.0023,3.69,-43.69,-14.5,38.29,-87.22,48.99
53.060383,-1.759178,325.8,0,3,358.41,21 / 22,1191715,2019-11-06 13:02:13:423,-0.5255,0.8812,9.8794,-0.0009,-0.0058,9.8066,0.0129,0.0149,-0.0507,3.63,-43.31,-15.19,39.81,-87.1,49.56
53.060383,-1.759178,325.8,0,3,358.41,21 / 22,1191814,2019-11-06 13:02:13:522,0.6806,1.6197,10.236,0.0121,0.0317,9.8065,0.026,-0.1102,0.0567,3.44,-43.56,-14.75,46.31,-87.17,51.7
53.060383,-1.759178,325.8,0,3,358.41,21 / 22,1191914,2019-11-06 13:02:13:622,0.0227,0.7444,9.7644,-0.0004,0.0106,9.8066,-0.0109,-0.0127,0.0306,3,-43.69,-15.06,47.56,-87.39,53.29
53.060383,-1.759178,325.8,0,3,358.41,21 / 22,1192014,2019-11-06 13:02:13:722,-1.1621,0.738,9.8234,-0.017,0.0022,9.8066,0.0023,-0.1249,0.0618,3.31,-43.37,-14.69,47.03,-87.44,53.04
53.060383,-1.759178,325.8,0,3,358.41,21 / 22,1192114,2019-11-06 13:02:13:822,-0.4584,1.0838,9.9899,0,0.001,9.8066,0.0108,-0.0811,0.0125,3.31,-43,-14.56,48.44,-87.43,54.31
53.060383,-1.759178,325.8,0,3,358.41,21 / 22,1192214,2019-11-06 13:02:13:922,-0.8131,0.73,9.7572,-0.0123,-0.0018,9.8066,0.0171,-0.0925,0.03,3.5,-43.44,-15.75,46.97,-87.41,56.03
53.060383,-1.759178,325.8,0,3,358.41,21 / 22,1192315,2019-11-06 13:02:14:023,0.3197,0.4388,9.9205,-0.0118,0.0011,9.8066,-0.0099,-0.0953,0.0535,3.56,-43.31,-15,47.37,-87.45,57.08
53.060383,-1.759178,325.8,0,3,358.41,21 / 22,1192414,2019-11-06 13:02:14:122,0.247,0.6949,9.545,0.0099,0.0084,9.8066,0.0323,0.0219,-0.0246,3.06,-43.56,-15.31,54.83,-87.54,60.3
53.060383,-1.759178,325.8,0,3,358.41,22 / 23,1192514,2019-11-06 13:02:14:222,0.136,0.781,9.7761,-0.0111,0.0053,9.8066,-0.0407,0.0201,0.0009,2.63,-43.87,-14.75,57.18,-87.58,62.61
53.060383,-1.759178,325.8,0,3,358.41,22 / 23,1192614,2019-11-06 13:02:14:322,-0.5121,0.6532,9.815,-0.0097,-0.0012,9.8066,-0.0258,0.038,0.0047,3.38,-43.75,-14.87,57.67,-87.56,63.03
53.060383,-1.759178,325.8,0,3,358.41,22 / 23,1192714,2019-11-06 13:02:14:422,0.2068,0.7589,9.6843,0.0061,0.0137,9.8066,-0.006,-0.0197,0.0366,3.13,-42.94,-14.75,58.59,-87.61,64.13
53.060383,-1.759178,325.8,0,3,358.41,22 / 23,1192814,2019-11-06 13:02:14:522,-0.4622,0.7284,9.7816,-0.0103,-0.0047,9.8066,-0.0215,0.0351,0.0082,2.75,-43,-15.06,58.84,-87.57,64.27
53.060383,-1.759178,325.8,0,3,358.41,22 / 23,1192914,2019-11-06 13:02:14:622,-0.012,0.7947,9.6093,-0.006,0.0115,9.8066,-0.0064,-0.0035,0.0128,2.88,-43.56,-14.69,60.29,-87.6,65.57
53.060383,-1.759178,325.8,0,3,358.41,22 / 23,1193015,2019-11-06 13:02:14:723,-0.2899,0.7427,9.927,-0.0041,0.0046,9.8066,-0.0064,0.0227,0.0333,2.94,-43.37,-14.81,60.37,-87.61,65.8
53.060383,-1.759178,325.8,0,3,358.41,22 / 23,1193115,2019-11-06 13:02:14:823,-0.0421,0.6766,9.8242,-0.0002,0.0048,9.8066,0.0046,-0.0129,-0.0046,2.94,-43.25,-14.94,61.57,-87.64,67.02
53.060383,-1.759178,325.8,0,3,358.41,22 / 23,1193215,2019-11-06 13:02:14:923,-0.2096,0.8434,9.8664,-0.0008,0.0064,9.8066,-0.0122,-0.0082,-0.0062,2.94,-43.56,-15.25,62.88,-87.65,68.14
53.060383,-1.759178,325.8,0,3,358.41,22 / 23,1193315,2019-11-06 13:02:15:023,-0.1365,0.873,9.8638,-0.0016,0.0008,9.8066,0.0237,-0.0245,-0.0033,3.19,-43.62,-14.69,64.25,-87.65,69.45
53.060383,-1.759178,325.8,0,3,358.41,22 / 23,1193415,2019-11-06 13:02:15:123,-0.1431,0.5942,9.7587,-0.001,0.0039,9.8066,-0.0054,-0.0095,0.0018,2.81,-43.56,-14.69,66.1,-87.67,71.26
53.060383,-1.759178,325.8,0,3,358.41,21 / 22,1193515,2019-11-06 13:02:15:223,-0.281,0.8822,9.9237,0.0007,0.0017,9.8066,0.0154,-0.0047,-0.0119,3.13,-43.12,-15.56,67.09,-87.7,72.09
53.060383,-1.759178,325.8,0,3,358.41,21 / 22,1193614,2019-11-06 13:02:15:322,-0.0824,0.8235,9.7725,0.0016,0.0054,9.8066,0.0058,-0.0045,-0.0081,3.13,-43.69,-14.69,69.46,-87.72,74.58
53.060383,-1.759178,325.8,0,3,358.41,21 / 22,1193714,2019-11-06 13:02:15:422,-0.1436,0.7733,9.8306,0,0.0071,9.8066,0.0006,0.0186,-0.0018,2.94,-44.06,-14.69,72.13,-87.75,77.26
53.060383,-1.759178,325.8,0,3,358.41,21 / 22,1193814,2019-11-06 13:02:15:522,-0.1244,0.6412,9.788,-0.0026,0.0054,9.8066,0.0052,0.0097,0.0011,2.81,-43.44,-14.94,73.75,-87.76,78.99
53.060383,-1.759178,325.8,0,3,358.41,21 / 22,1193914,2019-11-06 13:02:15:622,-0.147,0.7131,9.8926,-0.002,0.0074,9.8066,0.0023,0.0135,0.0002,3.31,-43.37,-15.37,76.54,-87.76,81.7
53.060383,-1.759178,325.8,0,3,358.41,21 / 22,1194014,2019-11-06 13:02:15:722,-0.1633,0.8185,9.8448,0,0.0051,9.8066,0.0063,0.0047,-0.0094,2.88,-44.06,-14.62,79.49,-87.76,84.45
53.060383,-1.759178,325.8,0,3,358.41,21 / 22,1194114,2019-11-06 13:02:15:822,-0.1852,0.571,9.7722,0.0006,0.0066,9.8066,0.002,0.0025,-0.0006,2.88,-43.25,-14.75,81.07,-87.76,86.15
53.060383,-1.759178,325.8,0,3,358.41,21 / 22,1194215,2019-11-06 13:02:15:923,-0.0683,0.8351,9.9584,0.0007,0.0071,9.8066,0.0016,-0.0149,-0.0095,3.25,-43.75,-14.87,82.79,-87.76,87.68
53.060383,-1.759178,325.8,0,3,358.41,21 / 22,1194315,2019-11-06 13:02:16:023,-0.0314,0.4652,9.712,-0.0037,0.0084,9.8066,-0.0223,-0.0106,0.0088,2.94,-43.62,-15.19,85.69,-87.75,90.52
53.060383,-1.759178,325.8,0,3,358.41,21 / 22,1194414,2019-11-06 13:02:16:122,-0.1576,0.5073,9.7926,-0.0004,0.0085,9.8066,-0.0126,-0.0096,-0.0113,2.75,-43.5,-15.12,88.34,-87.74,93.27
53.060383,-1.759178,325.8,0,3,358.41,21 / 22,1194514,2019-11-06 13:02:16:222,-0.1596,0.807,9.9611,-0.0032,0.0058,9.8066,0.0005,0.0039,0.0237,3.5,-43.25,-14.69,86.64,-87.7,95.19
53.060383,-1.759178,325.8,0,3,358.41,21 / 22,1194614,2019-11-06 13:02:16:322,0.0452,0.4302,9.8249,-0.0025,0.007,9.8066,-0.0097,0.0104,0.0004,2.88,-43.69,-14.25,92.57,-87.71,97.6
53.060383,-1.759178,325.8,0,3,358.41,21 / 22,1194715,2019-11-06 13:02:16:423,-0.0417,0.6367,9.8398,-0.0023,0.0057,9.8066,-0.0045,0.0162,0.0221,3.31,-43.69,-14.56,95.78,-87.65,100.36
53.060383,-1.759178,325.8,0,3,358.41,21 / 22,1194815,2019-11-06 13:02:16:523,-0.1785,0.541,9.8307,-0.0041,0.0053,9.8066,-0.0093,0.0211,0.0014,2.69,-44.06,-15,97.52,-87.66,102.13
53.060383,-1.759178,325.8,0,3,358.41,21 / 22,1194915,2019-11-06 13:02:16:623,-0.0125,0.7054,9.8881,-0.0009,0.0052,9.8066,0.0129,-0.0017,0.0064,3.25,-43.75,-14.75,99.61,-87.61,104.13
53.060383,-1.759178,325.8,0,3,358.41,21 / 22,1195015,2019-11-06 13:02:16:723,-0.0483,0.5074,9.8129,0.0011,0.0064,9.8066,0.0028,0.0083,-0.0035,3.19,-43.5,-14.81,101.94,-87.59,106.62
53.060383,-1.759178,325.8,0,3,358.41,21 / 22,1195115,2019-11-06 13:02:16:823,0.0009,0.5111,9.8124,-0.0005,0.0033,9.8066,0.0198,-0.0127,-0.0032,2.69,-43.69,-15.37,103.36,-87.57,107.86
53.060383,-1.759178,325.8,0,3,358.41,21 / 22,1195215,2019-11-06 13:02:16:923,-0.0698,0.5369,9.9032,-0.0008,0.0053,9.8066,0.014,-0.0065,-0.0004,2.56,-43.5,-15.19,104.91,-87.54,109.55
53.060383,-1.759178,325.8,0,3,358.41,21 / 22,1195315,2019-11-06 13:02:17:023,-0.1971,0.5213,9.8612,-0.0011,0.0077,9.8066,0.0098,-0.016,-0.0183,2.88,-43.62,-14.06,107.22,-87.49,111.95
53.060383,-1.759178,325.8,0,3,358.41,21 / 22,1195415,2019-11-06 13:02:17:123,-0.1225,0.4163,9.824,0.0009,0.0035,9.8066,0.0068,-0.0032,-0.0087,2.75,-43.37,-14.81,109,-87.45,113.54
53.060383,-1.759178,325.8,0,3,358.41,20 / 22,1195515,2019-11-06 13:02:17:223,-0.211,0.4771,9.8853,0.0024,0.005,9.8066,-0.0024,-0.0023,-0.0203,2.94,-43.75,-14.56,111.03,-87.43,115.43
53.060383,-1.759178,325.8,0,3,358.41,20 / 22,1195615,2019-11-06 13:02:17:323,0.0915,0.5573,9.8539,0.0009,0.0025,9.8066,-0.0022,0.014,0.0039,2.69,-43.56,-14.75,112.64,-87.39,117.01
53.060383,-1.759178,325.8,0,3,358.41,20 / 22,1195715,2019-11-06 13:02:17:423,-0.2889,0.5026,9.8115,0,0.0066,9.8065,-0.0136,0.0362,-0.0097,2.81,-43.87,-15.19,113.66,-87.35,118
53.060383,-1.759178,325.8,0,3,358.41,20 / 22,1195815,2019-11-06 13:02:17:523,0.0008,0.3936,9.8893,0.0004,0.0048,9.8066,0.0074,0.0058,0.0045,2.75,-42.69,-14.56,114.69,-87.3,119.1
53.060383,-1.759178,325.8,0,3,358.41,20 / 22,1195915,2019-11-06 13:02:17:623,0.0576,0.3904,9.8502,0.0027,0.0052,9.8066,-0.0077,0.0237,0.0075,2.88,-43.25,-14.94,116.45,-87.27,120.91
53.060383,-1.759178,325.8,0,3,358.41,20 / 22,1196015,2019-11-06 13:02:17:723,0.1179,0.4935,9.9384,-0.0008,0.0025,9.8066,0.0105,-0.0112,-0.0022,3.19,-43.75,-15.12,117.54,-87.25,121.84
53.060383,-1.759178,325.8,0,3,358.41,20 / 22,1196115,2019-11-06 13:02:17:823,-0.1991,0.2637,9.8266,-0.0001,0.0053,9.8066,-0.0003,0.011,-0.0026,3,-43.5,-14.56,118.27,-87.2,122.66
53.060383,-1.759178,325.8,0,3,358.41,20 / 22,1196215,2019-11-06 13:02:17:923,-0.0523,0.406,9.9182,-0.003,0.0051,9.8066,0.0075,-0.0336,0.0043,3.06,-44,-14.31,118.92,-87.18,123.44
53.060383,-1.759178,325.8,0,3,358.41,20 / 22,1196314,2019-11-06 13:02:18:022,0.1513,0.3492,9.7982,-0.0014,0.0053,9.8066,-0.0038,-0.0177,0.0084,3.19,-43.44,-14.94,120.24,-87.12,124.55
53.060383,-1.759178,325.8,0,3,358.41,20 / 22,1196414,2019-11-06 13:02:18:122,-0.0173,0.208,9.7911,-0.0037,0.004,9.8066,-0.0038,-0.0238,0.014,2.69,-43.19,-14.75,120.95,-87.1,125.29
53.060383,-1.759178,325.8,0,3,358.41,20 / 21,1196514,2019-11-06 13:02:18:222,0.047,0.6028,9.927,-0.0053,0.0048,9.8066,-0.0025,-0.0125,0.0302,3.25,-43.56,-14.44,121.95,-87.02,126.29
53.060383,-1.759178,325.8,0,3,358.41,20 / 21,1196614,2019-11-06 13:02:18:322,-0.0703,0.3473,9.8117,-0.0027,0.003,9.8066,-0.0022,0.011,0.0135,2.63,-43.62,-15.25,123.47,-86.98,127.56
53.060383,-1.759178,325.8,0,3,358.41,20 / 21,1196714,2019-11-06 13:02:18:422,0.098,0.0917,9.7374,0.0035,-0.0015,9.8066,0.0077,-0.0012,-0.0129,3.31,-44.06,-15.12,124.13,-86.97,128.25
53.060383,-1.759178,325.8,0,3,358.41,20 / 21,1196814,2019-11-06 13:02:18:522,-0.2787,0.3589,9.9426,0.0007,0.0023,9.8066,0.0113,0.0018,-0.0166,3.44,-43.31,-15.06,124.4,-86.93,128.6
53.060383,-1.759178,325.8,0,3,358.41,20 / 21,1196914,2019-11-06 13:02:18:622,0.0843,0.5408,9.7965,-0.0096,0.0034,9.8066,-0.0057,-0.0295,0.0365,3.06,-43.62,-15,124.89,-86.89,128.88
53.060383,-1.759178,325.8,0,3,358.41,20 / 21,1197014,2019-11-06 13:02:18:722,-0.2813,0.2719,9.7826,-0.0061,0.0048,9.8065,-0.0091,-0.0148,0.0099,4.25,-43.94,-16.06,122.16,-86.92,129.26
53.060383,-1.759178,325.8,0,3,358.41,20 / 21,1197114,2019-11-06 13:02:18:822,0.2341,0.1921,9.866,-0.0013,0.0031,9.8066,-0.0018,-0.0435,0.0139,4.31,-44.31,-15.94,122.82,-86.88,129.88
53.060383,-1.759178,325.8,0,3,358.41,20 / 21,1197214,2019-11-06 13:02:18:922,-0.1371,0.2991,9.9367,-0.0034,0.0032,9.8066,-0.0185,-0.0106,0.0161,4.44,-43.81,-17.31,124,-86.86,130.69
53.060383,-1.759178,325.8,0,3,358.41,20 / 21,1197314,2019-11-06 13:02:19:022,0.0282,0.5235,9.8394,-0.0021,-0.0007,9.8066,0.0042,-0.0239,0,4.38,-43.69,-16.75,124.26,-86.85,130.97
53.060383,-1.759178,325.8,0,3,358.41,20 / 21,1197414,2019-11-06 13:02:19:122,-0.2571,0.0684,9.8198,0.0022,-0.001,9.8066,-0.0061,0.0416,-0.0185,4.56,-43.75,-17.19,121.45,-86.82,131.11
53.060383,-1.759178,325.8,0,3,358.41,21 / 23,1197514,2019-11-06 13:02:19:222,-0.2252,0.3208,9.8873,-0.0043,0.001,9.8066,-0.0021,0.0039,0.0189,4.56,-43.87,-16.75,121.4,-86.8,131.03
53.060383,-1.759178,325.8,0,3,358.41,21 / 23,1197614,2019-11-06 13:02:19:322,-0.2981,0.2088,9.916,0.0004,0.0036,9.8066,-0.0099,0.0551,-0.0138,5.19,-44.12,-17.94,122.44,-86.79,131.6
53.060383,-1.759178,325.8,0,3,358.41,21 / 23,1197714,2019-11-06 13:02:19:422,-0.2335,0.367,9.8071,-0.0037,0.0022,9.8066,0.0012,0.0191,-0.0046,6.06,-43.37,-17.62,119.73,-86.75,131.79
53.060383,-1.759178,325.8,0,3,358.41,21 / 23,1197814,2019-11-06 13:02:19:522,0.057,0.2893,9.829,0.0034,0.0044,9.8066,-0.0041,0.0223,-0.0194,6.06,-43.69,-19.44,121.12,-86.73,132.48
53.060383,-1.759178,325.8,0,3,358.41,21 / 23,1197914,2019-11-06 13:02:19:622,-0.0126,0.402,9.9646,0.0031,0.0032,9.8066,0.0102,0.0029,-0.0159,6.56,-43.62,-18.44,118.13,-86.73,132.82
53.060383,-1.759178,325.8,0,3,358.41,21 / 23,1198014,2019-11-06 13:02:19:722,0.1087,0.4012,9.7699,0.0108,0.0037,9.8065,-0.0026,0.0474,-0.0298,6.25,-44.25,-19.37,121.83,-86.7,133.19
53.060383,-1.759178,325.8,0,3,358.41,21 / 23,1198115,2019-11-06 13:02:19:823,-0.3955,-0.0459,9.8713,0.0067,0.0048,9.8066,-0.0095,0.0308,-0.0202,6.94,-44.25,-18.62,120.62,-86.75,134.79
53.060383,-1.759178,325.8,0,3,358.41,21 / 23,1198215,2019-11-06 13:02:19:923,0.0587,0.4014,10.0022,0.0029,-0.0002,9.8066,-0.0095,0.0467,-0.0143,7.25,-44.12,-18.81,121.05,-86.73,135.22
53.060383,-1.759178,325.8,0,3,358.41,21 / 23,1198315,2019-11-06 13:02:20:023,-0.3919,0.0532,9.6415,-0.0003,0.0023,9.8066,-0.0264,0.0517,-0.021,6.69,-43.87,-18.75,120.85,-86.73,135.01
53.060383,-1.759178,325.8,0,3,358.41,21 / 23,1198414,2019-11-06 13:02:20:122,0.2398,0.3882,10.0144,0.0023,0.0044,9.8066,-0.0227,0.0205,-0.0636,7.5,-44.25,-18.94,118.2,-86.71,134.86
53.060383,-1.759178,325.8,0,3,358.41,20 / 22,1198515,2019-11-06 13:02:20:223,-0.1441,0.453,10.0235,0.0056,-0.0019,9.8066,0.0031,-0.0402,-0.0766,6.88,-43.75,-19.62,121.94,-86.66,135.38
53.060383,-1.759178,325.8,0,3,358.41,20 / 22,1198614,2019-11-06 13:02:20:322,0.1322,0.173,9.6156,-0.0162,0.0012,9.8066,-0.0347,-0.0293,0.0837,6.81,-43.81,-18.94,120.65,-86.63,134.61
53.060383,-1.759178,325.8,0,3,358.41,20 / 22,1198714,2019-11-06 13:02:20:422,-0.4616,0.1325,9.9098,-0.0034,0.0071,9.8065,-0.032,0.0145,0.025,7.19,-43.75,-18.94,121.37,-86.67,135.45
53.060383,-1.759178,325.8,0,3,358.41,20 / 22,1198814,2019-11-06 13:02:20:522,-0.1096,0.1887,9.9299,-0.0054,-0.0025,9.8066,0.016,-0.0176,0.0119,6.44,-44.44,-18.56,124.07,-86.7,135.6
53.060383,-1.759178,325.8,0,3,358.41,20 / 22,1198914,2019-11-06 13:02:20:622,-0.5127,0.3067,9.8862,0.0047,-0.0016,9.8066,0.0207,0.0321,-0.0398,7.19,-44.19,-19.12,121.48,-86.68,135.58
53.060383,-1.759178,325.8,0,3,358.41,20 / 22,1199015,2019-11-06 13:02:20:723,-0.1445,0.114,9.8196,-0.0038,0.0025,9.8066,-0.0078,-0.0029,-0.0042,7.38,-43.94,-19.62,122.25,-86.65,135.68
53.060383,-1.759178,325.8,0,3,358.41,20 / 22,1199115,2019-11-06 13:02:20:823,0.1252,0.2128,9.9918,0.0031,0.002,9.8066,-0.0151,0.0226,-0.0156,6.75,-43.81,-19.44,121.9,-86.65,135.98
53.060383,-1.759178,325.8,0,3,358.41,20 / 22,1199215,2019-11-06 13:02:20:923,-0.203,0.3728,9.8834,0.0012,0.0014,9.8066,-0.0089,0.0311,-0.0055,7.38,-44.12,-19.12,122.43,-86.67,136.57
53.060383,-1.759178,325.8,0,3,358.41,20 / 22,1199315,2019-11-06 13:02:21:023,0.4044,0.0701,9.8555,0.0045,0.0016,9.8066,0.0069,0.03,-0.028,7.13,-44.19,-19.94,123.66,-86.68,137.24
53.060383,-1.759178,325.8,0,3,358.41,20 / 22,1199415,2019-11-06 13:02:21:123,-0.3865,0.2056,9.9545,0.0001,-0.0024,9.8066,-0.0046,0.0519,-0.0276,6.88,-43.37,-18.56,122.51,-86.64,136.74
53.060383,-1.759178,325.8,0,3,358.41,20 / 21,1199515,2019-11-06 13:02:21:223,0.0549,0.2288,9.8611,0.002,0.0008,9.8066,0.0156,0.0139,-0.0165,7.38,-43.44,-19.37,121.9,-86.61,136.04
53.060383,-1.759178,325.8,0,3,358.41,20 / 21,1199614,2019-11-06 13:02:21:322,-0.3679,-0.0082,9.7767,0.0041,0.0049,9.8065,-0.0015,0.0323,-0.0362,7.13,-43.94,-19.69,122.99,-86.59,136.38
53.060383,-1.759178,325.8,0,3,358.41,20 / 21,1199714,2019-11-06 13:02:21:422,-0.0899,0.196,9.8675,-0.0011,0.0021,9.8066,0.0046,-0.0164,-0.0118,6.75,-44,-19.37,122.14,-86.56,136.08
53.060383,-1.759178,325.8,0,3,358.41,20 / 21,1199814,2019-11-06 13:02:21:522,-0.3319,0.2102,9.8492,0.0031,0.0062,9.8066,-0.015,0.016,-0.0151,7.81,-43.81,-19.75,120.79,-86.53,136.54
53.060383,-1.759178,325.8,0,3,358.41,20 / 21,1199915,2019-11-06 13:02:21:623,0.1654,0.2135,9.9204,-0.0058,0.0022,9.8066,-0.0179,-0.0262,0.0103,7.38,-43.69,-19.69,123.38,-86.49,136.61
53.060383,-1.759178,325.8,0,3,358.41,20 / 21,1200014,2019-11-06 13:02:21:722,0.1722,0.126,9.8037,-0.0017,0.0001,9.8066,-0.0083,0.0237,-0.0154,7,-44.25,-19.69,123.17,-86.47,136.35
53.060383,-1.759178,325.8,0,3,358.41,20 / 21,1200114,2019-11-06 13:02:21:822,-0.026,0.2473,9.7265,-0.0076,0.0023,9.8066,-0.0006,-0.0232,0.0115,7.56,-43.06,-19.81,120.52,-86.43,136.21
53.060383,-1.759178,325.8,0,3,358.41,20 / 21,1200214,2019-11-06 13:02:21:922,-0.022,0.3586,9.7859,-0.0025,0.0034,9.8066,-0.0021,0.0024,0.0205,7.25,-43.62,-19.75,123.47,-86.34,136.45
53.060383,-1.759178,325.8,0,3,358.41,20 / 21,1200314,2019-11-06 13:02:22:022,-0.4232,0.0404,9.8306,-0.0048,0.0007,9.8066,-0.0066,-0.0184,0.0276,7.69,-44.12,-19.81,121.34,-86.35,136.8
53.060383,-1.759178,325.8,0,3,358.41,20 / 21,1200414,2019-11-06 13:02:22:122,0.1104,0.084,9.8828,-0.0022,-0.0017,9.8066,0.0142,-0.0411,0.0209,7.31,-43.87,-19.06,123.34,-86.34,136.96
53.060383,-1.759178,325.8,0,3,358.41,20 / 20,1200515,2019-11-06 13:02:22:223,-0.2872,0.0653,9.7642,-0.0043,0,9.8066,0.004,-0.0172,0.0056,7.31,-44.37,-19.19,123.28,-86.32,136.85
53.060383,-1.759178,325.8,0,3,358.41,20 / 20,1200615,2019-11-06 13:02:22:323,-0.1329,0.3888,9.8944,-0.0018,-0.0018,9.8066,0.0202,-0.0443,-0.0014,7.13,-44.5,-19.19,123.57,-86.31,137.14
53.060383,-1.759178,325.8,0,3,358.41,20 / 20,1200715,2019-11-06 13:02:22:423,-0.2102,-0.044,9.8179,-0.0005,0.0014,9.8066,-0.0035,-0.0102,-0.0058,7.44,-43.94,-19.31,123.81,-86.29,137.36
53.060383,-1.759178,325.8,0,3,358.41,20 / 20,1200815,2019-11-06 13:02:22:523,0.0904,0.3171,9.8697,-0.0038,-0.0012,9.8066,0.0009,-0.0219,0.0139,7.75,-43.81,-18.69,121.49,-86.27,137.56
53.060383,-1.759178,325.8,0,3,358.41,20 / 20,1200915,2019-11-06 13:02:22:623,-0.0503,0.3165,9.8397,0.0014,0,9.8066,-0.0074,0.0337,-0.0106,7.38,-44.25,-19.12,124.12,-86.26,137.66
53.060383,-1.759178,325.8,0,3,358.41,20 / 20,1201015,2019-11-06 13:02:22:723,0.0932,0.2366,9.7666,-0.0021,-0.0006,9.8066,0.0066,0.0062,0.0102,7.56,-44.37,-19.31,121.6,-86.25,137.65
53.060383,-1.759178,325.8,0,3,358.41,20 / 20,1201115,2019-11-06 13:02:22:823,-0.0576,0.2866,9.9583,0.0018,0.004,9.8066,-0.0087,0.0332,-0.0069,6.94,-43.69,-18.56,124.92,-86.22,138.45
53.060383,-1.759178,325.8,0,3,358.41,20 / 20,1201214,2019-11-06 13:02:22:922,0.1658,0.1655,9.9364,0.0009,0.0005,9.8066,0.0061,0.0014,0.0007,6.13,-44.06,-19,127.48,-86.23,138.44
53.060383,-1.759178,325.8,0,3,358.41,20 / 20,1201314,2019-11-06 13:02:23:022,-0.2118,0.3606,9.9443,-0.0038,-0.0006,9.8066,0.0152,-0.0458,-0.0039,6,-44.06,-18.19,127,-86.21,138.46
53.060383,-1.759178,325.8,0,3,358.41,20 / 20,1201415,2019-11-06 13:02:23:123,0.1497,0.1186,9.8241,-0.0072,0.0039,9.8066,-0.0009,-0.04,0.0213,5,-43.62,-17.87,129.73,-86.17,138.35
53.060383,-1.759178,325.8,0,3,358.41,21 / 21,1201515,2019-11-06 13:02:23:223,-0.2408,0.2361,9.9161,-0.0044,0.0013,9.8066,-0.0154,-0.0164,0.019,4.38,-44.56,-16.44,132.59,-86.17,138.96
53.060383,-1.759178,325.8,0,3,358.41,21 / 21,1201615,2019-11-06 13:02:23:323,2.0661,-0.8245,8.1959,-0.0013,0.0006,9.8066,-0.0036,-0.047,0.0051,3.38,-44.31,-14.94,135.28,-86.14,138.82
53.060383,-1.759178,325.8,0,3,358.41,21 / 21,1201715,2019-11-06 13:02:23:423,-5.9198,1.7235,9.386,-0.0138,0.0268,9.8066,-0.3202,0.0066,0.1164,3.56,-43.56,-14.69,127.76,-86.08,133.94
53.060383,-1.759178,325.8,0,3,358.41,21 / 21,1201815,2019-11-06 13:02:23:523,1.5145,0.1729,9.869,-0.0458,-0.0406,9.8064,0.0615,-0.3232,0.1781,3.25,-43.31,-14.19,127.28,-86.63,131.34
53.060383,-1.759178,325.8,0,3,358.41,21 / 21,1201915,2019-11-06 13:02:23:623,-2.7525,0.0768,9.5648,0.0249,-0.0025,9.8066,-0.0031,0.1467,-0.1844,3.25,-42.94,-14.56,127.24,-86.72,131.24
53.060383,-1.759178,325.8,0,3,358.41,21 / 21,1202015,2019-11-06 13:02:23:723,1.307,0.4336,9.8189,-0.025,-0.0125,9.8065,0.0346,-0.1453,0.0878,2.75,-43.19,-14.62,126.81,-86.71,130.74
53.060383,-1.759178,325.8,0,3,358.41,21 / 21,1202115,2019-11-06 13:02:23:823,1.4073,0.7205,10.1308,0.0218,0.0074,9.8065,-0.0432,0.2675,-0.1382,3.25,-43.94,-14.62,127.48,-86.71,131.3
53.060383,-1.759178,325.8,0,3,358.41,21 / 21,1202215,2019-11-06 13:02:23:923,1.0975,0.6886,10.2745,-0.0103,0.0058,9.8065,-0.024,0.056,-0.0293,3.44,-43.25,-15,127.65,-86.74,131.73
53.060383,-1.759178,325.8,0,3,358.41,21 / 21,1202315,2019-11-06 13:02:24:023,1.3629,0.3962,9.791,0.0355,0.0064,9.8065,-0.0144,0.2284,-0.1578,2.81,-43.81,-14.62,129.58,-86.86,133.94
53.060383,-1.759178,325.8,0,3,358.41,21 / 21,1202415,2019-11-06 13:02:24:123,-2.064,-0.0291,9.7803,0.0191,0.0061,9.8066,-0.0391,0.198,-0.1095,3.63,-43.62,-15.12,125.56,-86.78,133.08
53.060383,-1.759178,325.8,0,3,358.41,21 / 22,1202515,2019-11-06 13:02:24:223,0.3068,0.5657,10.0767,0.023,0.0029,9.8066,-0.0054,0.1462,-0.0541,2.88,-43.69,-15.19,128.01,-86.73,131.92
53.060383,-1.759178,325.8,0,3,358.41,21 / 22,1202614,2019-11-06 13:02:24:322,-1.7613,0.1149,9.7067,0.0208,0.0097,9.8065,-0.0423,0.2054,-0.108,3,-43.62,-14.37,129.12,-86.8,133.61
53.060383,-1.759178,325.8,0,3,358.41,21 / 22,1202714,2019-11-06 13:02:24:422,0.6682,0.1916,9.8122,0.0096,0.001,9.8066,0.0102,0.0051,-0.0085,3.38,-43.75,-14.94,128.32,-86.77,132.37
53.060383,-1.759178,325.8,0,3,358.41,21 / 22,1202814,2019-11-06 13:02:24:522,-1.3809,0.2083,9.8103,0.0218,0.0049,9.8066,-0.0162,0.1405,-0.0872,3.38,-43.44,-14.81,128.96,-86.82,133.34
53.060383,-1.759178,325.8,0,3,358.41,21 / 22,1202914,2019-11-06 13:02:24:622,0.6847,0.4306,9.9527,-0.0052,-0.0001,9.8066,0.0186,-0.1042,0.0465,3,-43.56,-14.81,128.64,-86.77,132.72
53.060383,-1.759178,325.8,0,3,358.41,21 / 22,1203014,2019-11-06 13:02:24:722,0.5368,0.1751,9.8002,0.0128,0.0057,9.8066,-0.0143,0.0446,-0.0319,3.25,-44.25,-14.5,129.29,-86.8,133.78
53.060383,-1.759178,325.8,0,3,358.41,21 / 22,1203114,2019-11-06 13:02:24:822,0.8125,0.3695,9.9009,-0.0153,-0.0042,9.8066,0.0154,-0.1201,0.0773,3.56,-43.44,-14.94,126.05,-86.81,133.85
53.060383,-1.759178,325.8,0,3,358.41,21 / 22,1203214,2019-11-06 13:02:24:922,0.134,0.3281,9.8781,0.0022,0.0007,9.8066,-0.0056,-0.0072,0.0124,3.75,-43.75,-14.94,125.98,-86.76,133.5
53.060383,-1.759178,325.8,0,3,358.41,21 / 22,1203314,2019-11-06 13:02:25:022,-0.945,-0.0364,9.7293,-0.0123,-0.0035,9.8066,0.0177,-0.084,0.0594,3.63,-43.31,-15.06,126.05,-86.76,133.75
53.060383,-1.759178,325.8,0,3,358.41,21 / 22,1203414,2019-11-06 13:02:25:122,-0.1256,0.2033,9.8274,-0.0077,-0.0005,9.8066,0.0043,-0.0696,0.0435,2.81,-43.5,-14.75,129.17,-86.72,133.35
53.060383,-1.759178,325.8,0,3,358.41,22 / 23,1203515,2019-11-06 13:02:25:223,-0.2683,0.2452,9.8363,-0.0104,-0.0006,9.8066,0.0143,-0.0669,0.0275,3.06,-43.69,-14.44,129.13,-86.7,133.37
53.060383,-1.759178,325.8,0,3,358.41,22 / 23,1203614,2019-11-06 13:02:25:322,0.6957,0.2671,9.8115,-0.0104,0.0006,9.8066,-0.0006,-0.0942,0.0501,2.75,-44,-15.06,129.82,-86.69,133.83
53.060383,-1.759178,325.8,0,3,358.41,22 / 23,1203714,2019-11-06 13:02:25:422,-0.4382,0.2309,9.8234,-0.0043,0.0002,9.8066,-0.0026,-0.0084,0.0008,3.25,-43,-15.37,130.01,-86.7,134.23
53.060383,-1.759178,325.8,0,3,358.41,22 / 23,1203814,2019-11-06 13:02:25:522,0.4358,0.4152,9.9087,-0.0108,-0.0017,9.8066,-0.0042,-0.0545,0.0436,3.88,-43.19,-14.25,125.98,-86.65,133.94
53.060383,-1.759178,325.8,0,3,358.41,22 / 23,1203914,2019-11-06 13:02:25:622,-0.4252,0.1513,9.7627,0.0022,0.003,9.8066,-0.0064,0.0518,-0.0178,3.25,-43.37,-14.81,130.16,-86.66,134.33
53.060383,-1.759178,325.8,0,3,358.41,22 / 23,1204014,2019-11-06 13:02:25:722,-0.305,0.2234,9.8136,-0.0062,0.001,9.8066,-0.0013,-0.012,0.0186,3.06,-43.62,-14.87,130.7,-86.63,134.68
53.060383,-1.759178,325.8,0,3,358.41,22 / 23,1204114,2019-11-06 13:02:25:822,-0.4743,0.2334,9.8137,0.0032,0.0034,9.8066,-0.0023,0.0484,-0.0224,2.75,-43.31,-14.81,131.11,-86.63,135.32
53.060383,-1.759178,325.8,0,3,358.41,22 / 23,1204214,2019-11-06 13:02:25:922,-0.0843,0.0577,9.7456,-0.0018,0.0024,9.8066,0.0004,-0.0088,-0.0157,2.5,-42.69,-14.56,131.26,-86.6,135.41
53.060383,-1.759178,325.8,0,3,358.41,22 / 23,1204314,2019-11-06 13:02:26:022,0.3324,0.3285,9.8525,0.0056,0.0041,9.8066,-0.0037,0.0378,-0.0358,3.63,-44.12,-14.56,128,-86.58,135.32
53.060383,-1.759178,325.8,0,3,358.41,22 / 23,1204414,2019-11-06 13:02:26:122,0.0089,0.1537,9.8252,0.0028,0.0005,9.8066,-0.0068,0.0213,-0.0348,3.19,-43.62,-14.94,132.09,-86.56,136.1
53.060383,-1.759178,325.8,0,3,358.41,20 / 22,1204514,2019-11-06 13:02:26:222,0.2138,0.273,9.8353,0.0049,0.0044,9.8066,-0.0206,0.0335,-0.021,3.13,-43.81,-14.69,131.85,-86.54,135.77
53.060383,-1.759178,325.8,0,3,358.41,20 / 22,1204614,2019-11-06 13:02:26:322,-0.2872,0.2395,9.8726,0.0019,0.0011,9.8066,-0.0104,0.0464,-0.0172,3.63,-43.37,-15.06,128.84,-86.52,136.29
53.060383,-1.759178,325.8,0,3,358.41,20 / 22,1204718,2019-11-06 13:02:26:426,-0.1734,0.2501,9.9058,0.0012,0.0024,9.8066,-0.0159,0.0257,0.0047,3.44,-43.75,-14.56,132.65,-86.49,136.56
53.060383,-1.759178,325.8,0,3,358.41,20 / 22,1204814,2019-11-06 13:02:26:522,-0.343,0.0159,9.7684,0.0046,-0.0003,9.8066,0.0111,0.0455,-0.0096,3.31,-43.81,-14.75,132.67,-86.49,136.59
53.060383,-1.759178,325.8,0,3,358.41,20 / 22,1204916,2019-11-06 13:02:26:624,0.1413,0.3408,9.9097,0.0007,0.0002,9.8066,-0.0005,-0.0039,0.0062,3.13,-43.75,-15.12,132.85,-86.48,136.76
53.060383,-1.759178,325.8,0,3,358.41,20 / 22,1205014,2019-11-06 13:02:26:722,0.0316,0.3691,9.8808,0.0034,0.0005,9.8066,0.0131,0.0075,-0.0117,3.19,-44,-14.87,133.04,-86.48,136.99
53.060383,-1.759178,325.8,0,3,358.41,20 / 22,1205114,2019-11-06 13:02:26:822,0.1857,0.2107,9.845,-0.004,0.0008,9.8066,0.0006,-0.0472,0.012,2.81,-43.75,-14.69,133.32,-86.47,137.27
53.060383,-1.759178,325.8,0,3,358.41,20 / 22,1205214,2019-11-06 13:02:26:922,0.0128,0.2616,9.8521,-0.0005,0.0012,9.8066,0.0071,-0.0297,-0.0028,3.31,-43.81,-14.5,133.12,-86.44,137.26
53.060383,-1.759178,325.8,0,3,358.41,20 / 22,1205314,2019-11-06 13:02:27:022,-0.3045,0.3104,9.8748,-0.0046,0.001,9.8066,-0.0071,-0.0207,0.012,3.38,-43.62,-14.81,133.4,-86.4,137.22
53.060383,-1.759178,325.8,0,3,358.41,20 / 22,1205414,2019-11-06 13:02:27:122,-0.0256,0.2387,9.8411,-0.0026,-0.0001,9.8066,0.0062,-0.0082,0.0157,3.44,-43.31,-14.75,133.3,-86.39,137.27
53.060383,-1.759178,325.8,0,3,358.41,20 / 21,1205514,2019-11-06 13:02:27:222,-0.3273,0.2203,9.8792,-0.0028,0.002,9.8066,-0.0092,0.0121,0.0064,3.5,-43.69,-14.75,130.48,-86.38,137.65
53.060383,-1.759178,325.8,0,3,358.41,20 / 21,1205614,2019-11-06 13:02:27:322,0.1032,0.2169,9.8743,-0.002,-0.0016,9.8066,0.0113,-0.0151,0.0136,2.88,-43.5,-14.75,133.66,-86.37,137.63
53.060383,-1.759178,325.8,0,3,358.41,20 / 21,1205714,2019-11-06 13:02:27:422,-0.2437,0.3122,9.853,-0.0009,0.0022,9.8066,-0.003,-0.0086,-0.0121,2.94,-43.75,-15.31,134.01,-86.37,137.84
53.060383,-1.759178,325.8,0,3,358.41,20 / 21,1205815,2019-11-06 13:02:27:523,0.1412,0.261,9.9188,-0.0052,0.0004,9.8066,0.0155,-0.0394,0.0104,2.88,-43.75,-14.56,133.96,-86.34,137.72
53.060383,-1.759178,325.8,0,3,358.41,20 / 21,1205914,2019-11-06 13:02:27:622,-0.0324,0.1825,9.8336,0.0003,0.0002,9.8066,-0.0055,0.0155,-0.0109,3.06,-43.75,-14.62,134.4,-86.32,138.19
53.060383,-1.759178,325.8,0,3,358.41,20 / 21,1206014,2019-11-06 13:02:27:722,0.1645,0.35,9.9112,-0.0003,0.0001,9.8066,0.0045,-0.0002,-0.0011,3.44,-43.5,-14.69,134.26,-86.31,138.17
53.060383,-1.759178,325.8,0,3,358.41,20 / 21,1206114,2019-11-06 13:02:27:822,0.0423,0.113,9.8228,0.0011,0.0008,9.8066,0.0004,0.0433,-0.0013,2.5,-43.31,-14.62,134.32,-86.29,138.21
53.060383,-1.759178,325.8,0,3,358.41,20 / 21,1206214,2019-11-06 13:02:27:922,-0.356,0.2156,9.898,0.0022,0.001,9.8066,-0.0019,0.0344,-0.0176,3.25,-43.69,-14.62,134.75,-86.28,138.5
53.060383,-1.759178,325.8,0,3,358.41,20 / 21,1206314,2019-11-06 13:02:28:022,-0.1125,0.3502,9.8973,0.0034,0.0012,9.8066,0.0047,0.0103,-0.0168,3.44,-43.12,-15.06,134.48,-86.26,138.33
53.060383,-1.759178,325.8,0,3,358.41,20 / 21,1206414,2019-11-06 13:02:28:122,-0.1126,0.1078,9.7867,0,0.0039,9.8066,-0.0019,-0.0028,-0.0116,3.31,-43.44,-14.44,134.65,-86.26,138.78
53.060383,-1.759178,325.8,0,3,358.41,21 / 22,1206514,2019-11-06 13:02:28:222,0.0619,0.278,9.9206,0.0009,0.002,9.8066,-0.0124,0.006,-0.0146,3.13,-43.25,-14.56,135.14,-86.24,139.03
53.060383,-1.759178,325.8,0,3,358.41,21 / 22,1206614,2019-11-06 13:02:28:322,-0.157,0.3004,9.9275,0.0013,0.0021,9.8066,-0.0066,0.0135,-0.0093,3.38,-43.31,-14.69,135.08,-86.24,138.95
53.060383,-1.759178,325.8,0,3,358.41,21 / 22,1206714,2019-11-06 13:02:28:422,0.0687,0.0939,9.8873,0.001,0.0025,9.8066,-0.0155,0.0086,0.0103,3.06,-43.12,-14.69,135.17,-86.23,139.04
53.060383,-1.759178,325.8,0,3,358.41,21 / 22,1206814,2019-11-06 13:02:28:522,0.0176,0.1942,9.823,0.0022,0.0015,9.8066,-0.0077,0.0427,0.001,3.25,-43.31,-15.06,135.5,-86.22,139.4
53.060383,-1.759178,325.8,0,3,358.41,21 / 22,1206914,2019-11-06 13:02:28:622,0.1305,0.165,9.8977,-0.0011,-0.0004,9.8066,0.0013,-0.0037,0.0152,3.31,-43.94,-14.94,135.8,-86.21,139.54
53.060383,-1.759178,325.8,0,3,358.41,21 / 22,1207014,2019-11-06 13:02:28:722,-0.0988,0.271,9.9218,0.001,-0.0011,9.8066,0.0073,0.0016,0.0046,3.63,-43.19,-14.75,132.32,-86.22,139.54
53.060383,-1.759178,325.8,0,3,358.41,21 / 22,1207114,2019-11-06 13:02:28:822,-0.1579,0.0738,9.7328,-0.001,-0.0015,9.8066,0.0142,-0.021,0.0036,2.88,-43.94,-14.87,135.91,-86.21,139.68
53.060383,-1.759178,325.8,0,3,358.41,21 / 22,1207214,2019-11-06 13:02:28:922,-0.1089,0.2554,9.9226,0.0002,0.0005,9.8066,0.0099,-0.0126,-0.0049,3.13,-44.06,-15,136.12,-86.2,139.9
53.060383,-1.759178,325.8,0,3,358.41,21 / 22,1207314,2019-11-06 13:02:29:022,-0.133,0.241,9.8799,-0.0023,0,9.8066,0.0109,-0.0256,-0.0012,3.38,-42.94,-14.81,136.2,-86.18,140.13
53.060383,-1.759178,325.8,0,3,358.41,21 / 22,1207414,2019-11-06 13:02:29:122,0.0631,0.0356,9.8137,-0.0023,0.003,9.8066,-0.0101,-0.0217,0.0043,3.38,-43.44,-14.81,136.33,-86.14,140.19
53.060383,-1.759178,325.8,0,3,358.41,22 / 22,1207514,2019-11-06 13:02:29:222,-0.1044,0.1993,9.9602,-0.0016,-0.001,9.8066,0.0068,0.0115,0.0061,2.81,-43.37,-14.44,136.25,-86.13,140.34
53.060383,-1.759178,325.8,0,3,358.41,22 / 22,1207614,2019-11-06 13:02:29:322,0.0448,0.1465,9.7952,-0.0021,0.0026,9.8066,-0.0181,0.0005,0.0106,3.56,-43.5,-15.25,133.25,-86.11,140.36
53.060383,-1.759178,325.8,0,3,358.41,22 / 22,1207714,2019-11-06 13:02:29:422,-0.0261,0.0162,9.8189,0.0004,0.0014,9.8066,0.0062,0.0207,0.0028,3.06,-43.69,-14.5,136.6,-86.11,140.51
53.060383,-1.759178,325.8,0,3,358.41,22 / 22,1207814,2019-11-06 13:02:29:522,0.0255,0.126,9.8947,-0.0011,0.0028,9.8066,-0.012,-0.0028,-0.0031,2.94,-43.62,-14.94,137.03,-86.1,140.73
53.060383,-1.759178,325.8,0,3,358.41,22 / 22,1207915,2019-11-06 13:02:29:623,-0.0559,0.1166,9.8205,0.0001,0.0023,9.8066,0.0046,-0.01,-0.0101,3.38,-43,-14.75,136.82,-86.1,140.67
53.060383,-1.759178,325.8,0,3,358.41,22 / 22,1208015,2019-11-06 13:02:29:723,-0.0951,-0.0248,9.7649,-0.0008,0.0026,9.8066,-0.0115,-0.0103,-0.0068,2.81,-43.75,-14.62,137.25,-86.06,140.92
53.060383,-1.759178,325.8,0,3,358.41,22 / 22,1208115,2019-11-06 13:02:29:823,-0.1002,0.1,9.8098,0.0011,0.0014,9.8066,-0.0037,0.0103,-0.0027,3.13,-43.87,-14.56,137.06,-86.06,140.68
53.060383,-1.759178,325.8,0,3,358.41,22 / 22,1208215,2019-11-06 13:02:29:923,-0.1619,0.1834,9.8923,0.0002,0,9.8066,-0.0001,0.0201,-0.0027,3.44,-42.75,-14.87,137.16,-86.04,140.95
53.060383,-1.759178,325.8,0,3,358.41,22 / 22,1208314,2019-11-06 13:02:30:022,0.1195,0.0382,9.7989,0.003,0.0005,9.8066,0.0028,0.0213,-0.0116,3,-43.31,-15.06,137.3,-86.04,141.11
53.060383,-1.759178,325.8,0,3,358.41,22 / 22,1208414,2019-11-06 13:02:30:122,-0.1182,0.1325,9.856,0.0011,0.0011,9.8066,0,0.0143,-0.0053,3.19,-43.31,-14.94,137.42,-86.03,141.22
53.060383,-1.759178,325.8,0,3,358.41,21 / 22,1208514,2019-11-06 13:02:30:222,0.0777,0.1583,9.8778,-0.0002,0.0004,9.8066,0.0153,-0.016,-0.0056,2.88,-43.56,-15.06,137.66,-86.02,141.3
53.060383,-1.759178,325.8,0,3,358.41,21 / 22,1208614,2019-11-06 13:02:30:322,-0.0739,-0.0039,9.7613,0.0008,0.0034,9.8066,-0.0157,-0.0079,-0.0102,3.25,-43.5,-14.69,137.77,-85.98,141.53
53.060383,-1.759178,325.8,0,3,358.41,21 / 22,1208714,2019-11-06 13:02:30:422,0.03,0.0565,9.8844,-0.0013,-0.0003,9.8066,0.0031,-0.0051,0.0114,3.69,-43.31,-14.31,134.05,-85.98,141.51
53.060383,-1.759178,325.8,0,3,358.41,21 / 22,1208815,2019-11-06 13:02:30:523,-0.0625,0.0377,9.8,-0.0003,0.0021,9.8066,-0.0245,0.0171,-0.0019,3.63,-43.69,-15.25,134.76,-85.96,141.6
53.060383,-1.759178,325.8,0,3,358.41,21 / 22,1208915,2019-11-06 13:02:30:623,-0.1004,0.172,9.8658,-0.0012,0.0024,9.8066,-0.0111,0.0153,0.0101,2.69,-44.12,-14.81,137.83,-85.95,141.37
53.060383,-1.759178,325.8,0,3,358.41,21 / 22,1209014,2019-11-06 13:02:30:722,-0.1185,-0.0842,9.8175,-0.0004,0.001,9.8066,-0.0093,0.0196,0.0067,2.56,-43.87,-15.19,137.92,-85.94,141.45
53.060383,-1.759178,325.8,0,3,358.41,21 / 22,1209114,2019-11-06 13:02:30:822,-0.1042,0.0792,9.7933,-0.0016,0.0035,9.8066,-0.0016,-0.014,0.0122,3.25,-44.19,-14.75,137.83,-85.95,141.36
53.060383,-1.759178,325.8,0,3,358.41,21 / 22,1209214,2019-11-06 13:02:30:922,0.0454,0.3361,9.9273,0.0001,-0.0005,9.8066,0.0147,-0.0139,-0.0011,3.25,-43.62,-14.94,138.13,-85.93,141.68
53.060383,-1.759178,325.8,0,3,358.41,21 / 22,1209314,2019-11-06 13:02:31:022,-0.1565,0.0696,9.7367,-0.0014,0.002,9.8066,0.0005,-0.0215,-0.0066,3.06,-43.5,-15.19,138.11,-85.93,141.82
53.060383,-1.759178,325.8,0,3,358.41,21 / 22,1209414,2019-11-06 13:02:31:122,0.0389,0.0729,9.8381,-0.001,-0.0018,9.8066,0.0137,-0.0336,-0.0042,3.63,-42.94,-14.19,134.54,-85.91,141.91
53.060383,-1.759178,325.8,0,3,358.41,20 / 21,1209514,2019-11-06 13:02:31:222,-0.194,0.2236,9.838,-0.0011,0.0017,9.8066,-0.0154,-0.0085,-0.0034,3.75,-43.62,-14.69,135.26,-85.89,142.02
53.060383,-1.759178,325.8,0,3,358.41,20 / 21,1209614,2019-11-06 13:02:31:322,-0.0251,0.1085,9.8986,-0.0025,-0.0007,9.8066,0.0036,-0.0154,0.0073,3.5,-43.44,-14.25,134.66,-85.88,141.99
53.060383,-1.759178,325.8,0,3,358.41,20 / 21,1209714,2019-11-06 13:02:31:422,-0.2026,0.0601,9.8085,0.0005,0.0024,9.8066,-0.016,0.0271,-0.0021,3.25,-43.06,-14.75,138.44,-85.86,142.08
53.060383,-1.759178,325.8,0,3,358.41,20 / 21,1209814,2019-11-06 13:02:31:522,0.0304,0.3054,9.9461,-0.0012,-0.0018,9.8066,0.0103,0.0101,0.0163,3.06,-43.19,-14.62,138.55,-85.85,142.19
53.060383,-1.759178,325.8,0,3,358.41,20 / 21,1209914,2019-11-06 13:02:31:622,0.0756,0.078,9.8927,0.0022,0.0012,9.8066,-0.0067,0.033,-0.0087,3.75,-43.44,-14.87,135.49,-85.84,142.39
53.060383,-1.759178,325.8,0,3,358.41,20 / 21,1210015,2019-11-06 13:02:31:723,-0.0169,0.0029,9.8112,0.0007,-0.0007,9.8066,0.0139,0.0118,-0.0065,3,-42.81,-14.19,138.59,-85.85,142.48
53.060383,-1.759178,325.8,0,3,358.41,20 / 21,1210114,2019-11-06 13:02:31:822,0.0711,0.2113,9.9722,0.0005,0.0014,9.8066,0.0019,-0.0027,-0.0152,2.5,-43.56,-14.75,139.05,-85.84,142.56
53.060383,-1.759178,325.8,0,3,358.41,20 / 21,1210214,2019-11-06 13:02:31:922,-0.0817,0.053,9.873,-0.0004,0.0011,9.8066,0.0047,-0.0055,-0.0114,3.19,-43.5,-14.5,138.73,-85.82,142.59
53.060383,-1.759178,325.8,0,3,358.41,20 / 21,1210315,2019-11-06 13:02:32:023,-0.0336,-0.0016,9.8446,0.0008,-0.0002,9.8066,-0.0111,0.0084,-0.0054,3.19,-43.44,-14.81,139.03,-85.81,142.67
53.060383,-1.759178,325.8,0,3,358.41,20 / 21,1210414,2019-11-06 13:02:32:122,-0.0877,0.1766,9.9545,-0.0001,-0.0003,9.8066,0.0035,0.0061,0.0009,3.19,-43.25,-15.12,138.97,-85.81,142.6
53.060383,-1.759178,325.8,0,3,358.41,20 / 20,1210514,2019-11-06 13:02:32:222,0.0086,0.1731,9.9192,0.0009,0.0004,9.8066,-0.013,0.0245,0.0044,3.31,-43,-14.81,139.13,-85.79,142.75
53.060383,-1.759178,325.8,0,3,358.41,20 / 20,1210614,2019-11-06 13:02:32:322,-0.101,0.0138,9.8372,0.0013,0.0003,9.8066,-0.0022,0.0268,0.0071,3.13,-43.75,-15.31,139.22,-85.8,142.69
53.060383,-1.759178,325.8,0,3,358.41,20 / 20,1210714,2019-11-06 13:02:32:422,-0.0027,0.1568,9.9736,-0.001,-0.0003,9.8066,0.0074,-0.0076,0.0039,3.13,-43.37,-14.81,139.14,-85.8,142.78
53.060383,-1.759178,325.8,0,3,358.41,20 / 20,1210814,2019-11-06 13:02:32:522,-0.0205,0.149,9.8364,-0.0008,0.001,9.8066,0.0085,-0.0144,-0.0024,3,-43.37,-14.81,139.11,-85.8,142.74
53.060383,-1.759178,325.8,0,3,358.41,20 / 20,1210915,2019-11-06 13:02:32:623,-0.0466,0.1614,9.8495,0.0002,-0.0007,9.8066,0.009,-0.0112,-0.0037,3.06,-44.12,-14.62,139.39,-85.78,142.85
53.060383,-1.759178,325.8,0,3,358.41,20 / 20,1211015,2019-11-06 13:02:32:723,-0.0368,0.0625,9.8715,0.0004,0.0004,9.8066,-0.0016,-0.0154,-0.0097,3.06,-43.5,-15.5,139.31,-85.78,142.94
53.060383,-1.759178,325.8,0,3,358.41,20 / 20,1211114,2019-11-06 13:02:32:822,-0.0727,0.0927,9.8586,-0.001,-0.0008,9.8066,-0.0024,-0.0045,0.0012,3,-43.44,-14.69,139.2,-85.78,142.8
53.060383,-1.759178,325.8,0,3,358.41,20 / 20,1211214,2019-11-06 13:02:32:922,0.0027,0.0286,9.7624,-0.0014,0.0019,9.8066,-0.0144,0.0054,0.0042,2.88,-43.06,-15.44,139.21,-85.76,142.78
53.060383,-1.759178,325.8,0,3,358.41,20 / 20,1211314,2019-11-06 13:02:33:022,-0.0307,0.1515,9.9357,-0.0003,0.0003,9.8066,0.002,0.0149,0.0068,2.81,-43.5,-14.87,139.22,-85.75,142.79
53.060383,-1.759178,325.8,0,3,358.41,20 / 20,1211414,2019-11-06 13:02:33:122,-0.0174,0.1506,9.8792,-0.0002,0.0008,9.8066,-0.0075,0.0157,0.0123,3.75,-43.56,-14.87,136.25,-85.74,142.89
53.060383,-1.759178,325.8,0,3,358.41,20 / 20,1211514,2019-11-06 13:02:33:222,0.0254,-0.0554,9.6723,0.0007,-0.0002,9.8066,0.015,0.0336,0.0021,3,-43.5,-15.12,139.41,-85.76,143.01
53.060383,-1.759178,325.8,0,3,358.41,20 / 20,1211614,2019-11-06 13:02:33:322,0.1896,-0.4648,9.6626,0.0033,-0.0028,9.8066,-0.0147,0.0318,-0.0361,3.56,-43,-15.12,136.15,-85.76,142.98
53.060383,-1.759178,325.8,0,3,358.41,20 / 20,1211714,2019-11-06 13:02:33:422,0.1898,0.0556,9.8783,0.007,-0.0043,9.8066,0.0087,0.0541,-0.0344,3.19,-43.44,-14.87,138.9,-85.82,142.53
53.060383,-1.759178,325.8,0,3,358.41,20 / 20,1211814,2019-11-06 13:02:33:522,-0.4345,0.2527,9.7748,0.0006,0.0065,9.8066,-0.0176,0.0233,-0.0179,2.75,-42.75,-15.19,138.93,-85.78,142.5
53.060383,-1.759178,325.8,0,3,358.41,20 / 20,1211915,2019-11-06 13:02:33:623,0.0255,0.1775,9.8562,0.0013,0.0037,9.8066,0.0053,0.0315,-0.0119,2.88,-43.56,-14.62,139,-85.77,142.38
53.060383,-1.759178,325.8,0,3,358.41,20 / 20,1212015,2019-11-06 13:02:33:723,-0.3019,-0.1528,9.7604,0.005,0.0045,9.8066,-0.0208,0.0455,-0.0229,3.13,-43.44,-14.94,139.28,-85.74,142.82
53.060383,-1.759178,325.8,0,3,358.41,20 / 20,1212115,2019-11-06 13:02:33:823,0.0363,0.0887,10.0071,0.002,-0.0007,9.8066,0.0021,-0.0225,-0.0056,3.38,-43.25,-14.87,139.16,-85.73,142.67
53.060383,-1.759178,325.8,0,3,358.41,20 / 20,1212215,2019-11-06 13:02:33:923,-0.1743,-0.047,9.8872,0.0026,-0.0053,9.8066,-0.0038,0.0146,-0.0058,3,-43,-15.25,138.85,-85.77,142.39
53.060383,-1.759178,325.8,0,3,358.41,20 / 20,1212315,2019-11-06 13:02:34:023,-0.0635,-0.1317,9.7678,-0.0027,-0.0046,9.8066,-0.014,-0.0263,0.0086,2.88,-43.19,-14.94,138.15,-85.82,141.66
53.060383,-1.759178,325.8,0,3,358.41,20 / 20,1212416,2019-11-06 13:02:34:124,0.1229,0.2976,9.7945,-0.0017,-0.0028,9.8066,0.0129,-0.0087,0.0092,3.31,-43.19,-15.5,137.88,-85.84,141.4
53.060383,-1.759178,325.8,0,3,358.41,21 / 23,1212514,2019-11-06 13:02:34:222,0.1097,0.4294,9.8816,-0.0007,0.0015,9.8066,-0.0017,-0.0105,0.0035,2.75,-43.31,-14.62,138.07,-85.82,141.58
53.060383,-1.759178,325.8,0,3,358.41,21 / 23,1212614,2019-11-06 13:02:34:322,0.2364,0.1565,9.9273,-0.0039,-0.0009,9.8066,0.0095,-0.0215,0.013,3.19,-43.12,-15.25,137.95,-85.81,141.42
53.060383,-1.759178,325.8,0,3,358.41,21 / 23,1212715,2019-11-06 13:02:34:423,-0.0807,0.4775,9.9384,0,0.0006,9.8066,-0.0047,0.0108,-0.0136,2.88,-43,-14.75,138.14,-85.79,141.6
53.060383,-1.759178,325.8,0,3,358.41,21 / 23,1212815,2019-11-06 13:02:34:523,0.3227,0.5301,9.9205,-0.0057,0.0024,9.8066,0.0051,-0.0268,0.0165,3.31,-43.12,-15.5,138.13,-85.76,141.54
53.060383,-1.759178,325.8,0,3,358.41,21 / 23,1212915,2019-11-06 13:02:34:623,-0.2666,0.3038,9.8545,0.0023,0.0018,9.8066,0.0032,0.0252,-0.0176,3.63,-43.25,-14.5,134.95,-85.75,142.05
53.060383,-1.759178,325.8,0,3,358.41,21 / 23,1213014,2019-11-06 13:02:34:722,-0.121,0.3845,9.9093,-0.0045,-0.0002,9.8066,0.0044,-0.0119,0.0112,3.13,-43.37,-14.44,138.38,-85.72,141.98
53.060383,-1.759178,325.8,0,3,358.41,21 / 23,1213114,2019-11-06 13:02:34:822,-0.204,0.7669,9.9192,0.0005,0.0014,9.8066,0.0013,0.0261,-0.011,3.13,-43.56,-14.44,138.73,-85.7,142.15
53.060383,-1.759178,325.8,0,3,358.41,21 / 23,1213214,2019-11-06 13:02:34:922,-0.2037,0.78,9.9121,-0.0019,0.0032,9.8066,0.0088,0.016,-0.0114,2.81,-43.25,-15.62,139.1,-85.66,142.28
53.060383,-1.759178,325.8,0,3,358.41,21 / 23,1213314,2019-11-06 13:02:35:022,0.0873,1.1896,9.8626,0.0023,0.0048,9.8065,0.0175,0.0173,-0.0188,3.44,-43.56,-14.75,139.22,-85.62,142.35
53.060383,-1.759178,325.8,0,3,358.41,21 / 23,1213414,2019-11-06 13:02:35:122,-0.155,2.2308,9.9486,0.0004,0.0047,9.8066,0.0396,0.0086,-0.0031,2.94,-43.25,-15.19,139.68,-85.56,142.96
53.060383,-1.759178,325.8,0,3,358.41,21 / 22,1213514,2019-11-06 13:02:35:222,-0.0661,2.1743,9.8777,-0.0006,0.0034,9.8065,0.0068,0.0076,0.0026,3.81,-43.25,-14.25,137.26,-85.42,144.08
53.060383,-1.759178,325.8,0,3,358.41,21 / 22,1213615,2019-11-06 13:02:35:323,-0.1166,2.5263,9.8408,0.0002,0.0155,9.8066,0.0265,0.0091,-0.0161,2.81,-43.5,-14.81,141.58,-85.32,144.79
53.060383,-1.759178,325.8,0,3,358.41,21 / 22,1213715,2019-11-06 13:02:35:423,0.1808,1.3612,9.9939,-0.0035,-0.0043,9.8065,-0.0183,0.0328,-0.0085,2.56,-43.37,-14.56,141.68,-85.23,144.74
53.060383,-1.759178,325.8,0,3,358.41,21 / 22,1213815,2019-11-06 13:02:35:523,-0.1254,1.1049,9.9495,0.0008,0.0127,9.8066,0.006,0.0171,-0.0408,3.44,-43.87,-14.37,141.5,-85.18,144.43
53.060383,-1.759178,325.8,0,3,358.41,21 / 22,1213915,2019-11-06 13:02:35:623,-0.1543,1.0235,9.9201,0.0031,-0.0065,9.8066,-0.0091,-0.0409,0.0087,3,-43.25,-15.31,140.82,-85.11,143.51
53.060383,-1.759178,325.8,0,3,358.41,21 / 22,1214014,2019-11-06 13:02:35:722,-0.285,1.57,9.6502,-0.0019,0.0106,9.8066,0.009,-0.0323,0.0161,3.25,-43.56,-15.5,141.3,-85.12,143.9
53.060383,-1.759178,325.8,0,3,358.41,21 / 22,1214114,2019-11-06 13:02:35:822,0.0376,1.6176,10.187,0.0033,-0.0053,9.8066,-0.0178,-0.0267,0.0172,3,-42.94,-15.06,141.35,-85.21,144.31
53.060383,-1.759178,325.8,0,3,358.41,21 / 22,1214214,2019-11-06 13:02:35:922,-0.2288,1.8178,10.0499,-0.0043,0.012,9.8066,0.0018,-0.0238,-0.0177,2.94,-43.44,-15.87,142.05,-85.16,144.87
53.060383,-1.759178,325.8,0,3,358.41,21 / 22,1214315,2019-11-06 13:02:36:023,0.1513,1.4693,10.135,-0.0028,-0.0016,9.8066,-0.0133,0.0522,-0.0416,3.31,-43.56,-15.37,141.72,-85.13,144.41
53.060383,-1.759178,325.8,0,3,358.41,21 / 22,1214415,2019-11-06 13:02:36:123,-0.5041,0.4881,9.6522,-0.011,0.0142,9.8066,0.022,0.0161,-0.0982,2.63,-42.25,-15.31,140.49,-84.95,143.06
53.060383,-1.759178,325.8,0,3,358.41,22 / 22,1214514,2019-11-06 13:02:36:222,0.0709,1.0467,9.609,0.0004,-0.0104,9.8066,-0.035,0.0239,-0.0645,3,-42.37,-15,139.79,-84.72,141.8
53.060383,-1.759178,325.8,0,3,358.41,22 / 22,1214614,2019-11-06 13:02:36:322,-0.7739,0.0039,10.05,0.0017,-0.0261,9.8066,-0.0448,0.0524,-0.0426,3.31,-42.12,-14.75,137.26,-84.88,139.1
53.060383,-1.759178,325.8,0,3,358.41,22 / 22,1214714,2019-11-06 13:02:36:422,0.0191,1.3734,10.1324,0.0086,0.0087,9.8066,0.0279,0.008,0.0258,3.06,-42.44,-15.44,137.06,-84.97,139.03
53.060383,-1.759178,325.8,0,3,358.41,22 / 22,1214814,2019-11-06 13:02:36:522,-0.1526,2.4298,9.5822,0.002,0.0151,9.8066,0.0494,0.0364,-0.0421,2.44,-42.25,-15.87,141.82,-84.84,140.72
53.060383,-1.759178,325.8,0,3,358.41,22 / 22,1214914,2019-11-06 13:02:36:622,0.274,1.0799,9.6401,0.0023,0.0152,9.8066,-0.004,0.0705,-0.0488,2.5,-42.62,-15.56,140.17,-84.63,141.77
53.060383,-1.759178,325.8,0,3,358.41,22 / 22,1215014,2019-11-06 13:02:36:722,-0.8303,2.7495,10.2701,-0.0082,-0.0014,9.8066,0.0023,0.0945,-0.0728,2.38,-42,-15.81,142.88,-84.46,141.39
53.060383,-1.759178,325.8,0,3,358.41,22 / 22,1215115,2019-11-06 13:02:36:823,0.2283,-0.2762,9.5007,0.014,-0.0382,9.8065,-0.0181,0.0591,-0.0218,2.56,-41.75,-15.87,138.71,-84.47,140
53.060383,-1.759178,325.8,0,3,358.41,22 / 22,1215215,2019-11-06 13:02:36:923,-0.0323,1.7536,9.7622,0.0259,-0.0058,9.8065,0.0058,0.0424,0.0081,1.5,-41.5,-15.87,140.26,-84.87,139.12
53.060383,-1.759178,325.8,0,3,358.41,22 / 22,1215315,2019-11-06 13:02:37:023,0.5589,1.2042,10.255,0.0179,-0.0169,9.8066,-0.0159,0.0408,0.0077,2.06,-41.5,-15.69,141.59,-85.09,141.03
53.060383,-1.759178,325.8,0,3,358.41,22 / 22,1215414,2019-11-06 13:02:37:122,0.6002,0.742,9.986,-0.0029,-0.0143,9.8066,-0.0091,0.0048,-0.0324,2,-41.06,-15.44,140.81,-85.23,140.3
53.060383,-1.759178,325.8,0,3,358.41,21 / 21,1215515,2019-11-06 13:02:37:223,-0.5353,1.4578,9.1789,-0.0031,-0.014,9.8066,-0.0058,0.0208,-0.0651,2.44,-41.75,-15.31,138.96,-85.26,137.97
53.060383,-1.759178,325.8,0,3,358.41,21 / 21,1215614,2019-11-06 13:02:37:322,0.0652,1.1272,9.8351,-0.0177,-0.0065,9.8066,-0.0201,0.0125,-0.0582,2.56,-41.37,-16.44,133.23,-85.2,135.1
53.060383,-1.759178,325.8,0,3,358.41,21 / 21,1215714,2019-11-06 13:02:37:422,-0.4319,0.6693,9.4926,-0.0043,-0.0056,9.8066,0.013,-0.0082,-0.0273,2.69,-40.87,-16,130.72,-85.08,132.01
53.060383,-1.759178,325.8,0,3,358.41,21 / 21,1215814,2019-11-06 13:02:37:522,-0.6038,-0.1303,10.1713,-0.0082,-0.0082,9.8066,-0.0131,-0.0004,0.0477,2.94,-40.37,-14.94,129.45,-85.08,130.87
53.060383,-1.759178,325.8,0,3,358.41,21 / 21,1215915,2019-11-06 13:02:37:623,0.2123,-0.4624,9.905,0.032,-0.009,9.8065,-0.0545,-0.0101,0.0528,3.06,-41.12,-16,129.7,-85.52,131.68
53.060383,-1.759178,325.8,0,3,358.41,21 / 21,1216015,2019-11-06 13:02:37:723,0.9109,-1.2903,10.1208,0.0328,-0.0157,9.8066,-0.0255,0.0661,0.0086,2.44,-40.44,-16,133.29,-85.87,133.01
53.060383,-1.759178,325.8,0,3,358.41,21 / 21,1216114,2019-11-06 13:02:37:822,1.4578,-0.2015,9.3683,-0.0114,-0.0024,9.8066,-0.0313,-0.0626,0.0244,3.94,-40.75,-14.69,126.35,-86.04,132.9
53.060383,-1.759178,325.8,0,3,358.41,21 / 21,1216214,2019-11-06 13:02:37:922,0.5172,-0.3365,9.3862,-0.0154,0.0002,9.8066,-0.0048,-0.0222,0.0017,3.94,-40.75,-15.12,124.75,-85.93,130.87
53.060383,-1.759178,325.8,0,3,358.41,21 / 21,1216314,2019-11-06 13:02:38:022,-1.0109,-0.8494,9.6966,-0.0194,-0.004,9.8065,0.0058,-0.0883,0.0009,4.06,-41.37,-16.12,123.98,-85.82,129.43
53.060383,-1.759178,325.8,0,3,358.41,21 / 21,1216415,2019-11-06 13:02:38:123,0.4137,-0.95,10.2716,-0.0073,-0.0037,9.8066,0.0526,-0.1349,0.0657,3.13,-40.94,-15.87,126.11,-85.71,128.02
53.060383,-1.759178,325.8,0,3,358.41,21 / 21,1216514,2019-11-06 13:02:38:222,-0.4364,-0.8023,10.4071,0.0119,0.0176,9.8065,0.029,-0.0095,0.0439,3.38,-41.75,-16.06,129.24,-85.73,131.37
53.060383,-1.759178,325.8,0,3,358.41,21 / 21,1216614,2019-11-06 13:02:38:322,0.4744,-0.6747,10.0132,0.0138,-0.0043,9.8065,-0.0215,-0.1065,0.0506,3.19,-42.06,-16.94,132.76,-85.87,135.44
53.060383,-1.759178,325.8,0,3,358.41,21 / 21,1216714,2019-11-06 13:02:38:422,0.428,-0.7328,9.6122,0.0121,-0.0089,9.8066,-0.0021,0.0204,-0.0176,3.06,-42.06,-16.5,132.3,-86.08,135.49
53.060383,-1.759178,325.8,0,3,358.41,21 / 21,1216814,2019-11-06 13:02:38:522,0.9837,-0.4802,9.5585,-0.0072,0.0039,9.8066,0.0061,-0.0393,-0.0304,3.75,-41.94,-17.06,129.55,-86.1,135.6
53.060383,-1.759178,325.8,0,3,358.41,21 / 21,1216914,2019-11-06 13:02:38:622,0.0777,0.0672,9.809,-0.0171,0.0169,9.8065,0.0609,-0.0407,-0.0533,2.75,-42.75,-16.56,131.81,-85.75,133.98
53.060383,-1.759178,325.8,0,3,358.41,21 / 21,1217014,2019-11-06 13:02:38:722,0.0586,-0.6129,10.4601,-0.0112,0.0192,9.8066,0.0524,-0.0629,-0.0115,3.19,-42.94,-16.19,132.87,-85.48,134.79
53.060383,-1.759178,325.8,0,3,358.41,21 / 21,1217115,2019-11-06 13:02:38:823,-0.1586,-0.0416,10.1385,0.0141,0.013,9.8066,0.0531,-0.0119,0.0044,3.31,-43.44,-15.81,134.26,-85.3,136.04
53.060383,-1.759178,325.8,0,3,358.41,21 / 21,1217214,2019-11-06 13:02:38:922,1.0661,0.1496,9.6328,0.0026,0.0231,9.8065,0.0305,0.0516,-0.0254,2.88,-43.12,-15.94,136.67,-85.22,138.68
53.060383,-1.759178,325.8,0,3,358.41,21 / 21,1217315,2019-11-06 13:02:39:023,1.0688,-1.147,9.5838,0.0102,-0.0133,9.8066,0.0028,-0.0871,-0.0023,2.63,-42.81,-16.12,138.9,-85.34,141.5
53.060383,-1.759178,325.8,0,3,358.41,21 / 21,1217415,2019-11-06 13:02:39:123,-0.4175,-0.4597,9.6552,-0.0081,0.0008,9.8066,0.0187,0.0114,-0.0219,2.44,-42.62,-16.12,140.92,-85.39,140.35
53.060474,-1.7592,327.2,3.14,2,0.75,21 / 23,1217514,2019-11-06 13:02:39:222,0.217,-1.049,9.8235,-0.0182,0.0107,9.8066,-0.005,-0.0357,-0.0281,2.5,-42.87,-15.69,137.76,-85.12,139.79
53.060474,-1.7592,327.2,3.14,2,0.75,21 / 23,1217614,2019-11-06 13:02:39:322,-0.4402,-0.8997,9.7676,-0.002,0.0084,9.8066,-0.0256,-0.0293,0.0172,2,-43.62,-15.94,140.42,-85,138.93
53.060474,-1.7592,327.2,3.14,2,0.75,21 / 23,1217714,2019-11-06 13:02:39:422,-0.211,-1.2991,9.9623,0.01,-0.0129,9.8066,-0.0018,-0.0008,-0.0086,2.63,-42.94,-15.69,137.06,-85.14,139
53.060474,-1.7592,327.2,3.14,2,0.75,21 / 23,1217814,2019-11-06 13:02:39:522,0.3202,-0.7958,9.8024,0.028,-0.0074,9.8065,-0.0014,-0.0253,-0.0083,2.31,-43.81,-16.94,140.33,-85.12,139.1
53.060474,-1.7592,327.2,3.14,2,0.75,21 / 23,1217914,2019-11-06 13:02:39:622,0.0421,-0.716,10.0634,0.0053,-0.0099,9.8066,-0.0188,-0.0166,0.0075,1.69,-43.44,-15.87,140.83,-85.35,140.18
53.060474,-1.7592,327.2,3.14,2,0.75,21 / 23,1218015,2019-11-06 13:02:39:723,0.3423,-0.8654,9.4333,-0.0075,-0.0114,9.8066,0.0033,-0.0017,0.013,2.13,-42.81,-16.12,138.75,-85.52,138.05
53.060474,-1.7592,327.2,3.14,2,0.75,21 / 23,1218114,2019-11-06 13:02:39:822,-0.0508,-0.9928,9.6621,-0.0122,0.0108,9.8066,0.0129,0.0014,-0.0624,2.19,-42.81,-16.19,138.92,-85.43,138.1
53.060474,-1.7592,327.2,3.14,2,0.75,21 / 23,1218214,2019-11-06 13:02:39:922,0.0365,-1.3117,9.8917,-0.0125,0.006,9.8066,-0.0084,-0.0271,-0.0246,1.75,-42.75,-16.62,137.81,-85.27,136.6
53.060474,-1.7592,327.2,3.14,2,0.75,21 / 23,1218314,2019-11-06 13:02:40:022,-0.237,-1.0196,10.039,-0.0032,-0.0069,9.8066,0.0014,0.0238,-0.0319,2.88,-43.56,-16.62,133.83,-85.17,135.02
53.060474,-1.7592,327.2,3.14,2,0.75,21 / 23,1218414,2019-11-06 13:02:40:122,0.4848,-1.5686,9.9316,0.0017,-0.0024,9.8066,-0.0003,-0.0529,0.0233,2.25,-43.37,-16.69,136.32,-85.14,134.66
53.060474,-1.7592,327.2,3.14,2,0.75,22 / 23,1218514,2019-11-06 13:02:40:222,-0.1762,-1.3713,9.7523,0.0059,0.0116,9.8066,0.0244,0.0103,-0.005,2.56,-42.87,-17,134.2,-85.1,135.51
53.060474,-1.7592,327.2,3.14,2,0.75,22 / 23,1218614,2019-11-06 13:02:40:322,-0.1552,-1.1636,9.7512,-0.0035,0.007,9.8066,0.0092,-0.0363,0.0262,2.19,-42.87,-16.06,138.23,-85.06,136.65
53.060474,-1.7592,327.2,3.14,2,0.75,22 / 23,1218714,2019-11-06 13:02:40:422,-0.4717,-1.3787,9.7897,-0.0001,0.0041,9.8066,0.0077,0.0135,-0.0088,2.44,-42.94,-16.31,138.97,-84.97,137.36
53.060474,-1.7592,327.2,3.14,2,0.75,22 / 23,1218814,2019-11-06 13:02:40:522,-0.1693,-1.0756,9.9079,-0.0002,0.0013,9.8066,0.002,0.0014,-0.0248,2.38,-43.31,-15.69,138.98,-84.93,137.31
53.060474,-1.7592,327.2,3.14,2,0.75,22 / 23,1218914,2019-11-06 13:02:40:622,0.183,-1.651,9.8453,-0.0067,0.0097,9.8066,0.0165,-0.0342,0.0448,2.19,-43.75,-16.25,139.39,-84.82,137.39
53.060474,-1.7592,327.2,3.14,2,0.75,22 / 23,1219015,2019-11-06 13:02:40:723,-0.1076,-1.7747,9.9601,-0.0002,-0.0056,9.8066,0.0234,0.0287,0.0454,2.69,-42.62,-16.5,136.75,-84.84,138.09
53.060474,-1.7592,327.2,3.14,2,0.75,22 / 23,1219115,2019-11-06 13:02:40:823,-0.1868,-2.6622,9.5276,0.0128,-0.0052,9.8066,-0.0216,0.0283,-0.0327,1.81,-43.12,-16.94,139.98,-84.93,138.59
53.060474,-1.7592,327.2,3.14,2,0.75,22 / 23,1219215,2019-11-06 13:02:40:923,0.3739,-2.0845,9.4594,0.0085,0.0021,9.8065,0.0254,0.0574,0.0131,1.63,-43.37,-16.75,139.62,-84.97,138.22
53.060474,-1.7592,327.2,3.14,2,0.75,22 / 23,1219315,2019-11-06 13:02:41:023,-0.536,-2.6204,9.6346,0.0078,0.0072,9.8066,-0.0299,0.0906,-0.0563,1.94,-43.37,-17,140.98,-84.97,139.82
53.060474,-1.7592,327.2,3.14,2,0.75,22 / 23,1219415,2019-11-06 13:02:41:123,0.1397,-2.1877,9.8392,-0.0032,0.0056,9.8066,-0.0177,0.0015,-0.0114,1.5,-43.81,-17.12,140.57,-84.95,139.12
53.060474,-1.7592,327.2,3.14,2,0.75,21 / 22,1219515,2019-11-06 13:02:41:223,0.1108,-2.0407,9.873,0.0005,-0.0023,9.8066,-0.0025,0.0396,-0.0116,2.75,-43.31,-16.87,137.26,-84.91,138.74
53.060474,-1.7592,327.2,3.14,2,0.75,21 / 22,1219614,2019-11-06 13:02:41:322,0.1241,-1.7231,9.7632,0.0014,0.0005,9.8066,0.0096,-0.0205,0.004,2.56,-43.81,-16.37,137.37,-84.91,138.75
53.060474,-1.7592,327.2,3.14,2,0.75,21 / 22,1219714,2019-11-06 13:02:41:422,-0.0952,-1.7134,9.6987,0.0028,0.0021,9.8066,0.0115,0.0124,0.0086,2.44,-43.25,-16.56,140.36,-84.9,138.98
53.060474,-1.7592,327.2,3.14,2,0.75,21 / 22,1219814,2019-11-06 13:02:41:522,-0.0614,-1.3784,9.7184,-0.0022,-0.0004,9.8066,0.0136,-0.0092,0.0229,1.88,-43.56,-16.94,140.99,-84.92,139.55
53.060474,-1.7592,327.2,3.14,2,0.75,21 / 22,1219914,2019-11-06 13:02:41:622,-0.1668,-1.2461,9.8659,0.0034,0.0006,9.8066,0.0043,0.0161,-0.0172,2.56,-43.19,-16.87,137.99,-84.92,139.61
53.060474,-1.7592,327.2,3.14,2,0.75,21 / 22,1220015,2019-11-06 13:02:41:723,-0.0135,-1.4854,9.7005,-0.0025,-0.0022,9.8066,0.008,-0.0273,0.0093,2.75,-43.56,-16.56,138.1,-84.9,139.5
53.060474,-1.7592,327.2,3.14,2,0.75,21 / 22,1220114,2019-11-06 13:02:41:822,0.1357,-0.3892,10.0044,0,-0.001,9.8066,0.0253,-0.004,0.0011,2.19,-43.62,-16.56,140.78,-84.9,139.27
53.060474,-1.7592,327.2,3.14,2,0.75,21 / 22,1220215,2019-11-06 13:02:41:923,0.0194,0.0432,9.8122,-0.0036,0.0107,9.8066,0.0208,-0.033,0.0149,2.38,-43.12,-16.94,141.37,-84.78,139.98
53.060474,-1.7592,327.2,3.14,2,0.75,21 / 22,1220314,2019-11-06 13:02:42:022,0.2582,0.4827,9.8617,0.0002,0.0092,9.8066,0.031,-0.0273,0.0172,2.31,-43.5,-16.5,142.43,-84.7,141.02
53.060474,-1.7592,327.2,3.14,2,0.75,21 / 22,1220414,2019-11-06 13:02:42:122,-0.1517,-0.3682,9.6612,-0.0031,-0.0011,9.8066,-0.0114,0.002,-0.0011,2.31,-43.44,-16.31,142.82,-84.66,141.41
53.060474,-1.7592,327.2,3.14,2,0.75,21 / 21,1220514,2019-11-06 13:02:42:222,0.2532,-0.1524,10.0209,-0.0045,-0.0039,9.8066,-0.0121,-0.0336,0.0157,2.06,-43.56,-16.44,142.45,-84.68,140.81
