GPS LATITUDE (degrees), GPS LONGITUDE (degrees), GPS ALTITUDE (m), GPS SPEED (Kmh), GPS ACCURACY (m), GPS ORIENTATION (Â°),GPS SATELLITES IN RANGE, TIME SINCE START (ms), DATE (YYYY-MO-DD HH-MI-SS_SSS), ACCELEROMETER X (m/s²) , ACCELEROMETER Y (m/s²), ACCELEROMETER Z (m/s²), GRAVITY X (m/s²), GRAVITY Y (m/s²), GRAVITY Z (m/s²), GYROSCOPE Yaw (rad/s), GYROSCOPE Pitch (rad/s), GYROSCOPE Roll (rad/s), MAGNETIC FIELD X (Î¼T), MAGNETIC FIELD Y (Î¼T), MAGNETIC FIELD Z (Î¼T), ORIENTATION (Yaw) (Â°), ORIENTATION (Pitch) (Â°), ORIENTATION (Roll ) (Â°)
52.832485,-1.653545,117.63,14.42,4,353.55,22 / 22,318112,2019-11-06 11:51:11:993,0.6771,0.0493,9.7605,-0.0134,0.0052,9.8066,-0.0324,0.0937,-0.0663,-14.94,-37.62,-4.5,134.42,-86.27,52.87
52.832485,-1.653545,117.63,14.42,4,353.55,22 / 22,318212,2019-11-06 11:51:12:093,0.9329,-0.6405,9.9895,-0.0049,0.0038,9.8066,-0.0091,0.0017,-0.0432,-15.44,-37.31,-4.12,130.59,-86.3,48.87
52.832485,-1.653545,117.63,14.42,4,353.55,22 / 22,318311,2019-11-06 11:51:12:192,0.4733,-1.3199,10.1442,0.0011,0.0043,9.8066,0.0217,0.0184,0.0161,-14.69,-37.44,-4.06,131.12,-86.32,49.47
52.832485,-1.653545,117.63,14.42,4,353.55,22 / 22,318412,2019-11-06 11:51:12:293,1.6172,0.7448,9.8047,0.0107,0.0085,9.8066,0.0051,0.0699,-0.0691,-14.31,-37.5,-4.25,137.15,-86.27,56.69
52.832485,-1.653545,117.63,14.42,4,353.55,23 / 23,318512,2019-11-06 11:51:12:393,0.0928,0.3896,8.8931,0.0095,0.018,9.8066,-0.0172,-0.0518,-0.0536,-14.62,-37.25,-3.19,143.79,-86.15,59.65
52.832485,-1.653545,117.63,14.42,4,353.55,23 / 23,318611,2019-11-06 11:51:12:492,1.4298,0.2581,9.0893,0.0131,0.0076,9.8066,0.0668,-0.0563,0.0005,-14.25,-37.69,-4.37,139.01,-85.94,58.05
52.832485,-1.653545,117.63,14.42,4,353.55,23 / 23,318712,2019-11-06 11:51:12:593,0.8178,-0.8027,9.4392,-0.0077,-0.0174,9.8066,-0.0859,-0.1851,0.1336,-15.25,-37.19,-3.62,139.12,-85.95,57.78
52.832485,-1.653545,117.63,14.42,4,353.55,23 / 23,318812,2019-11-06 11:51:12:693,1.9556,-2.847,9.6418,-0.0115,-0.0343,9.8065,-0.0013,-0.3171,0.1727,-14.87,-37.37,-3.44,140.87,-86.18,56.39
52.832485,-1.653545,117.63,14.42,4,353.55,23 / 23,318912,2019-11-06 11:51:12:793,1.3975,0.7829,9.6951,0.0121,-0.0507,9.8064,0.0164,0.1217,-0.1057,-14.44,-37.87,-3.56,135.73,-86.32,55.01
52.832485,-1.653545,117.63,14.42,4,353.55,23 / 23,319012,2019-11-06 11:51:12:893,0.8317,-1.1107,10.6544,-0.024,0.0182,9.8065,-0.0821,-0.0269,-0.0141,-15.19,-37.19,-3.19,139.24,-86.05,54.37
52.832485,-1.653545,117.63,14.42,4,353.55,23 / 23,319112,2019-11-06 11:51:12:993,1.2435,-1.6256,9.5191,-0.0017,0.0058,9.8066,-0.0164,-0.0615,0.1277,-14.25,-37.87,-3.62,135.89,-86.04,54.68
52.832485,-1.653545,117.63,14.42,4,353.55,23 / 23,319212,2019-11-06 11:51:13:093,1.0414,-3.0168,9.7285,-0.011,-0.0048,9.8066,-0.0906,0.3106,-0.2565,-15.44,-37.62,-3.87,136.08,-86.01,54.28
52.832485,-1.653545,117.63,14.42,4,353.55,23 / 23,319312,2019-11-06 11:51:13:193,0.7826,0.4112,9.5235,0.01,-0.0551,9.8064,-0.0701,0.2022,0.0379,-14.75,-37.44,-4.31,134.12,-86.09,52.42
52.832485,-1.653545,117.63,14.42,4,353.55,23 / 23,319412,2019-11-06 11:51:13:293,0.1728,0.0707,8.7752,-0.0008,0.0075,9.8066,-0.0533,0.14,-0.1177,-14.56,-37.37,-3.62,135.93,-85.71,53.8
52.832485,-1.653545,117.63,14.42,4,353.55,22 / 22,319512,2019-11-06 11:51:13:393,2.0379,-2.5889,10.5064,-0.0196,0.0325,9.8065,-0.0233,0.156,-0.2595,-14.75,-37.75,-4.06,134.68,-85.67,52.13
52.832485,-1.653545,117.63,14.42,4,353.55,22 / 22,319612,2019-11-06 11:51:13:493,1.0243,-1.4887,10.5353,0.0057,0.029,9.8066,0.1328,-0.146,0.0306,-15.12,-37.25,-3.62,134.42,-85.76,52.19
52.832485,-1.653545,117.63,14.42,4,353.55,22 / 22,319712,2019-11-06 11:51:13:593,1.8185,-2.6159,10.6862,0.0014,0.0271,9.8065,0.0599,-0.0024,0.0021,-14.62,-37.69,-3.62,137.06,-85.85,55.14
52.832485,-1.653545,117.63,14.42,4,353.55,22 / 22,319812,2019-11-06 11:51:13:693,1.3452,0.2237,10.163,0.0019,0.0113,9.8065,0.0031,-0.2185,0.043,-15,-37.69,-3.69,138.12,-86.02,56.6
52.832485,-1.653545,117.63,14.42,4,353.55,22 / 22,319912,2019-11-06 11:51:13:793,2.0144,-1.9237,9.7893,-0.0131,0.0218,9.8066,0.0135,-0.1466,0.0898,-14.44,-37.87,-3.69,138.23,-85.82,56.95
52.832485,-1.653545,117.63,14.42,4,353.55,22 / 22,320012,2019-11-06 11:51:13:893,-0.6794,-0.4631,9.6349,-0.0088,-0.0075,9.8065,0.0346,-0.0467,-0.0001,-15.25,-37.62,-4.19,137.79,-85.63,55.61
52.832485,-1.653545,117.63,14.42,4,353.55,22 / 22,320112,2019-11-06 11:51:13:993,0.5121,-0.7971,9.6997,-0.0242,-0.0046,9.8066,-0.0397,-0.1571,0.0467,-14.62,-37.31,-4,137.02,-85.54,54.77
52.832485,-1.653545,117.63,14.42,4,353.55,22 / 22,320212,2019-11-06 11:51:14:093,1.3894,-2.8385,9.9098,-0.0091,-0.0415,9.8065,-0.1087,0.1536,-0.0895,-14.06,-37.62,-3.94,134.97,-85.56,52.78
52.832485,-1.653545,117.63,14.42,4,353.55,22 / 22,320312,2019-11-06 11:51:14:193,1.07,-1.2502,10.0434,0.0053,-0.0311,9.8066,0.0201,-0.1331,0.0541,-15.31,-37.56,-3.87,135.19,-85.5,52.42
52.832485,-1.653545,117.63,14.42,4,353.55,22 / 22,320412,2019-11-06 11:51:14:293,0.1795,-3.471,10.1884,0.0273,-0.031,9.8065,-0.0087,0.3704,-0.2343,-14.81,-37.5,-3.94,134.8,-85.35,51.93
52.832485,-1.653545,117.63,14.42,4,353.55,23 / 23,320512,2019-11-06 11:51:14:393,0.2709,1.6593,10.1271,0.0173,-0.0472,9.8065,-0.0207,0.2394,-0.1219,-14.5,-37.56,-3.31,138.18,-85.55,52.46
52.832485,-1.653545,117.63,14.42,4,353.55,23 / 23,320612,2019-11-06 11:51:14:493,3.2784,-3.1396,10.1688,-0.017,0.0274,9.8065,-0.1322,0.3175,-0.1754,-14.44,-37.44,-3.81,137.72,-85.33,55.75
52.832485,-1.653545,117.63,14.42,4,353.55,23 / 23,320712,2019-11-06 11:51:14:593,-0.0607,1.1269,9.1331,-0.0132,-0.0085,9.8066,-0.1157,0.5076,-0.1576,-14.19,-37.56,-4.06,136.71,-85.29,54.3
52.832485,-1.653545,117.63,14.42,4,353.55,23 / 23,320812,2019-11-06 11:51:14:693,-0.6768,2.4575,9.7016,-0.012,0.058,9.8064,0.0625,-0.0396,0.0144,-14.87,-37.56,-3.75,136.12,-85.12,52.85
52.832485,-1.653545,117.63,14.42,4,353.55,23 / 23,320912,2019-11-06 11:51:14:793,-0.4605,-0.0372,10.52,0.0152,-0.0051,9.8066,-0.0182,0.1912,-0.0797,-15.06,-37.75,-3.31,137.07,-85.57,50.94
52.832485,-1.653545,117.63,14.42,4,353.55,23 / 23,321012,2019-11-06 11:51:14:893,-0.0549,1.9615,10.0399,0.0133,0.0104,9.8066,0.1002,-0.269,0.1618,-14.75,-37.37,-3.75,135.66,-85.81,53.67
52.832485,-1.653545,117.63,14.42,4,353.55,23 / 23,321111,2019-11-06 11:51:14:992,2.1033,-2.2986,9.5612,0.0003,0.0367,9.8065,-0.0332,-0.0661,0.0405,-14.69,-37.81,-3.5,142.98,-85.85,58.14
52.832485,-1.653545,117.63,14.42,4,353.55,23 / 23,321212,2019-11-06 11:51:15:093,1.1703,-0.251,10.7193,-0.0046,0.0067,9.8066,-0.0694,0.0381,-0.0165,-14,-37.62,-3.56,139.58,-85.82,58.51
52.832485,-1.653545,117.63,14.42,4,353.55,23 / 23,321311,2019-11-06 11:51:15:192,1.589,0.1733,10.0187,0.0162,0.0158,9.8066,0.0816,0.0775,-0.0087,-14.37,-37.94,-3.81,140.46,-85.75,59.41
52.832485,-1.653545,117.63,14.42,4,353.55,23 / 23,321411,2019-11-06 11:51:15:292,1.4797,0.7093,9.7988,-0.0037,0.0037,9.8066,0.0203,-0.0715,0.0322,-14.44,-37.44,-3.44,144.99,-85.76,60.86
52.832485,-1.653545,117.63,14.42,4,353.55,23 / 23,321512,2019-11-06 11:51:15:393,0.727,-0.5833,9.6821,0.01,0.0233,9.8066,-0.0751,-0.0546,0.1037,-14.06,-37.44,-3.31,148.05,-85.75,64.39
52.832485,-1.653545,117.63,14.42,4,353.55,23 / 23,321612,2019-11-06 11:51:15:493,0.4073,1.2334,9.1418,0.0184,-0.0067,9.8066,0.0101,-0.0556,0.0633,-14.19,-37.69,-3.31,149.03,-85.76,65.4
52.832485,-1.653545,117.63,14.42,4,353.55,23 / 23,321712,2019-11-06 11:51:15:593,0.6232,-0.6245,10.3136,-0.0056,-0.0006,9.8066,0.0221,-0.0913,0.0823,-13.44,-37.25,-3.5,147.68,-85.69,64.34
52.832485,-1.653545,117.63,14.42,4,353.55,23 / 23,321812,2019-11-06 11:51:15:693,0.7199,-1.1878,9.5456,-0.0076,-0.0058,9.8066,0.0399,0.1278,-0.0805,-14.12,-36.94,-3.31,146.44,-85.78,62.56
52.832485,-1.653545,117.63,14.42,4,353.55,23 / 23,321912,2019-11-06 11:51:15:793,1.0102,0.1818,9.4306,0.0247,-0.014,9.8065,-0.0306,0.1184,-0.0292,-13.69,-37.56,-2.62,148.88,-85.88,65.38
52.832485,-1.653545,117.63,14.42,4,353.55,23 / 23,322012,2019-11-06 11:51:15:893,1.3101,-2.058,10.1885,-0.0169,0.0062,9.8066,-0.0329,0.2148,-0.1058,-14.12,-38,-3.12,152.3,-85.82,69.3
52.832485,-1.653545,117.63,14.42,4,353.55,23 / 23,322112,2019-11-06 11:51:15:993,0.6543,0.9797,8.6548,-0.0113,-0.0167,9.8066,-0.008,0.0221,-0.0336,-13.87,-37.06,-2.94,150.82,-85.8,67.69
52.832485,-1.653545,117.63,14.42,4,353.55,23 / 23,322211,2019-11-06 11:51:16:092,0.3265,-1.1285,9.4165,-0.0015,0.0035,9.8066,0.008,0.1596,0.0477,-13.75,-38.06,-3.5,148.9,-85.5,64.9
52.832485,-1.653545,117.63,14.42,4,353.55,23 / 23,322312,2019-11-06 11:51:16:193,1.6842,1.0555,9.9036,-0.0106,0.0119,9.8066,-0.0716,0.2579,-0.1893,-13.81,-37.44,-3.19,147.98,-85.42,63.88
52.832485,-1.653545,117.63,14.42,4,353.55,23 / 23,322412,2019-11-06 11:51:16:293,-0.0385,1.1049,9.6911,-0.0275,0.0305,9.8066,-0.0394,0.0417,0.0032,-13.81,-38.25,-3.5,150.02,-85.23,65.86
52.832485,-1.653545,117.63,14.42,4,353.55,22 / 22,322512,2019-11-06 11:51:16:393,2.1016,-1.1806,10.051,0.0205,0.0157,9.8066,0.0401,0.1857,-0.0668,-13.5,-38.75,-3.19,152.43,-85.3,69.12
52.832485,-1.653545,117.63,14.42,4,353.55,22 / 22,322612,2019-11-06 11:51:16:493,1.1202,0.8071,9.3475,0.0078,0.04,9.8065,0.0927,-0.1588,-0.0289,-12.62,-37.94,-3.19,153.7,-85.21,70.72
52.832485,-1.653545,117.63,14.42,4,353.55,22 / 22,322712,2019-11-06 11:51:16:593,1.3945,-1.3951,9.9718,0.0026,0.0047,9.8066,-0.0944,0.0808,0.1083,-13.75,-37.94,-3.06,155.46,-85.33,72.47
52.832485,-1.653545,117.63,14.42,4,353.55,22 / 22,322812,2019-11-06 11:51:16:693,2.1006,-0.7641,10.059,-0.0121,0.001,9.8066,-0.1019,0.0608,0.0058,-12.44,-37.81,-3.25,153.64,-85.22,71.22
52.832485,-1.653545,117.63,14.42,4,353.55,22 / 22,322912,2019-11-06 11:51:16:793,1.0411,0.7814,9.7638,0.0057,0.003,9.8066,0.0398,0.1368,-0.0655,-12.75,-38.25,-2.94,153.65,-85.28,70.75
52.832485,-1.653545,117.63,14.42,4,353.55,22 / 22,323012,2019-11-06 11:51:16:893,1.0832,-0.0901,10.7722,0.0085,0.0114,9.8066,-0.0721,0.0569,0.0442,-12.5,-37.87,-2.75,154.62,-85.32,72.56
52.832485,-1.653545,117.63,14.42,4,353.55,22 / 22,323112,2019-11-06 11:51:16:993,1.5439,1.3391,9.666,0.016,0.0161,9.8065,0.0102,0.1215,-0.0627,-13.12,-37,-3.25,156.74,-85.25,74.61
52.832485,-1.653545,117.63,14.42,4,353.55,22 / 22,323212,2019-11-06 11:51:17:093,0.3854,-0.5102,9.8179,-0.0153,0.0127,9.8066,-0.0623,-0.0022,0.0474,-13,-37.25,-3.25,154.34,-85.39,71.86
52.832485,-1.653545,117.63,14.42,4,353.55,22 / 22,323312,2019-11-06 11:51:17:193,0.0201,-1.7706,9.6812,-0.0162,-0.0027,9.8065,-0.0009,0.2089,-0.0739,-13.12,-36.94,-3.81,147.67,-85.49,68.28
52.832485,-1.653545,117.63,14.42,4,353.55,22 / 22,323412,2019-11-06 11:51:17:293,-0.4077,-2.6082,9.9894,0.0109,0.0325,9.8066,0.031,-0.1267,0.0636,-13.19,-37.5,-3.44,151.21,-85.58,68.36
52.832485,-1.653545,117.63,14.42,4,353.55,23 / 23,323512,2019-11-06 11:51:17:393,1.7373,-2.2506,11.003,0.0131,0.0411,9.8065,0.1485,0.1337,-0.0501,-13.19,-38.12,-3.37,152.49,-85.67,69.85
52.832485,-1.653545,117.63,14.42,4,353.55,23 / 23,323612,2019-11-06 11:51:17:493,0.2273,2.6964,9.5463,0.0144,0.0277,9.8066,0.087,-0.3489,0.16,-12.94,-37.62,-2.81,155.35,-85.7,73.3
52.832485,-1.653545,117.63,14.42,4,353.55,23 / 23,323712,2019-11-06 11:51:17:593,0.7984,-1.7551,8.687,-0.0214,0.0321,9.8065,-0.0407,-0.1857,0.1157,-13.62,-37.19,-2.62,154.51,-85.69,71.87
52.832485,-1.653545,117.63,14.42,4,353.55,23 / 23,323812,2019-11-06 11:51:17:693,-1.2727,1.7123,9.3462,-0.0295,-0.0409,9.8064,-0.0393,-0.1784,0.2151,-13.56,-37.12,-2.69,150.77,-85.85,67.7
52.832485,-1.653545,117.63,14.42,4,353.55,23 / 23,323912,2019-11-06 11:51:17:793,0.349,-0.8342,8.4173,0.0067,-0.0044,9.8066,0.0396,-0.3701,0.1594,-13.62,-37.12,-2.87,149.56,-86.04,66.52
52.832485,-1.653545,117.63,14.42,4,353.55,23 / 23,324012,2019-11-06 11:51:17:893,1.1931,-5.2629,8.7853,-0.0081,-0.0878,9.8062,-0.0908,-0.2597,0.2113,-13.75,-37.19,-3.25,148.66,-85.99,65.42
52.832485,-1.653545,117.63,14.42,4,353.55,23 / 23,324112,2019-11-06 11:51:17:993,-1.3243,0.8982,10.8888,-0.0267,-0.065,9.8063,0.0225,-0.2727,0.0925,-14,-37.5,-2.69,142.71,-86.24,58.96
52.832485,-1.653545,117.63,14.42,4,353.55,23 / 23,324212,2019-11-06 11:51:18:093,0.8609,-4.6592,11.4755,0.0211,-0.0052,9.8065,-0.0902,0.5459,-0.2297,-13.75,-37.37,-2.56,149.36,-86.09,66.36
52.832485,-1.653545,117.63,14.42,4,353.55,23 / 23,324312,2019-11-06 11:51:18:193,0.8482,1.4472,11.5072,0.0359,0.002,9.8065,0.0895,0.2533,-0.2451,-13.31,-37.19,-2.81,154.42,-85.97,72.65
52.832485,-1.653545,117.63,14.42,4,353.55,23 / 23,324412,2019-11-06 11:51:18:293,0.1238,-4.3222,9.4952,0.0235,0.0781,9.8062,-0.0616,0.2444,-0.1841,-13.75,-36.75,-2.56,158.1,-85.47,75.89
52.832485,-1.653545,117.63,14.42,4,353.55,23 / 23,324512,2019-11-06 11:51:18:393,0.7188,-3.5448,10.5853,-0.0392,-0.008,9.8065,-0.0777,0.4499,-0.2025,-13.44,-37.31,-3.37,151.58,-85.54,68.75
52.832485,-1.653545,117.63,14.42,4,353.55,23 / 23,324612,2019-11-06 11:51:18:493,-1.3038,2.2704,8.5954,-0.0165,-0.0069,9.8066,0.0494,-0.3248,0.1928,-13.12,-37.37,-3.5,151.4,-85.6,68.62
52.832485,-1.653545,117.63,14.42,4,353.55,23 / 23,324712,2019-11-06 11:51:18:593,-0.7557,-2.656,10.2411,-0.0073,0.0171,9.8066,-0.0234,-0.1414,0.1788,-13.44,-37.5,-4,146.16,-85.74,66.87
52.832485,-1.653545,117.63,14.42,4,353.55,23 / 23,324812,2019-11-06 11:51:18:693,0.826,1.332,10.6613,0.0233,-0.0003,9.8066,0.0294,-0.2609,0.2405,-13.5,-37.87,-3.12,152.2,-85.93,69.85
52.832485,-1.653545,117.63,14.42,4,353.55,23 / 23,324912,2019-11-06 11:51:18:793,0.1859,-2.6342,9.8098,0.0029,0.0511,9.8064,0.0084,-0.1602,0.0427,-13.75,-37.81,-2.75,155.17,-85.98,72.83
52.832485,-1.653545,117.63,14.42,4,353.55,23 / 23,325012,2019-11-06 11:51:18:893,-0.9354,2.711,9.6659,-0.0049,-0.0348,9.8065,-0.0064,-0.1982,0.1595,-12.87,-38.5,-2.81,151.82,-86.04,69.54
52.832485,-1.653545,117.63,14.42,4,353.55,23 / 23,325112,2019-11-06 11:51:18:993,-0.4017,-2.1683,9.7546,-0.0104,0.0119,9.8066,0.0171,-0.3384,0.1377,-13.5,-38,-2.87,151.82,-85.8,69.22
52.832485,-1.653545,117.63,14.42,4,353.55,23 / 23,325212,2019-11-06 11:51:19:093,0.9804,-3.2882,10.4371,0.0138,-0.0406,9.8065,-0.0586,0.1915,-0.1635,-13.56,-37.94,-3,151.93,-85.7,68.71
52.832485,-1.653545,117.63,14.42,4,353.55,23 / 23,325312,2019-11-06 11:51:19:193,-1.1789,-2.2741,10.7118,0.0248,-0.0257,9.8065,0.1054,-0.1336,0.0889,-13.69,-38.19,-3.06,152.94,-85.76,69.98
52.832485,-1.653545,117.63,14.42,4,353.55,23 / 23,325412,2019-11-06 11:51:19:293,0.0526,-1.4829,9.6866,0.0296,-0.0056,9.8065,0.0295,0.1829,-0.1322,-13.56,-38.06,-2.69,157.8,-85.67,75.6
52.8337,-1.65388,119.85,14.56,3,345.69,23 / 23,325511,2019-11-06 11:51:19:392,1.6546,0.5487,10.3406,-0.0011,-0.0273,9.8066,-0.0003,0.1044,-0.0037,-12.69,-38.19,-3,157.27,-85.67,75.56
52.8337,-1.65388,119.85,14.56,3,345.69,23 / 23,325612,2019-11-06 11:51:19:493,0.9516,-0.8204,9.9977,-0.0352,0.0051,9.8065,-0.0729,0.1183,-0.0127,-12.81,-37.56,-2.5,157.99,-85.45,71.87
52.8337,-1.65388,119.85,14.56,3,345.69,23 / 23,325712,2019-11-06 11:51:19:593,0.345,0.1841,8.5648,-0.004,0.0046,9.8066,-0.0951,0.2529,-0.1087,-12.37,-38,-2.75,153.87,-85.39,71.73
52.8337,-1.65388,119.85,14.56,3,345.69,23 / 23,325812,2019-11-06 11:51:19:693,-1.5808,0.017,11.1127,0.0107,0.0439,9.8065,-0.0197,0.0869,-0.0213,-12.81,-38.06,-3.06,153.66,-85.4,70.91
52.8337,-1.65388,119.85,14.56,3,345.69,23 / 23,325912,2019-11-06 11:51:19:793,1.2676,2.0088,9.718,0.0231,0.0157,9.8066,0.0128,0.208,-0.1133,-12.44,-37.94,-2.69,156.65,-85.26,74.97
52.8337,-1.65388,119.85,14.56,3,345.69,23 / 23,326012,2019-11-06 11:51:19:893,0.4104,-1.7736,9.9618,-0.0067,0.0299,9.8066,-0.0479,0.0613,0.0143,-12.69,-37.75,-2.5,160.85,-85.19,75.1
52.8337,-1.65388,119.85,14.56,3,345.69,23 / 23,326112,2019-11-06 11:51:19:993,0.3987,-2.0448,9.9165,0.007,0.0211,9.8065,-0.0126,0.2728,-0.19,-12.56,-37.75,-2.44,159.95,-85.31,74.11
52.8337,-1.65388,119.85,14.56,3,345.69,23 / 23,326212,2019-11-06 11:51:20:093,0.4677,-3.1169,10.2371,0.0092,0.0317,9.8065,-0.0113,-0.0012,0.0217,-12.62,-37.94,-2.44,161.06,-85.26,75.42
52.8337,-1.65388,119.85,14.56,3,345.69,23 / 23,326312,2019-11-06 11:51:20:193,0.1734,-1.3367,9.3947,0.0312,0.0478,9.8065,-0.0122,0.2277,-0.1154,-12.31,-37.87,-2.25,162.98,-85.23,78.14
52.8337,-1.65388,119.85,14.56,3,345.69,23 / 23,326412,2019-11-06 11:51:20:293,1.3118,1.8732,10.1059,0.0068,0.0349,9.8066,-0.0702,-0.1333,0.0904,-11.81,-37.69,-3,160.31,-85.24,79.47
52.8337,-1.65388,119.85,14.56,3,345.69,23 / 23,326512,2019-11-06 11:51:20:393,1.4863,0.0255,9.9643,0.0008,0.0241,9.8065,0.0673,0.0145,-0.022,-11.87,-37.69,-3,160.01,-85.04,78.91
52.8337,-1.65388,119.85,14.56,3,345.69,23 / 23,326612,2019-11-06 11:51:20:493,-0.3044,0.3448,8.6893,0.0018,-0.0043,9.8066,0.0683,-0.0853,0.0855,-12.12,-37.75,-3.12,157.06,-85.13,75.33
52.8337,-1.65388,119.85,14.56,3,345.69,23 / 23,326712,2019-11-06 11:51:20:593,0.7808,-0.1414,9.3603,-0.0144,-0.003,9.8066,0.0009,-0.094,0.0739,-12.25,-37.75,-2.87,155.49,-85.27,73.57
52.8337,-1.65388,119.85,14.56,3,345.69,23 / 23,326812,2019-11-06 11:51:20:693,0.6007,0.3743,9.3778,0.0057,-0.0325,9.8065,0.0233,0.004,0.0481,-12.62,-37.87,-2.81,152.86,-85.66,70.28
52.8337,-1.65388,119.85,14.56,3,345.69,23 / 23,326912,2019-11-06 11:51:20:793,1.7006,-1.8384,10.8242,-0.0033,-0.0094,9.8066,0.0679,-0.1315,0.0687,-12.44,-38.25,-2.44,154.82,-85.66,68.57
52.8337,-1.65388,119.85,14.56,3,345.69,23 / 23,327012,2019-11-06 11:51:20:893,-0.1439,0.1406,10.4167,0.0147,-0.0126,9.8066,0.0351,0.0338,-0.0235,-12.75,-37.62,-2.69,154.22,-85.7,71.94
52.8337,-1.65388,119.85,14.56,3,345.69,23 / 23,327112,2019-11-06 11:51:20:993,2.1302,-0.9889,10.631,0.0378,-0.0029,9.8065,0.101,-0.0413,-0.0104,-12.62,-38,-1.5,165.77,-85.71,77.13
52.8337,-1.65388,119.85,14.56,3,345.69,23 / 23,327212,2019-11-06 11:51:21:093,0.9493,1.235,10.0426,0.0235,0.0026,9.8066,0.3002,0.011,-0.2905,-12.94,-38,-2.31,165.77,-85.56,81.41
52.8337,-1.65388,119.85,14.56,3,345.69,23 / 23,327312,2019-11-06 11:51:21:193,0.421,0.0568,8.3286,-0.0564,-0.0629,9.8063,-0.1881,-0.1082,0.1953,-12.25,-37.62,-2.37,164.03,-85.51,79.68
52.8337,-1.65388,119.85,14.56,3,345.69,23 / 23,327412,2019-11-06 11:51:21:293,3.06,0.8141,9.4404,-0.0873,-0.0653,9.806,-0.2124,0.0593,0.2477,-12,-37.87,-2.62,156.15,-85.31,74.42
52.8337,-1.65388,119.85,14.56,3,345.69,23 / 23,327512,2019-11-06 11:51:21:393,0.2483,-0.2323,7.955,-0.0037,0.0166,9.8066,0.0667,0.0538,-0.1215,-12.31,-37.5,-2.12,158.63,-85.24,72.88
52.8337,-1.65388,119.85,14.56,3,345.69,23 / 23,327612,2019-11-06 11:51:21:493,0.8875,-2.5169,9.1992,0.0293,0.0258,9.8065,0.0742,0.0673,0.0282,-12.69,-37.37,-2.56,152.63,-85.3,69.71
52.8337,-1.65388,119.85,14.56,3,345.69,23 / 23,327712,2019-11-06 11:51:21:593,2.0004,-1.3061,10.6678,-0.0058,0.0159,9.8066,0.0162,0.0079,-0.0651,-11.75,-37.69,-2.87,153.47,-85.3,71.13
52.8337,-1.65388,119.85,14.56,3,345.69,23 / 23,327812,2019-11-06 11:51:21:693,1.1464,-1.3213,9.674,0.0099,-0.0269,9.8065,-0.0356,0.0769,0.0272,-12.06,-37.69,-2.37,159.07,-85.41,73.47
52.8337,-1.65388,119.85,14.56,3,345.69,23 / 23,327912,2019-11-06 11:51:21:793,-0.0384,1.1838,8.6282,-0.0029,-0.0171,9.8066,-0.0699,0.1972,-0.1141,-11.5,-37.62,-2.19,158.33,-85.4,72.91
52.8337,-1.65388,119.85,14.56,3,345.69,23 / 23,328011,2019-11-06 11:51:21:892,2.7989,-0.1663,10.9604,-0.0069,0.0324,9.8066,0.0882,0.048,-0.0431,-11.94,-37.87,-2.44,158.16,-85.28,72.2
52.8337,-1.65388,119.85,14.56,3,345.69,23 / 23,328111,2019-11-06 11:51:21:992,2.3607,-2.9985,10.9239,0.0152,0.01,9.8066,0.2043,-0.1548,0.1571,-12,-37.44,-2.44,157.78,-85.23,71.83
52.8337,-1.65388,119.85,14.56,3,345.69,23 / 23,328211,2019-11-06 11:51:22:092,0.7231,-0.9005,9.4866,0.0245,0.0078,9.8065,0.072,-0.0067,-0.0399,-11.62,-37.75,-2.62,155.43,-85.16,73.35
52.8337,-1.65388,119.85,14.56,3,345.69,23 / 23,328312,2019-11-06 11:51:22:193,3.9425,-1.3808,10.7825,-0.0036,0.0066,9.8066,0.0509,-0.0881,0.0265,-11.81,-37.75,-2.25,161.62,-85.08,76.29
52.8337,-1.65388,119.85,14.56,3,345.69,23 / 23,328412,2019-11-06 11:51:22:293,0.4078,-2.1284,8.2782,0.0339,0.0096,9.8066,0.0671,-0.3152,0.0915,-11.94,-37.62,-2.5,161.44,-84.93,75.93
52.8337,-1.65388,119.85,14.56,3,345.69,23 / 23,328512,2019-11-06 11:51:22:393,4.3602,2.5782,10.3552,-0.0315,-0.0655,9.8063,-0.2216,0.1537,0.078,-11.37,-37.69,-2.37,157.46,-84.99,71.31
52.8337,-1.65388,119.85,14.56,3,345.69,23 / 23,328612,2019-11-06 11:51:22:493,1.559,-1.7722,9.8491,-0.0312,-0.0072,9.8066,-0.148,0.2085,-0.0421,-11.5,-37.75,-2.12,157.85,-84.73,71.48
52.8337,-1.65388,119.85,14.56,3,345.69,23 / 23,328712,2019-11-06 11:51:22:593,0.8019,0.231,9.5955,0.0244,-0.001,9.8065,0.0072,0.1873,-0.0568,-11.5,-37.44,-3.12,152.65,-84.77,70.19
52.8337,-1.65388,119.85,14.56,3,345.69,23 / 23,328812,2019-11-06 11:51:22:693,1.2003,1.0161,9.4407,-0.0014,0.0056,9.8066,-0.0363,0.1243,0.2032,-12.44,-37.75,-3.06,153.5,-84.68,70.32
52.8337,-1.65388,119.85,14.56,3,345.69,23 / 23,328912,2019-11-06 11:51:22:793,1.6399,-2.2077,10.0018,-0.0177,0.0385,9.8065,-0.0522,0.1487,-0.183,-12,-37.56,-2.87,153.3,-84.69,70.08
52.8337,-1.65388,119.85,14.56,3,345.69,23 / 23,329012,2019-11-06 11:51:22:893,2.0708,1.104,9.3152,0.0051,0.0246,9.8065,0.0853,-0.2235,0.1367,-12.06,-37.87,-2.12,157,-84.77,70.15
52.8337,-1.65388,119.85,14.56,3,345.69,23 / 23,329112,2019-11-06 11:51:22:993,1.3785,-3.4944,9.6843,-0.0171,0.0452,9.8064,0.0017,-0.1148,0.0882,-11.81,-37.5,-2.69,153.39,-84.61,70.29
52.8337,-1.65388,119.85,14.56,3,345.69,23 / 23,329212,2019-11-06 11:51:23:093,0.8558,1.333,9.2099,-0.004,0.0055,9.8066,-0.0173,-0.1031,0.008,-11.69,-38.06,-2.87,152.1,-84.76,68.69
52.8337,-1.65388,119.85,14.56,3,345.69,23 / 23,329312,2019-11-06 11:51:23:193,0.7453,-0.9101,10.1267,0.0142,0.0149,9.8066,0.0722,-0.0445,0.0146,-11.75,-37.19,-2.94,152.76,-84.54,69.4
52.8337,-1.65388,119.85,14.56,3,345.69,23 / 23,329412,2019-11-06 11:51:23:293,0.4563,-0.7531,10.0427,0.018,0.0253,9.8065,0.0843,0.0372,-0.071,-11.75,-38.12,-2.69,155.88,-84.36,72.93
52.8337,-1.65388,119.85,14.56,3,345.69,23 / 23,329512,2019-11-06 11:51:23:393,0.7153,-0.5691,9.6939,0.0128,0.0015,9.8066,-0.0677,0.0791,0.0064,-11.81,-37.69,-2.75,157.89,-84.39,75.53
52.8337,-1.65388,119.85,14.56,3,345.69,23 / 23,329612,2019-11-06 11:51:23:493,-0.0428,-0.4201,9.4317,-0.0033,0.0006,9.8066,-0.0135,-0.0549,0.0602,-10.87,-37.75,-2.44,161.65,-84.33,75.97
52.8337,-1.65388,119.85,14.56,3,345.69,23 / 23,329712,2019-11-06 11:51:23:593,0.4921,-2.1074,8.9052,-0.0258,0.0109,9.8065,-0.008,0.0026,-0.01,-11.5,-37.5,-2.5,159.73,-84.29,73.58
52.8337,-1.65388,119.85,14.56,3,345.69,23 / 23,329811,2019-11-06 11:51:23:692,0.5906,0.4506,9.2773,0.013,0.0129,9.8066,-0.0185,-0.0224,-0.0269,-10.62,-37.12,-2.94,152.86,-84.37,69.87
52.8337,-1.65388,119.85,14.56,3,345.69,23 / 23,329912,2019-11-06 11:51:23:793,0.4186,-0.9063,9.2168,0.0103,-0.0119,9.8066,-0.0455,-0.0273,0.0837,-10.62,-36.87,-2.81,152.78,-84.39,69.79
52.8337,-1.65388,119.85,14.56,3,345.69,23 / 23,330012,2019-11-06 11:51:23:893,1.1641,-0.9944,10.286,0.0273,0.0066,9.8065,-0.0095,0.0679,0.0144,-10.87,-37.56,-2.25,159.8,-84.34,73.55
52.8337,-1.65388,119.85,14.56,3,345.69,23 / 23,330112,2019-11-06 11:51:23:993,0.3696,-0.521,10.7073,0.0151,0.0104,9.8066,-0.0366,0.1215,-0.1066,-11.12,-37.62,-2.37,160.58,-84.34,74.57
52.8337,-1.65388,119.85,14.56,3,345.69,23 / 23,330212,2019-11-06 11:51:24:093,1.2904,-0.4811,9.8236,-0.0228,0.0007,9.8065,-0.0286,-0.0054,0.0155,-10.69,-38.37,-2.37,161.21,-84.32,75.37
52.8337,-1.65388,119.85,14.56,3,345.69,23 / 23,330312,2019-11-06 11:51:24:193,-0.1182,-0.6129,9.2545,-0.0321,-0.0078,9.8065,-0.1091,0.0152,-0.0008,-10.31,-37.87,-2.81,154.3,-84.18,71.89
52.8337,-1.65388,119.85,14.56,3,345.69,23 / 23,330411,2019-11-06 11:51:24:292,0.8762,-1.8342,8.8253,-0.0092,0.0326,9.8065,0.0179,0.0064,-0.0886,-10.31,-37.69,-3.12,153.57,-83.97,70.58
52.8337,-1.65388,119.85,14.56,3,345.69,23 / 23,330512,2019-11-06 11:51:24:393,-0.3001,-1.9328,10.3015,-0.0057,0.0117,9.8065,0.0021,0.2008,-0.0877,-10.06,-37.25,-2.44,156.91,-84.01,69.79
52.8337,-1.65388,119.85,14.56,3,345.69,23 / 23,330612,2019-11-06 11:51:24:493,-0.0455,-0.9882,8.4686,0.0128,0.0249,9.8065,0.0997,-0.207,0.1365,-9.87,-37.62,-2.56,155.14,-84,72.75
52.8337,-1.65388,119.85,14.56,3,345.69,23 / 23,330712,2019-11-06 11:51:24:593,2.0853,-1.4507,10.1358,0.0174,0.0315,9.8065,0.0791,0.1628,-0.0929,-9.37,-37.12,-1.81,159.89,-84.12,74.38
52.8337,-1.65388,119.85,14.56,3,345.69,23 / 23,330812,2019-11-06 11:51:24:693,-1.175,1.9292,9.5615,-0.0007,0.0207,9.8066,-0.0182,0.363,-0.2564,-8.87,-37.19,-2.81,154.25,-84.25,73.01
52.8337,-1.65388,119.85,14.56,3,345.69,23 / 23,330912,2019-11-06 11:51:24:793,0.4328,-1.3177,9.6399,-0.0586,0.0562,9.8063,-0.014,-0.052,0.0833,-9.19,-36.25,-5.19,143.96,-83.98,70.67
52.8337,-1.65388,119.85,14.56,3,345.69,23 / 23,331012,2019-11-06 11:51:24:893,-2.2208,4.6976,9.9638,0.0002,-0.0124,9.8066,-0.1182,0.5426,-0.3147,-10.69,-37.06,-6.06,140.84,-84.04,68.41
52.8337,-1.65388,119.85,14.56,3,345.69,23 / 23,331112,2019-11-06 11:51:24:993,0.1839,-2.3524,10.1025,-0.0193,0.0718,9.8063,0.0616,-0.4953,0.1917,-13.06,-36.75,-5.31,147.32,-83.85,69.65
52.8337,-1.65388,119.85,14.56,3,345.69,23 / 23,331212,2019-11-06 11:51:25:093,-2.3664,2.7584,9.3836,0.0273,-0.0459,9.8065,0.0465,-0.2761,0.1986,-12.56,-37,-3.19,155.64,-84.01,71.9
52.8337,-1.65388,119.85,14.56,3,345.69,23 / 23,331312,2019-11-06 11:51:25:193,-0.0954,-5.4028,10.116,0.0009,0.0371,9.8065,0.0813,-0.4804,0.2176,-11.62,-37.87,-2.56,156.21,-83.63,72.47
52.8337,-1.65388,119.85,14.56,3,345.69,23 / 23,331412,2019-11-06 11:51:25:293,-0.3791,-2.3654,10.5786,0.0182,-0.066,9.8063,0.0713,-0.1191,0.0683,-11.12,-37.37,-2.81,155.48,-83.46,72.05
52.8337,-1.65388,119.85,14.56,3,345.69,23 / 23,331512,2019-11-06 11:51:25:393,-2.0853,-5.7688,9.7454,0.0264,-0.0102,9.8066,0.0423,-0.5902,0.2473,-10.62,-36.81,-2.75,155.82,-83.61,72.69
52.8337,-1.65388,119.85,14.56,3,345.69,23 / 23,331612,2019-11-06 11:51:25:493,0.4075,-0.4697,8.5953,0.0354,-0.0714,9.8063,0.1928,-0.3823,0.2697,-10.37,-37.44,-2.19,161.3,-83.86,75.56
52.8337,-1.65388,119.85,14.56,3,345.69,23 / 23,331712,2019-11-06 11:51:25:593,-0.0926,4.36,10.9204,-0.0007,-0.055,9.8065,0.1414,-0.1474,-0.0328,-10,-37.31,-2.44,161.7,-83.75,75.98
52.8337,-1.65388,119.85,14.56,3,345.69,23 / 23,331812,2019-11-06 11:51:25:693,1.8474,-2.2025,10.696,-0.0318,-0.0264,9.8065,-0.033,0.6394,-0.5129,-10.12,-37.25,-2.56,157.27,-83.94,75.76
52.8337,-1.65388,119.85,14.56,3,345.69,23 / 23,331912,2019-11-06 11:51:25:793,-0.8935,2.7527,9.2713,-0.0067,-0.1121,9.8059,-0.1605,0.3575,-0.0058,-10.81,-36.94,-3.31,157.18,-84.15,75.17
52.8337,-1.65388,119.85,14.56,3,345.69,23 / 23,332012,2019-11-06 11:51:25:893,1.2739,-1.2924,10.2982,-0.0047,0.0488,9.8065,-0.0861,0.3745,-0.1198,-10.62,-36.56,-3.12,157.77,-83.96,75.7
52.8337,-1.65388,119.85,14.56,3,345.69,23 / 23,332112,2019-11-06 11:51:25:993,1.9677,4.0309,9.6377,-0.005,0.002,9.8066,-0.0134,0.4919,-0.3799,-10.81,-37.62,-3.31,157.37,-83.85,74.84
52.8337,-1.65388,119.85,14.56,3,345.69,23 / 23,332212,2019-11-06 11:51:26:093,0.0764,-2.025,9.3946,-0.0137,0.0645,9.8064,0.0253,0.0582,0.0099,-10.25,-37.19,-3.19,156.81,-83.44,74.46
52.8337,-1.65388,119.85,14.56,3,345.69,23 / 23,332312,2019-11-06 11:51:26:193,1.3832,-2.8504,9.6648,-0.0317,-0.0066,9.8066,-0.1395,0.3361,-0.2275,-10.06,-37.31,-2.81,154.94,-83.67,72.25
52.8337,-1.65388,119.85,14.56,3,345.69,23 / 23,332412,2019-11-06 11:51:26:293,-1.6248,1.6624,10.2588,-0.0167,0.0218,9.8065,-0.0262,0.2144,-0.0134,-10.94,-37.19,-3,153.74,-83.71,70.07
52.8337,-1.65388,119.85,14.56,3,345.69,22 / 22,332512,2019-11-06 11:51:26:393,-1.4643,-2.2772,10.8083,-0.0117,0.0174,9.8066,-0.059,0.2854,-0.1297,-11,-37.5,-3,152.25,-83.93,68.43
52.8337,-1.65388,119.85,14.56,3,345.69,22 / 22,332612,2019-11-06 11:51:26:493,-1.0278,0.4308,10.1626,0.0007,0.0264,9.8066,0.0207,-0.2124,0.0934,-10.75,-37.62,-3,152.52,-83.98,68.62
52.8337,-1.65388,119.85,14.56,3,345.69,22 / 22,332712,2019-11-06 11:51:26:593,0.1483,-2.4349,9.6073,-0.0041,0.0301,9.8066,0.007,0.0557,-0.0604,-11.19,-36.87,-2.62,152.08,-84,68.32
52.8337,-1.65388,119.85,14.56,3,345.69,22 / 22,332812,2019-11-06 11:51:26:693,0.3237,-1.3446,10.2413,-0.0013,0.0262,9.8066,-0.0531,-0.0678,-0.0278,-10.62,-37.56,-2.94,151.73,-83.92,67.48
52.8337,-1.65388,119.85,14.56,3,345.69,22 / 22,332912,2019-11-06 11:51:26:793,1.7814,-1.382,8.9134,0.0095,-0.0004,9.8065,-0.0585,0.1025,0.0971,-10.69,-37.44,-2.75,151.48,-84.01,67.54
52.8337,-1.65388,119.85,14.56,3,345.69,22 / 22,333011,2019-11-06 11:51:26:892,-0.5142,1.4723,9.0059,-0.0117,-0.012,9.8065,0.036,-0.2653,0.1939,-10.56,-37.31,-2.69,151.06,-83.99,66.97
52.8337,-1.65388,119.85,14.56,3,345.69,22 / 22,333111,2019-11-06 11:51:26:992,1.3596,-3.0918,9.9176,-0.0105,0.0158,9.8066,-0.0231,-0.2416,0.133,-10.37,-37.62,-3.06,149.77,-84.07,65.69
52.8337,-1.65388,119.85,14.56,3,345.69,22 / 22,333212,2019-11-06 11:51:27:093,0.9587,0.0977,9.8257,0.0114,-0.0453,9.8064,-0.0207,0.0473,0.0514,-10.62,-37.56,-3.06,148.79,-84.33,64.33
52.8337,-1.65388,119.85,14.56,3,345.69,22 / 22,333312,2019-11-06 11:51:27:193,0.5722,0.9671,10.0418,-0.0025,-0.0174,9.8066,0.0305,-0.2636,0.0846,-10.87,-37.25,-3.12,148.2,-84.3,63.79
52.8337,-1.65388,119.85,14.56,3,345.69,22 / 22,333412,2019-11-06 11:51:27:293,-0.8834,-0.2339,10.3407,0.0099,-0.0318,9.8065,0.0102,0.1885,-0.1222,-10.81,-37.44,-2.69,147.09,-84.45,62.65
52.8337,-1.65388,119.85,14.56,3,345.69,21 / 21,333512,2019-11-06 11:51:27:393,0.1835,-0.1499,9.5707,0.0235,-0.0276,9.8065,0.0091,-0.1209,0.0458,-11.25,-38.19,-2.87,149.19,-84.48,65.09
52.8337,-1.65388,119.85,14.56,3,345.69,21 / 21,333612,2019-11-06 11:51:27:493,1.5015,-3.1696,10.4445,0.0186,0.0002,9.8066,-0.0751,0.3205,-0.182,-10.94,-37.87,-2.69,151.06,-84.41,67.38
52.8337,-1.65388,119.85,14.56,3,345.69,21 / 21,333712,2019-11-06 11:51:27:593,1.3181,2.5028,10.0111,0.0211,-0.0189,9.8065,0.0314,0.3346,-0.2542,-10.62,-37.75,-3.19,152.83,-84.41,69.66
52.8337,-1.65388,119.85,14.56,3,345.69,21 / 21,333812,2019-11-06 11:51:27:693,-0.068,-3.7282,9.2392,-0.0044,0.0498,9.8065,0.0106,0.18,-0.1687,-10.12,-37.94,-3.06,153.18,-84.09,70.25
52.8337,-1.65388,119.85,14.56,3,345.69,21 / 21,333912,2019-11-06 11:51:27:793,1.4525,-0.8118,10.4969,-0.0209,-0.0093,9.8066,-0.0391,0.2082,-0.1132,-10.56,-37.44,-3,151.85,-84.11,68.18
52.8337,-1.65388,119.85,14.56,3,345.69,21 / 21,334012,2019-11-06 11:51:27:893,1.3617,-3.1086,10.2712,-0.0067,0.0167,9.8066,-0.0395,0.0333,0.0272,-10.25,-37.94,-2.56,152.44,-84.04,69.18
52.8337,-1.65388,119.85,14.56,3,345.69,21 / 21,334112,2019-11-06 11:51:27:993,0.6124,-0.4189,9.441,0.0142,0.0403,9.8065,0.0002,0.1948,-0.1455,-10.62,-37.12,-2.81,154.26,-83.99,71.14
52.8337,-1.65388,119.85,14.56,3,345.69,21 / 21,334212,2019-11-06 11:51:28:093,1.2385,1.681,9.4773,-0.004,0.0338,9.8065,0.0548,-0.217,0.0948,-9.75,-37.5,-2.81,152.07,-84.2,69.22
52.8337,-1.65388,119.85,14.56,3,345.69,21 / 21,334311,2019-11-06 11:51:28:192,1.295,-1.0528,9.26,-0.0361,0.0013,9.8065,-0.0248,-0.0192,0.0812,-10.75,-37.56,-2.94,150.89,-84.09,66.64
52.8337,-1.65388,119.85,14.56,3,345.69,21 / 21,334412,2019-11-06 11:51:28:293,1.4353,1.0133,9.9216,-0.007,-0.038,9.8066,-0.0534,-0.1597,0.1192,-11.56,-37.5,-3.62,145.28,-84.36,64.41
52.83488,-1.654504,122.22,15.65,4,339.46,23 / 23,334512,2019-11-06 11:51:28:393,0.5283,-1.3716,9.5652,0.0019,0.0232,9.8066,-0.0497,-0.0318,0.0371,-10.75,-36.81,-3.25,148.76,-84.41,64.68
52.83488,-1.654504,122.22,15.65,4,339.46,23 / 23,334612,2019-11-06 11:51:28:493,0.704,0.1071,9.5923,0.0259,-0.0266,9.8065,-0.0804,0.2188,-0.0711,-10.81,-37.87,-2.44,152.58,-84.67,64.62
52.83488,-1.654504,122.22,15.65,4,339.46,23 / 23,334711,2019-11-06 11:51:28:592,0.8198,-1.7175,10.0136,0.0144,0.0022,9.8065,0.0282,-0.0284,0.0262,-10.62,-37.62,-3.37,149.03,-84.61,65.12
52.83488,-1.654504,122.22,15.65,4,339.46,23 / 23,334811,2019-11-06 11:51:28:692,0.9597,-3.2948,9.2434,-0.0054,-0.051,9.8065,0.0777,0.2355,-0.2364,-10.69,-37.62,-2.06,155.42,-84.52,68.05
52.83488,-1.654504,122.22,15.65,4,339.46,23 / 23,334912,2019-11-06 11:51:28:793,-1.725,0.7429,8.0412,-0.0327,-0.0501,9.8064,-0.2528,0.4786,-0.1695,-10.87,-37.37,-3.06,149.15,-84.59,65.49
52.83488,-1.654504,122.22,15.65,4,339.46,23 / 23,335012,2019-11-06 11:51:28:893,0.0562,-2.7509,7.5198,0.0565,0.0257,9.8064,-0.312,0.0216,0.1613,-10.75,-37.31,-2.87,148.76,-84.4,64.67
52.83488,-1.654504,122.22,15.65,4,339.46,23 / 23,335112,2019-11-06 11:51:28:993,1.417,1.6118,10.8192,-0.0188,-0.0494,9.8065,-0.087,-0.2498,0.1888,-10.44,-36.62,-3.06,144.95,-84.43,60.36
52.83488,-1.654504,122.22,15.65,4,339.46,23 / 23,335212,2019-11-06 11:51:29:093,2.7987,-4.1324,11.4725,-0.0376,0.0025,9.8065,0.3014,-0.3844,0.1881,-11,-37.19,-3.25,146.77,-84.34,62.04
52.83488,-1.654504,122.22,15.65,4,339.46,23 / 23,335311,2019-11-06 11:51:29:192,-0.8933,0.9367,9.2562,0.0092,-0.0232,9.8066,0.0794,-0.13,0.1168,-10.69,-37.31,-3,146.97,-84.68,62.88
52.83488,-1.654504,122.22,15.65,4,339.46,23 / 23,335411,2019-11-06 11:51:29:292,0.3844,-0.6745,9.5022,-0.0181,0.022,9.8066,0.0251,-0.2,0.0588,-10.5,-37.62,-3.19,146.08,-84.72,62.1
52.83488,-1.654504,122.22,15.65,4,339.46,22 / 22,335511,2019-11-06 11:51:29:392,-0.8869,1.0306,9.9575,-0.0151,-0.0084,9.8066,-0.0189,-0.0817,0.0617,-10.87,-37.37,-3,145.63,-84.57,61.01
52.83488,-1.654504,122.22,15.65,4,339.46,22 / 22,335612,2019-11-06 11:51:29:493,0.849,-0.654,8.696,0.0151,0.0607,9.8064,-0.0495,-0.2509,0.1708,-11,-37.06,-2.94,148.07,-84.39,63.77
52.83488,-1.654504,122.22,15.65,4,339.46,22 / 22,335712,2019-11-06 11:51:29:593,-0.0468,-1.7769,10.0984,-0.0132,0.0189,9.8065,-0.041,0.159,0.0012,-10.5,-37.37,-2.87,147,-84.46,63.08
52.83488,-1.654504,122.22,15.65,4,339.46,22 / 22,335812,2019-11-06 11:51:29:693,0.0706,-1.5505,10.0951,0.0074,0.0135,9.8066,0.0373,-0.0731,0.0026,-10.56,-37,-3.87,143.99,-84.55,63.9
52.83488,-1.654504,122.22,15.65,4,339.46,22 / 22,335912,2019-11-06 11:51:29:793,0.3773,-1.1225,10.183,0.0027,0.0405,9.8065,-0.0724,0.2978,-0.1025,-10.56,-37.44,-3.62,146.65,-84.45,67.07
52.83488,-1.654504,122.22,15.65,4,339.46,22 / 22,336012,2019-11-06 11:51:29:893,-0.7056,0.839,9.3973,-0.0031,0.011,9.8066,0.0048,0.0708,0.0064,-10.94,-37.06,-3.62,147.16,-84.49,67.78
52.83488,-1.654504,122.22,15.65,4,339.46,22 / 22,336112,2019-11-06 11:51:29:993,0.183,-1.2146,9.4025,-0.0203,0.0337,9.8066,-0.0592,0.3819,-0.1286,-10.19,-37,-3.31,151.24,-84.36,68.4
52.83488,-1.654504,122.22,15.65,4,339.46,22 / 22,336212,2019-11-06 11:51:30:093,-0.2225,2.2578,10.1036,-0.0045,-0.0377,9.8066,0.0354,0.3153,-0.1844,-10.25,-37.56,-3.94,146.98,-84.5,68.27
52.83488,-1.654504,122.22,15.65,4,339.46,22 / 22,336312,2019-11-06 11:51:30:193,0.6844,0.9774,9.4717,0.0124,0.0126,9.8066,0.0457,0.036,-0.0453,-10.94,-36.87,-3.5,152.97,-84.45,70.12
52.83488,-1.654504,122.22,15.65,4,339.46,22 / 22,336412,2019-11-06 11:51:30:293,-0.0783,2.0199,8.8058,-0.0035,-0.0332,9.8065,-0.0217,0.3405,-0.1492,-10.37,-37.69,-3.44,152.36,-84.48,69.81
52.83488,-1.654504,122.22,15.65,4,339.46,22 / 22,336512,2019-11-06 11:51:30:393,-0.9968,-2.4607,10.4712,-0.0281,0.0155,9.8065,-0.1395,0.1865,-0.0996,-10.62,-37.81,-3.12,151.89,-84.23,68.17
52.83488,-1.654504,122.22,15.65,4,339.46,22 / 22,336612,2019-11-06 11:51:30:493,-0.2089,-1.9531,10.5197,0.0109,0.0386,9.8065,0.07,0.6059,-0.1757,-10.37,-37.06,-2.94,151.4,-84.36,68.61
52.83488,-1.654504,122.22,15.65,4,339.46,22 / 22,336712,2019-11-06 11:51:30:593,-0.9554,5.0544,10.0985,0.0087,0.0701,9.8064,0.0921,-0.4652,0.2595,-9.62,-37.69,-3.19,150.37,-84.46,67.17
52.83488,-1.654504,122.22,15.65,4,339.46,22 / 22,336812,2019-11-06 11:51:30:693,0.8779,-1.8703,9.9341,-0.0131,0.0699,9.8063,0.0413,-0.1454,0.1395,-10.37,-37.5,-3.5,152.14,-84.17,69.28
52.83488,-1.654504,122.22,15.65,4,339.46,22 / 22,336912,2019-11-06 11:51:30:793,1.3503,5.3509,9.9626,0.0098,-0.0357,9.8065,0.0047,-0.3193,0.2904,-9.62,-37.44,-3.19,151.82,-84.48,69.35
52.83488,-1.654504,122.22,15.65,4,339.46,22 / 22,337012,2019-11-06 11:51:30:893,-0.4441,0.282,9.0898,-0.005,0.045,9.8065,0.0164,-0.3806,0.2839,-9.87,-37.25,-3.56,148.87,-84.3,70.63
52.83488,-1.654504,122.22,15.65,4,339.46,22 / 22,337112,2019-11-06 11:51:30:993,-0.2537,3.4663,9.8013,0.0063,-0.0545,9.8064,-0.0133,0.0231,0.1092,-9.94,-37.94,-3.56,146.56,-84.61,67.94
52.83488,-1.654504,122.22,15.65,4,339.46,22 / 22,337212,2019-11-06 11:51:31:093,0.2393,-0.3775,10.2601,0.0067,-0.0121,9.8066,0.0458,-0.1748,0.1472,-10.06,-37.12,-2.81,150.63,-84.58,67.99
52.83488,-1.654504,122.22,15.65,4,339.46,22 / 22,337312,2019-11-06 11:51:31:193,0.3389,-2.5742,10.1259,0.0098,-0.0513,9.8065,0.002,0.2266,-0.161,-9.81,-37.12,-2.44,155.74,-84.63,69.13
52.83488,-1.654504,122.22,15.65,4,339.46,22 / 22,337412,2019-11-06 11:51:31:293,1.719,-2.116,9.2473,0.0022,-0.0553,9.8064,-0.0114,-0.183,0.2187,-10,-37,-2.44,155.43,-84.9,69.11
52.83488,-1.654504,122.22,15.65,4,339.46,23 / 23,337512,2019-11-06 11:51:31:393,0.6242,-1.3251,9.7394,-0.0163,-0.0569,9.8064,-0.0853,0.4807,-0.1905,-9.62,-37.25,-2.81,149.78,-84.98,67.58
52.83488,-1.654504,122.22,15.65,4,339.46,23 / 23,337611,2019-11-06 11:51:31:492,-1.303,3.8368,9.4216,-0.0078,-0.0693,9.8063,-0.0544,0.1435,0.0149,-9,-37.12,-2.12,152.93,-84.98,66.35
52.83488,-1.654504,122.22,15.65,4,339.46,23 / 23,337712,2019-11-06 11:51:31:593,-0.7247,-2.4373,10.1762,0.0091,0.0084,9.8066,0.0421,0.5251,-0.1975,-9.31,-37.37,-2.12,153.3,-84.86,66.62
52.83488,-1.654504,122.22,15.65,4,339.46,23 / 23,337812,2019-11-06 11:51:31:693,0.5909,3.79,9.7101,0.0118,-0.0503,9.8064,-0.0604,0.4521,-0.2384,-9.69,-37.25,-2.81,149.2,-85.18,67.21
52.83488,-1.654504,122.22,15.65,4,339.46,23 / 23,337912,2019-11-06 11:51:31:793,0.3513,-1.7749,9.889,-0.0018,0.024,9.8066,-0.032,0.2809,-0.0646,-8.87,-37.69,-2.25,154.96,-85.1,68.99
52.83488,-1.654504,122.22,15.65,4,339.46,23 / 23,338012,2019-11-06 11:51:31:893,0.926,-1.4237,9.7411,-0.0013,-0.0028,9.8066,-0.0269,0.4788,-0.1969,-8.94,-37.44,-2,154.33,-85.18,68.52
52.83488,-1.654504,122.22,15.65,4,339.46,23 / 23,338112,2019-11-06 11:51:31:993,2.3246,-1.7977,9.5663,-0.0091,0.0491,9.8064,-0.091,-0.0941,0.1081,-9.12,-37.06,-2.31,155.23,-85.07,69.53
52.83488,-1.654504,122.22,15.65,4,339.46,23 / 23,338212,2019-11-06 11:51:32:093,0.3359,-0.1256,9.3683,-0.0031,0.05,9.8065,-0.0496,0.3382,-0.1003,-8.62,-37.31,-2.75,149.47,-85.09,68.23
52.83488,-1.654504,122.22,15.65,4,339.46,23 / 23,338312,2019-11-06 11:51:32:193,-0.2982,2.7277,10.1478,-0.0043,0.0432,9.8065,-0.0426,-0.0887,0.0699,-8.5,-36.87,-1.87,152.5,-85.23,66.68
52.83488,-1.654504,122.22,15.65,4,339.46,23 / 23,338411,2019-11-06 11:51:32:292,0.0747,-0.2973,9.6867,-0.0019,0.0238,9.8066,0.0663,0.1008,0.0247,-8.31,-37.81,-1.44,158.1,-85.04,66.56
52.83488,-1.654504,122.22,15.65,4,339.46,22 / 22,338512,2019-11-06 11:51:32:393,1.0402,3.7043,9.5502,0.0054,-0.0055,9.8066,-0.0702,0.3799,-0.114,-7.94,-37.37,-1.25,157.85,-85.18,66.68
52.83488,-1.654504,122.22,15.65,4,339.46,22 / 22,338612,2019-11-06 11:51:32:493,0.2984,-1.9483,10.1576,-0.0076,0.0337,9.8065,0.0265,-0.1779,0.1661,-8.31,-37.81,-1.25,158.56,-85.26,67.56
52.83488,-1.654504,122.22,15.65,4,339.46,22 / 22,338712,2019-11-06 11:51:32:593,1.0401,1.451,10.0648,0.0075,-0.0402,9.8065,0.0027,-0.0398,0.1354,-7.75,-37.31,-1.06,157.55,-85.54,66.9
52.83488,-1.654504,122.22,15.65,4,339.46,22 / 22,338812,2019-11-06 11:51:32:693,-0.1796,-0.2069,10.015,0.0102,0.0223,9.8066,-0.0057,-0.0946,0.0239,-8.06,-38.06,-1.44,159,-85.44,68.47
52.83488,-1.654504,122.22,15.65,4,339.46,22 / 22,338912,2019-11-06 11:51:32:793,-1.8824,-0.8053,10.3866,-0.0005,0.0389,9.8066,-0.0154,0.1868,-0.1153,-7.37,-37.56,-1.37,159.47,-85.31,68.8
52.83488,-1.654504,122.22,15.65,4,339.46,22 / 22,339012,2019-11-06 11:51:32:893,-0.2884,2.3957,10.2993,0.0027,0.0356,9.8065,-0.0187,0.0132,-0.0027,-8.06,-37.44,-1.06,157.31,-85.34,66.23
52.83488,-1.654504,122.22,15.65,4,339.46,22 / 22,339112,2019-11-06 11:51:32:993,-1.0155,-0.2855,9.7509,0.0099,0.0554,9.8065,-0.1722,0.3323,-0.1967,-7.44,-37.31,-0.69,159.23,-85.03,68.18
52.83488,-1.654504,122.22,15.65,4,339.46,22 / 22,339212,2019-11-06 11:51:33:093,0.4837,0.5071,10.2126,0.0013,-0.0107,9.8066,0.0365,0.326,-0.0423,-7.44,-37.87,-1.12,158.92,-85.16,67.72
52.83488,-1.654504,122.22,15.65,4,339.46,22 / 22,339312,2019-11-06 11:51:33:193,-0.7392,1.3579,9.8341,0.0046,-0.0258,9.8065,0.0131,0.0773,0.0224,-6.81,-38,-1.5,159.75,-85.18,68.96
52.83488,-1.654504,122.22,15.65,4,339.46,22 / 22,339412,2019-11-06 11:51:33:293,0.5502,0.3812,9.977,0.0044,-0.015,9.8066,-0.0377,0.1185,-0.0705,-7.25,-37.31,-0.81,160.22,-85.16,69.83
52.83488,-1.654504,122.22,15.65,4,339.46,21 / 21,339511,2019-11-06 11:51:33:392,0.5407,-0.0838,9.751,-0.0083,0.0213,9.8065,0.0125,0.0856,0.007,-6.69,-37.94,-0.87,160.77,-85.06,70.19
52.83488,-1.654504,122.22,15.65,4,339.46,21 / 21,339612,2019-11-06 11:51:33:493,1.1702,0.7479,9.5713,-0.0035,0.0083,9.8066,-0.0516,0.1341,-0.0548,-6.81,-37.44,-0.37,165.57,-85.06,69.11
52.83488,-1.654504,122.22,15.65,4,339.46,21 / 21,339712,2019-11-06 11:51:33:593,0.6518,0.8234,9.3385,0.0181,0.0108,9.8066,0.0029,0.0575,-0.0436,-6.56,-37,-0.25,165.87,-84.87,69.3
52.83488,-1.654504,122.22,15.65,4,339.46,21 / 21,339812,2019-11-06 11:51:33:693,-0.0572,-0.1987,9.6669,0.0252,0.0152,9.8066,-0.0327,0.0564,0.1078,-6.19,-37.37,-0.25,166.81,-84.75,69.46
52.83488,-1.654504,122.22,15.65,4,339.46,21 / 21,339912,2019-11-06 11:51:33:793,0.74,1.6245,10.3426,0.0056,-0.0067,9.8065,-0.061,0.1312,0.0537,-5.81,-37.87,-0.06,166.92,-84.77,69.48
52.83488,-1.654504,122.22,15.65,4,339.46,21 / 21,340012,2019-11-06 11:51:33:893,0.6166,0.4161,9.5377,0.0033,0.0001,9.8066,0.0185,0.104,0.0389,-6.31,-37.19,-0.06,167.37,-84.79,70.39
52.83488,-1.654504,122.22,15.65,4,339.46,21 / 21,340112,2019-11-06 11:51:33:993,-0.0304,2.747,9.8367,-0.0088,-0.0061,9.8066,0.0082,-0.0185,0.0753,-5.87,-37.44,0.06,167.72,-84.83,70.97
52.83488,-1.654504,122.22,15.65,4,339.46,21 / 21,340212,2019-11-06 11:51:34:093,1.579,0.8369,10.8001,-0.0073,0.0363,9.8065,0.1603,-0.0785,0.0398,-6.06,-37.62,0.44,169.35,-84.83,73.34
52.83488,-1.654504,122.22,15.65,4,339.46,21 / 21,340311,2019-11-06 11:51:34:192,0.6365,-0.3218,9.8301,0.0271,0.0273,9.8066,-0.0118,-0.0343,0.0823,-5.5,-37.37,1.56,185.29,-84.58,76.9
52.83488,-1.654504,122.22,15.65,4,339.46,21 / 21,340413,2019-11-06 11:51:34:294,2.6022,2.3565,10.427,0.0289,0.0371,9.8065,-0.0185,0.1796,0.0593,-5,-37.5,1.06,179.36,-84.58,77.61
52.83488,-1.654504,122.22,15.65,4,339.46,21 / 21,340512,2019-11-06 11:51:34:393,-0.5849,0.737,9.887,-0.0058,-0.0051,9.8066,0.1074,0.2197,-0.0689,-5.06,-37.12,1.44,180.95,-84.28,80.32
52.83488,-1.654504,122.22,15.65,4,339.46,21 / 21,340612,2019-11-06 11:51:34:493,1.1859,2.2373,8.8778,0.0106,-0.0051,9.8066,-0.0886,0.2944,0.0062,-4.81,-37.87,1.31,181.34,-84.17,81.04
52.83488,-1.654504,122.22,15.65,4,339.46,21 / 21,340712,2019-11-06 11:51:34:593,2.2737,2.2596,9.6065,-0.011,-0.0055,9.8066,0.0309,0.238,-0.0729,-4.75,-37.5,1,181.2,-84.19,80.77
52.83488,-1.654504,122.22,15.65,4,339.46,21 / 21,340812,2019-11-06 11:51:34:693,0.1392,1.2803,9.9392,-0.0117,0.0021,9.8066,0.0531,0.1661,-0.0405,-4.19,-37.81,1.81,189.29,-84.09,80.79
52.83488,-1.654504,122.22,15.65,4,339.46,21 / 21,340912,2019-11-06 11:51:34:793,1.4432,1.6967,10.0781,0.041,0.0095,9.8065,0.015,0.1997,-0.0034,-3.87,-37.87,1.81,190.07,-83.99,82.39
52.83488,-1.654504,122.22,15.65,4,339.46,21 / 21,341012,2019-11-06 11:51:34:893,0.8725,1.5106,10.2055,0.0374,0.0188,9.8065,-0.0946,0.2564,0.0068,-3.75,-37.56,2.5,196.77,-83.85,83.41
52.83488,-1.654504,122.22,15.65,4,339.46,21 / 21,341113,2019-11-06 11:51:34:994,0.3322,2.0435,10.2999,-0.0002,0.0056,9.8066,0.086,0.176,-0.0709,-3.69,-37.37,2.06,190.58,-83.73,83.51
52.83488,-1.654504,122.22,15.65,4,339.46,21 / 21,341212,2019-11-06 11:51:35:093,-0.6488,1.2902,9.769,0.0103,-0.0053,9.8066,0.1661,0.2786,-0.0909,-3.12,-37.37,2.69,200.89,-83.54,86.26
52.83488,-1.654504,122.22,15.65,4,339.46,21 / 21,341312,2019-11-06 11:51:35:193,-0.9856,-0.1725,9.5497,0.0405,-0.0084,9.8066,0.1475,0.3208,-0.1743,-3.37,-37.69,2.88,202.74,-83.47,90.83
52.83488,-1.654504,122.22,15.65,4,339.46,21 / 21,341412,2019-11-06 11:51:35:293,1.9805,1.2213,10.807,0.0459,-0.0127,9.8065,-0.1369,0.2608,0.1057,-2.81,-37.75,3.75,210.96,-83.77,92.84
52.83488,-1.654504,122.22,15.65,4,339.46,21 / 21,341512,2019-11-06 11:51:35:393,0.8515,-0.3121,10.2517,-0.001,-0.0198,9.8066,-0.1007,0.0644,0.2192,-3.06,-37.56,4.06,211.47,-84.09,92.37
52.83488,-1.654504,122.22,15.65,4,339.46,21 / 21,341612,2019-11-06 11:51:35:493,0.4533,-0.1304,9.2919,-0.0111,-0.0274,9.8065,0.0246,0.0698,0.029,-3.25,-37.44,4.25,213.3,-84.38,93.53
52.83488,-1.654504,122.22,15.65,4,339.46,21 / 21,341712,2019-11-06 11:51:35:593,-0.6692,-0.6029,10.0042,-0.0192,-0.0275,9.8066,0.0615,0.2091,0.0014,-3.62,-37,4.31,211.3,-84.62,94.79
52.83488,-1.654504,122.22,15.65,4,339.46,21 / 21,341812,2019-11-06 11:51:35:693,-0.603,-1.2377,10.3063,-0.0129,-0.0325,9.8066,-0.0313,0.1914,-0.0585,-2.87,-37.31,4.75,222.16,-84.75,95.97
52.83488,-1.654504,122.22,15.65,4,339.46,21 / 21,341912,2019-11-06 11:51:35:793,-0.5319,-2.5553,10.9019,-0.0004,-0.0001,9.8066,-0.0201,0.1544,-0.0501,-3.62,-37.94,4.63,219.15,-85,96.79
52.83488,-1.654504,122.22,15.65,4,339.46,21 / 21,342012,2019-11-06 11:51:35:893,-0.3364,-2.0356,10.1973,0.006,-0.0201,9.8066,-0.0295,0.2274,-0.0703,-2.75,-37.31,4.75,223.36,-84.89,97.1
52.83488,-1.654504,122.22,15.65,4,339.46,21 / 21,342111,2019-11-06 11:51:35:992,2.0922,1.281,10.1138,0.0016,0.0129,9.8065,-0.0793,-0.173,0.0563,-2.87,-37.25,5.25,221.69,-84.55,96.19
52.83488,-1.654504,122.22,15.65,4,339.46,21 / 21,342211,2019-11-06 11:51:36:092,0.0499,0.6013,9.5334,-0.0161,0.0061,9.8066,-0.0411,0.202,-0.0226,-2.87,-37.5,4.5,219.89,-84.25,94.82
52.83488,-1.654504,122.22,15.65,4,339.46,21 / 21,342312,2019-11-06 11:51:36:193,0.5773,3.5711,10.1172,-0.0198,-0.0401,9.8065,0.0679,-0.3629,0.1158,-2.75,-37.62,4.5,218.71,-84.15,94.12
52.83488,-1.654504,122.22,15.65,4,339.46,21 / 21,342412,2019-11-06 11:51:36:293,-0.2477,-1.5458,10.6675,0.0415,0.0252,9.8064,0.0268,-0.1184,0.1975,-2.75,-37.12,4.94,218.76,-84.02,94.08
52.83488,-1.654504,122.22,15.65,4,339.46,21 / 21,342512,2019-11-06 11:51:36:393,0.4977,1.5473,11.0372,0.0167,-0.0268,9.8066,0.0828,-0.1184,-0.0068,-2,-37,5.13,223.87,-83.82,96.44
52.83488,-1.654504,122.22,15.65,4,339.46,21 / 21,342612,2019-11-06 11:51:36:493,0.0726,-2.3068,9.901,0.0474,0.0405,9.8064,0.0935,-0.2269,0.1892,-2.12,-37.69,5.75,228.04,-83.4,97.3
52.83488,-1.654504,122.22,15.65,4,339.46,21 / 21,342712,2019-11-06 11:51:36:593,-1.8581,-1.1354,9.642,0.0203,0.0164,9.8066,-0.0137,0.1585,-0.0294,-1.94,-37.56,5.69,228.55,-83.33,98.45
52.83488,-1.654504,122.22,15.65,4,339.46,21 / 21,342812,2019-11-06 11:51:36:693,1.1345,2.0341,9.4017,0.0331,0.0398,9.8065,0.0069,-0.1318,0.113,-1.31,-38.19,5.88,233.19,-83.26,98.6
52.83488,-1.654504,122.22,15.65,4,339.46,21 / 21,342912,2019-11-06 11:51:36:793,-1.4798,0.0945,9.4825,0.0001,0.0409,9.8065,-0.0532,0.3122,-0.1044,-2.12,-38.06,5.31,221.09,-82.93,97.6
52.83488,-1.654504,122.22,15.65,4,339.46,21 / 21,343012,2019-11-06 11:51:36:893,1.8419,1.8871,9.891,-0.0005,0.0203,9.8066,-0.0416,0.0216,0.028,-1.69,-37.19,5.63,226.22,-82.87,96.19
52.83488,-1.654504,122.22,15.65,4,339.46,21 / 21,343111,2019-11-06 11:51:36:992,-0.5536,-0.6472,9.5077,0.019,0.0258,9.8066,-0.1114,0.2772,-0.0514,-1.62,-37.75,5.31,220.03,-82.91,95.82
52.83488,-1.654504,122.22,15.65,4,339.46,21 / 21,343212,2019-11-06 11:51:37:093,-0.043,1.3974,10.3084,-0.0222,-0.0179,9.8065,0.0376,0.1744,-0.0896,-2.06,-37.5,5.94,227.52,-83.21,96.56
52.83488,-1.654504,122.22,15.65,4,339.46,21 / 21,343312,2019-11-06 11:51:37:193,-1.8376,1.5169,9.2052,-0.0006,0.0001,9.8066,0.2005,-0.1567,-0.0324,-1.81,-36.62,5.19,222.66,-83.21,97.75
52.83488,-1.654504,122.22,15.65,4,339.46,21 / 21,343411,2019-11-06 11:51:37:292,-3.6031,-4.6867,10.1154,0.0542,0.0316,9.8064,0.0659,-0.468,0.2893,-1.75,-37.69,6.19,229.89,-83.55,99.36
52.83583,-1.655765,123.62,16.38,4,295.26,20 / 20,343511,2019-11-06 11:51:37:392,-3.2055,-3.6334,10.0382,0.06,0.0553,9.8063,0.189,-0.8067,0.4167,-1.44,-37.81,6.56,238.85,-83.21,99.94
52.83583,-1.655765,123.62,16.38,4,295.26,20 / 20,343612,2019-11-06 11:51:37:493,2.9173,4.0651,9.9083,0.0014,0.0164,9.8066,0.0063,0.2857,-0.1916,-2.25,-37.37,6.31,230.66,-83.29,100.97
52.83583,-1.655765,123.62,16.38,4,295.26,20 / 20,343712,2019-11-06 11:51:37:593,-2.1657,-2.6725,10.3142,0.0596,0.0625,9.8062,-0.1063,0.6037,-0.3735,-2,-37.75,6.5,234.13,-83.03,100.9
52.83583,-1.655765,123.62,16.38,4,295.26,20 / 20,343812,2019-11-06 11:51:37:693,1.7621,3.0592,8.8926,0.0009,-0.0187,9.8066,-0.0885,0.3615,-0.1552,-1.37,-37.56,6.5,239.66,-83.19,101.16
52.83583,-1.655765,123.62,16.38,4,295.26,20 / 20,343912,2019-11-06 11:51:37:793,-1.9602,-2.4041,10.0348,0.0156,0.0421,9.8065,-0.1022,0.5652,-0.2376,-1.62,-37.94,6.63,234.67,-83.08,101.45
52.83583,-1.655765,123.62,16.38,4,295.26,20 / 20,344012,2019-11-06 11:51:37:893,2.258,1.7513,9.503,-0.0261,-0.045,9.8065,-0.1058,0.4711,-0.2936,-1.81,-37.87,7.13,235.08,-83.2,101.43
52.83583,-1.655765,123.62,16.38,4,295.26,20 / 20,344112,2019-11-06 11:51:37:993,-3.5506,-1.7549,9.6873,0.0301,0.0211,9.8065,-0.0142,0.1329,-0.083,-1.75,-37.25,6.81,234.17,-82.91,100.65
52.83583,-1.655765,123.62,16.38,4,295.26,20 / 20,344212,2019-11-06 11:51:38:093,-1.5877,-2.6289,9.8526,-0.032,-0.0229,9.8065,-0.0333,0.3394,-0.172,-1.56,-37.69,6.5,234.07,-83.08,100.57
52.83583,-1.655765,123.62,16.38,4,295.26,20 / 20,344312,2019-11-06 11:51:38:193,-2.0105,-1.2487,10.4923,0.0015,-0.0477,9.8065,0.0724,0.03,-0.023,-2,-37.5,6.38,230.08,-83.01,101.59
52.83583,-1.655765,123.62,16.38,4,295.26,20 / 20,344412,2019-11-06 11:51:38:293,-0.0535,1.0394,9.5511,-0.0055,-0.0335,9.8065,-0.0677,0.2332,-0.0962,-1.12,-36.94,7.5,244.57,-82.9,102.54
52.83583,-1.655765,123.62,16.38,4,295.26,20 / 21,344513,2019-11-06 11:51:38:394,0.7249,-0.4693,9.9894,-0.0101,0.0049,9.8066,0.0403,0.1933,-0.095,-2.19,-37.37,7.13,236.51,-83.01,103.47
52.83583,-1.655765,123.62,16.38,4,295.26,20 / 21,344612,2019-11-06 11:51:38:493,0.8282,0.8774,9.9224,-0.0332,-0.023,9.8065,-0.052,0.3006,-0.2484,-1.56,-37.81,7,235.9,-83.1,103.1
52.83583,-1.655765,123.62,16.38,4,295.26,20 / 21,344712,2019-11-06 11:51:38:593,-0.0086,0.8965,8.7834,-0.0443,-0.0128,9.8065,0.0306,-0.2594,0.1822,-1.5,-37,7,239.97,-82.95,101.93
52.83583,-1.655765,123.62,16.38,4,295.26,20 / 21,344812,2019-11-06 11:51:38:693,-1.4304,-3.4625,9.4698,-0.0172,-0.0012,9.8066,-0.0955,0.0707,-0.0606,-1.31,-37.37,6.31,232.61,-82.73,99.77
52.83583,-1.655765,123.62,16.38,4,295.26,20 / 21,344912,2019-11-06 11:51:38:793,-1.0336,-0.5486,9.8897,-0.0305,-0.0194,9.8065,0.0161,-0.218,0.1248,-1.12,-37.19,6.38,231.68,-82.65,98.73
52.83583,-1.655765,123.62,16.38,4,295.26,20 / 21,345012,2019-11-06 11:51:38:893,-0.1522,-3.5687,10.4369,0.0077,-0.0143,9.8066,0.1225,-0.0453,0.0396,-1.06,-37.12,7.19,236.21,-82.4,99.44
52.83583,-1.655765,123.62,16.38,4,295.26,20 / 21,345112,2019-11-06 11:51:38:993,-0.2458,1.4896,10.0522,-0.0055,-0.0397,9.8065,0.0994,-0.1671,0.2165,-1,-37.44,7.38,238.57,-82.47,102.58
52.83583,-1.655765,123.62,16.38,4,295.26,20 / 21,345212,2019-11-06 11:51:39:093,-2.3042,-0.428,9.7144,0.0043,-0.027,9.8066,-0.0126,-0.0649,0.0659,-1.37,-37.37,7.81,245.19,-82.47,105.47
52.83583,-1.655765,123.62,16.38,4,295.26,20 / 21,345312,2019-11-06 11:51:39:193,1.6996,0.7058,9.0315,-0.0173,-0.0258,9.8065,0.0811,-0.3737,0.1143,-1.5,-37.12,6.81,241.49,-82.62,105.87
52.83583,-1.655765,123.62,16.38,4,295.26,20 / 21,345412,2019-11-06 11:51:39:293,-1.1883,0.3749,9.2032,0.0344,0.0556,9.8064,0.1117,-0.3827,0.1879,-1.44,-37.44,7.06,239.37,-82.37,104.29
52.83583,-1.655765,123.62,16.38,4,295.26,20 / 21,345512,2019-11-06 11:51:39:393,2.4416,0.5602,9.8114,0.0048,0.016,9.8066,-0.1345,0.0044,-0.0254,-1.5,-37.12,7.06,239.47,-82.36,104.49
52.83583,-1.655765,123.62,16.38,4,295.26,20 / 21,345612,2019-11-06 11:51:39:493,-0.0279,-2.33,9.8655,0.0083,0.0364,9.8065,0.1084,-0.1972,0.0835,-1.69,-36.81,6.81,234.36,-82.34,103.71
52.83583,-1.655765,123.62,16.38,4,295.26,20 / 21,345712,2019-11-06 11:51:39:593,-2.4424,-1.0637,8.9635,0.02,0.0133,9.8065,0.0989,0.1093,-0.0181,-1.19,-36.5,7.19,238.28,-82.07,103.14
52.83583,-1.655765,123.62,16.38,4,295.26,20 / 21,345812,2019-11-06 11:51:39:693,-3.3839,0.1964,9.8755,0.0348,0.0108,9.8065,0.0263,-0.1279,-0.0214,-1.37,-37.06,7.13,237.63,-81.97,103.95
52.83583,-1.655765,123.62,16.38,4,295.26,20 / 21,345912,2019-11-06 11:51:39:793,-4.4461,-0.9057,9.9738,0.0286,0.0397,9.8065,-0.129,0.5075,-0.2431,-1.19,-37.19,8.06,242.3,-81.86,104.63
52.83583,-1.655765,123.62,16.38,4,295.26,20 / 21,346012,2019-11-06 11:51:39:893,2.0687,1.1656,10.0942,-0.0167,0.0216,9.8066,0.1111,0.0264,-0.0856,-1.31,-37.12,6.94,238.44,-82,105
52.83583,-1.655765,123.62,16.38,4,295.26,20 / 21,346112,2019-11-06 11:51:39:993,-2.0515,-3.039,10.3466,0.0524,0.0469,9.8063,-0.093,0.6874,-0.3996,-1.19,-37.37,7.88,242.59,-81.79,105.4
52.83583,-1.655765,123.62,16.38,4,295.26,20 / 21,346212,2019-11-06 11:51:40:093,1.6307,0.3798,8.7973,-0.0109,-0.0237,9.8065,-0.1706,0.368,-0.2045,-1,-37.06,7.5,242.93,-81.95,105.06
52.83583,-1.655765,123.62,16.38,4,295.26,20 / 21,346311,2019-11-06 11:51:40:192,-3.3762,-4.4801,8.2125,0.03,0.0483,9.8064,0.0044,0.368,-0.2053,-1.31,-37.5,6.88,237.49,-81.95,103.83
52.83583,-1.655765,123.62,16.38,4,295.26,20 / 21,346412,2019-11-06 11:51:40:293,-0.0331,-2.7857,9.4641,-0.0385,-0.0382,9.8064,-0.1421,0.5333,-0.3274,-1.25,-37.06,7.19,237.55,-82.1,103.09
52.83583,-1.655765,123.62,16.38,4,295.26,21 / 21,346512,2019-11-06 11:51:40:393,-4.4518,-3.3812,9.5056,0.0021,-0.0061,9.8066,-0.0274,-0.0228,0.0292,-1.25,-36.69,6.63,236.01,-81.86,102.1
52.83583,-1.655765,123.62,16.38,4,295.26,21 / 21,346612,2019-11-06 11:51:40:493,-0.2418,-2.8835,10.1707,-0.057,-0.0389,9.8063,0.093,0.262,-0.2024,-1.44,-37.44,6.94,237.02,-81.95,103.13
52.83583,-1.655765,123.62,16.38,4,295.26,21 / 21,346712,2019-11-06 11:51:40:593,2.1242,1.3749,9.0852,-0.0203,-0.0409,9.8065,0.0935,-0.4425,0.1724,-0.62,-37.25,6.38,232,-81.87,104.17
52.83583,-1.655765,123.62,16.38,4,295.26,21 / 21,346812,2019-11-06 11:51:40:693,-0.4293,-1.4558,10.1183,-0.0032,0.0149,9.8066,-0.019,-0.2079,0.1044,-1.37,-37.69,7.13,235.78,-81.85,103.02
52.83583,-1.655765,123.62,16.38,4,295.26,21 / 21,346912,2019-11-06 11:51:40:793,1.4503,0.8266,9.8595,-0.039,-0.0043,9.8065,0.0153,-0.2743,0.1509,-0.94,-37.37,6.69,235.78,-81.97,101.1
52.83583,-1.655765,123.62,16.38,4,295.26,21 / 21,347012,2019-11-06 11:51:40:893,-1.6513,-0.0368,10.5334,0.0593,0.0294,9.8063,-0.008,-0.4069,0.2675,-0.75,-37,6.94,234.38,-81.55,101.25
52.83583,-1.655765,123.62,16.38,4,295.26,21 / 21,347112,2019-11-06 11:51:40:993,-3.1474,-4.7568,7.2852,0.029,0.0049,9.8066,-0.0804,-0.2338,0.2098,-0.69,-36.87,7.38,234.61,-81.6,101.31
52.83583,-1.655765,123.62,16.38,4,295.26,21 / 21,347212,2019-11-06 11:51:41:093,-5.1181,-3.1972,9.7458,0.0903,0.0424,9.8061,0.0179,-0.4456,0.3393,-1.12,-36.94,7.13,234.89,-81.78,100.79
52.83583,-1.655765,123.62,16.38,4,295.26,21 / 21,347312,2019-11-06 11:51:41:193,-1.4687,-2.7306,9.5489,0.0585,0.0386,9.8063,-0.011,0.4914,-0.2822,-0.94,-37,6.5,233.98,-81.4,101.4
52.83583,-1.655765,123.62,16.38,4,295.26,21 / 21,347412,2019-11-06 11:51:41:293,0.8598,5.2554,9.6327,0.0539,0.028,9.8064,0.0583,-0.2889,0.2009,-0.94,-36.87,6.25,229.52,-81.37,102.98
52.83583,-1.655765,123.62,16.38,4,295.26,20 / 20,347512,2019-11-06 11:51:41:393,1.6261,-0.6101,9.76,0.0714,0.0639,9.8061,-0.1662,0.6071,-0.3629,-1.37,-37.06,7.19,235.53,-81.39,103.95
52.83583,-1.655765,123.62,16.38,4,295.26,20 / 20,347611,2019-11-06 11:51:41:492,0.9373,3.0556,8.6003,0.0178,0.0376,9.8065,-0.0974,0.1176,-0.0313,-0.94,-37.44,6.31,229.63,-81.49,102.4
52.83583,-1.655765,123.62,16.38,4,295.26,20 / 20,347712,2019-11-06 11:51:41:593,-2.7527,-4.7458,10.3264,0.0151,0.0727,9.8063,-0.1896,0.6802,-0.2894,-1.37,-38.06,5.81,227.69,-81.39,100.92
52.83583,-1.655765,123.62,16.38,4,295.26,20 / 20,347812,2019-11-06 11:51:41:693,2.5385,3.3605,9.9703,-0.0725,-0.0394,9.8062,-0.0172,0.6144,-0.398,-1.44,-37.06,5.94,227.91,-81.3,100.47
52.83583,-1.655765,123.62,16.38,4,295.26,20 / 20,347912,2019-11-06 11:51:41:793,-2.4281,-3.8165,9.1222,0.0057,0.0211,9.8066,-0.0092,0.198,-0.0705,-1.69,-37.37,6.13,224.21,-81.56,99.35
52.83583,-1.655765,123.62,16.38,4,295.26,20 / 20,348011,2019-11-06 11:51:41:892,-1.9509,-2.9187,9.5296,-0.059,-0.0594,9.8062,-0.0682,0.4712,-0.3478,-1.31,-36.87,6.63,234.75,-81.97,99.55
52.83583,-1.655765,123.62,16.38,4,295.26,20 / 20,348112,2019-11-06 11:51:41:993,-4.5487,-0.9203,9.7337,-0.0026,-0.0259,9.8066,0.0864,-0.1083,0.0552,-1.44,-37.12,6.06,228.92,-81.78,99.36
52.83583,-1.655765,123.62,16.38,4,295.26,20 / 20,348212,2019-11-06 11:51:42:093,-1.606,-2.0074,9.8989,-0.0267,-0.0299,9.8065,-0.0046,0.1516,-0.0626,-1.12,-37.56,6.75,233.43,-81.66,100.33
52.83583,-1.655765,123.62,16.38,4,295.26,20 / 20,348312,2019-11-06 11:51:42:193,-1.2028,1.2126,9.5591,-0.0148,-0.0411,9.8064,0.0142,-0.2823,0.0571,-1.81,-37.5,6.44,226.36,-81.95,101.08
52.83583,-1.655765,123.62,16.38,4,295.26,20 / 20,348412,2019-11-06 11:51:42:293,-2.0517,-2.1925,9.832,0.0102,0.0145,9.8066,0.0659,-0.1299,0.2142,-1.75,-37.12,6.25,225.77,-81.98,99.92
52.83583,-1.655765,123.62,16.38,4,295.26,22 / 22,348512,2019-11-06 11:51:42:393,-1.4762,1.8583,9.6219,-0.0143,-0.0371,9.8065,-0.0159,-0.1132,0.0886,-1.44,-37.69,5.88,230.57,-82.21,100.87
52.83583,-1.655765,123.62,16.38,4,295.26,22 / 22,348612,2019-11-06 11:51:42:493,-3.4331,-0.6601,9.6097,0.0066,0.0268,9.8065,0.0153,-0.2836,0.1886,-1.44,-37.69,6.13,229.6,-82.22,99.15
52.83583,-1.655765,123.62,16.38,4,295.26,22 / 22,348712,2019-11-06 11:51:42:593,-3.9775,-1.1666,8.7334,-0.0192,0.0267,9.8066,0.0445,0.1872,0.0273,-1.75,-36.87,5.75,225.94,-82.46,97.77
52.83583,-1.655765,123.62,16.38,4,295.26,22 / 22,348812,2019-11-06 11:51:42:693,0.061,-1.3331,8.639,0.0012,0.0274,9.8066,-0.1299,-0.096,-0.0818,-1.81,-37.75,5.69,224.46,-82.46,96.35
52.83583,-1.655765,123.62,16.38,4,295.26,22 / 22,348912,2019-11-06 11:51:42:793,-4.2981,-0.7772,9.5319,0.0372,0.0611,9.8064,0.0062,0.2983,-0.1731,-1.62,-37.69,5.44,216.56,-82.12,93.42
52.83583,-1.655765,123.62,16.38,4,295.26,22 / 22,349012,2019-11-06 11:51:42:893,-0.9763,-0.1607,10.596,-0.0003,-0.009,9.8066,-0.0483,0.1515,-0.206,-1.37,-37.5,5.94,227.29,-82.25,93.78
52.83583,-1.655765,123.62,16.38,4,295.26,22 / 22,349112,2019-11-06 11:51:42:993,-1.0087,1.1787,9.4198,0.0533,0.0094,9.8064,0.039,-0.173,0.2183,-1.25,-38,5.69,225.73,-81.95,93.92
52.83583,-1.655765,123.62,16.38,4,295.26,22 / 22,349212,2019-11-06 11:51:43:093,-0.0534,1.5261,10.6317,-0.0354,-0.0103,9.8065,0.043,0.5173,-0.153,-1.25,-37.19,5.88,227.58,-82.11,95.03
52.83583,-1.655765,123.62,16.38,4,295.26,22 / 22,349312,2019-11-06 11:51:43:193,-0.6165,2.9716,8.8238,-0.007,-0.0305,9.8066,0.1079,-0.0223,-0.0944,-1.81,-36.87,6.25,223.85,-82.27,95.23
52.83583,-1.655765,123.62,16.38,4,295.26,22 / 22,349413,2019-11-06 11:51:43:294,-4.2254,-3.095,9.6281,-0.0424,-0.0552,9.8064,-0.0578,0.3594,-0.1556,-1.19,-37,6.13,228.02,-82.35,94.43
52.83583,-1.655765,123.62,16.38,4,295.26,20 / 20,349511,2019-11-06 11:51:43:392,-3.6592,-2.0517,9.1336,-0.0376,-0.0228,9.8065,0.1618,-0.1545,0.2404,-1.44,-37.12,6.56,232.96,-82.41,94.55
52.83583,-1.655765,123.62,16.38,4,295.26,20 / 20,349612,2019-11-06 11:51:43:493,-3.1764,-0.5138,9.0838,-0.0395,-0.0515,9.8064,-0.1241,0.0635,-0.2771,-1,-37.12,6.19,228.37,-82.42,94.65
52.83583,-1.655765,123.62,16.38,4,295.26,20 / 20,349711,2019-11-06 11:51:43:592,-0.7953,1.0561,10.1382,-0.0193,0.006,9.8066,-0.0275,-0.343,0.1084,-1.44,-36.44,6.19,226.89,-82.17,92.36
52.83583,-1.655765,123.62,16.38,4,295.26,20 / 20,349812,2019-11-06 11:51:43:693,-3.4334,1.1341,10.2434,-0.0126,0.0309,9.8065,0.1398,-0.0024,0.0564,-1.31,-37.06,5.94,226.38,-82.18,92.58
52.83583,-1.655765,123.62,16.38,4,295.26,20 / 20,349911,2019-11-06 11:51:43:792,0.0816,0.6523,10.3064,-0.0347,-0.0694,9.8063,0.0277,-0.2813,0.1265,-1.06,-37.69,5.75,226.06,-82.22,92.99
52.83583,-1.655765,123.62,16.38,4,295.26,20 / 20,350012,2019-11-06 11:51:43:893,-2.7367,-0.2134,8.6209,0.0138,0.0028,9.8066,-0.0005,-0.3569,0.234,-1.69,-37.44,4.94,216.87,-82.1,93.03
52.83583,-1.655765,123.62,16.38,4,295.26,20 / 20,350112,2019-11-06 11:51:43:993,-1.791,3.6614,9.0039,-0.0516,0.0089,9.8065,0.1036,-0.2355,0.3137,-1.44,-37.06,5.19,221.24,-82.48,91.25
