GPS LATITUDE (degrees), GPS LONGITUDE (degrees), GPS ALTITUDE (m), GPS SPEED (Kmh), GPS ACCURACY (m), GPS ORIENTATION (Â°),GPS SATELLITES IN RANGE, TIME SINCE START (ms), DATE (YYYY-MO-DD HH-MI-SS_SSS), ACCELEROMETER X (m/s²) , ACCELEROMETER Y (m/s²), ACCELEROMETER Z (m/s²), GRAVITY X (m/s²), GRAVITY Y (m/s²), GRAVITY Z (m/s²), GYROSCOPE Yaw (rad/s), GYROSCOPE Pitch (rad/s), GYROSCOPE Roll (rad/s), MAGNETIC FIELD X (Î¼T), MAGNETIC FIELD Y (Î¼T), MAGNETIC FIELD Z (Î¼T), ORIENTATION (Yaw) (Â°), ORIENTATION (Pitch) (Â°), ORIENTATION (Roll ) (Â°)
53.05122,-1.757876,264.18,6.42,3,275.9,22 / 22,987214,2019-11-06 12:58:48:922,2.2113,-0.9092,9.7173,0.0131,-0.0097,9.8065,-0.0251,0.1219,-0.1566,17.25,-41.87,0.13,94.5,-85.21,172.6
53.05122,-1.757876,264.18,6.42,3,275.9,22 / 22,987314,2019-11-06 12:58:49:022,2.5842,-1.7121,9.5352,-0.0032,-0.0306,9.8066,-0.026,-0.06,-0.0096,17.38,-42.62,0.38,90.99,-85.25,168.88
53.05122,-1.757876,264.18,6.42,3,275.9,22 / 22,987414,2019-11-06 12:58:49:122,2.5554,1.0745,9.8851,-0.0027,0.0135,9.8066,-0.0406,0.1391,-0.1133,17.38,-41.19,0.63,85.27,-85.32,167.29
53.05122,-1.757876,264.18,6.42,3,275.9,21 / 22,987514,2019-11-06 12:58:49:222,2.2751,0.2552,9.7454,0.0091,-0.0041,9.8066,-0.0182,0.0494,-0.0717,18.31,-42.37,0.81,83.99,-85.42,166.45
53.05122,-1.757876,264.18,6.42,3,275.9,21 / 22,987614,2019-11-06 12:58:49:322,2.5261,1.0642,9.683,0.0209,0.0288,9.8065,-0.0221,0.0781,-0.0785,17.63,-43.12,0.69,82.4,-85.61,165.1
53.05122,-1.757876,264.18,6.42,3,275.9,21 / 22,987714,2019-11-06 12:58:49:422,2.1008,-0.8398,9.9494,0.0194,0.0155,9.8065,-0.0514,0.0813,-0.0583,17.38,-43.37,0.81,83.67,-85.95,166.77
53.05122,-1.757876,264.18,6.42,3,275.9,21 / 22,987815,2019-11-06 12:58:49:523,2.1301,0.879,9.6621,0.0162,0.0098,9.8066,-0.0184,-0.0419,-0.0076,16.75,-42.81,-0.94,89.98,-86.19,166.94
53.05122,-1.757876,264.18,6.42,3,275.9,21 / 22,987914,2019-11-06 12:58:49:622,0.687,-0.5634,9.5606,0.0057,0.0134,9.8066,-0.0204,0.0523,-0.0809,17.19,-42.75,-0.19,86.27,-86.27,166.78
53.05122,-1.757876,264.18,6.42,3,275.9,21 / 22,988014,2019-11-06 12:58:49:722,2.229,-0.0463,9.8056,0.0161,-0.0138,9.8066,-0.0013,-0.0862,-0.0179,16.63,-42.12,-0.37,83.07,-86.3,163.94
53.05122,-1.757876,264.18,6.42,3,275.9,21 / 22,988115,2019-11-06 12:58:49:823,1.3193,-1.0256,9.8434,0.0115,-0.002,9.8065,0.0011,-0.0236,-0.0392,17.19,-42.25,-0.12,78.81,-86.46,160.15
53.05122,-1.757876,264.18,6.42,3,275.9,21 / 22,988214,2019-11-06 12:58:49:922,1.3804,-0.181,9.6829,0.0072,-0.0078,9.8066,-0.0074,-0.1078,0.0402,17.25,-41.87,-0.31,77.19,-86.52,158.74
53.05122,-1.757876,264.18,6.42,3,275.9,21 / 22,988314,2019-11-06 12:58:50:022,1.0809,0.3174,9.8281,0.0113,0.0111,9.8066,0.0115,-0.0412,0.0007,17.38,-41.62,-0.44,76.61,-86.67,158.54
53.05122,-1.757876,264.18,6.42,3,275.9,21 / 22,988414,2019-11-06 12:58:50:122,1.6516,0.6802,9.922,0.01,-0.0059,9.8066,0.0105,-0.1094,0.0384,17.56,-42.56,-1.06,79.49,-86.82,158.82
53.05122,-1.757876,264.18,6.42,3,275.9,22 / 22,988514,2019-11-06 12:58:50:222,1.5207,0.165,9.7937,0.0068,-0.0074,9.8066,-0.016,-0.038,-0.0043,17.06,-42.69,-0.81,78.74,-86.9,157.66
53.05122,-1.757876,264.18,6.42,3,275.9,22 / 22,988614,2019-11-06 12:58:50:322,1.018,-0.6465,9.8497,0.0029,-0.0203,9.8065,0.0103,-0.0893,0.0154,17.63,-42.25,-1,75.44,-86.97,155.39
53.05122,-1.757876,264.18,6.42,3,275.9,22 / 22,988714,2019-11-06 12:58:50:422,1.0427,-0.3934,9.6861,0.0032,-0.0116,9.8066,0.017,-0.0777,-0.011,17.31,-43.06,-0.44,67.99,-86.96,150.81
53.05122,-1.757876,264.18,6.42,3,275.9,22 / 22,988814,2019-11-06 12:58:50:522,0.853,-0.7137,9.7477,0.0072,-0.0119,9.8065,0.0277,-0.0725,0.011,17.13,-42.19,-0.69,69.71,-86.97,149.3
53.05122,-1.757876,264.18,6.42,3,275.9,22 / 22,988914,2019-11-06 12:58:50:622,0.8701,0.1739,9.7312,0.0042,-0.0079,9.8066,-0.0039,-0.0845,0.0242,17.13,-42.5,-0.94,66.94,-87.04,146.8
53.05122,-1.757876,264.18,6.42,3,275.9,22 / 22,989014,2019-11-06 12:58:50:722,0.3143,-0.197,9.8086,0.0063,-0.0074,9.8066,0.0104,-0.0385,0.0152,17.5,-42.25,-0.75,64.23,-87.15,145.01
53.05122,-1.757876,264.18,6.42,3,275.9,22 / 22,989114,2019-11-06 12:58:50:822,0.3107,0.3649,9.8169,0.004,-0.0074,9.8066,-0.0012,-0.0701,0.0184,17.94,-42.31,-1.25,63.21,-87.2,144.17
53.05122,-1.757876,264.18,6.42,3,275.9,22 / 22,989215,2019-11-06 12:58:50:923,0.0483,0.0975,9.8662,0.0054,-0.0043,9.8066,0.0127,-0.0071,-0.0258,17.56,-42.87,-1.62,65.39,-87.28,143.14
53.05122,-1.757876,264.18,6.42,3,275.9,22 / 22,989315,2019-11-06 12:58:51:023,-0.2087,0.4451,9.8827,0.0055,-0.0071,9.8066,0.0082,-0.0424,-0.0015,17.44,-42.75,-1.56,63.21,-87.34,140.48
53.05122,-1.757876,264.18,6.42,3,275.9,22 / 22,989415,2019-11-06 12:58:51:123,-0.1064,-0.0043,9.9037,0.0093,0.0049,9.8066,0.0257,0.0097,-0.0235,17.75,-42.69,-1.37,57.8,-87.38,139.3
53.05122,-1.757876,264.18,6.42,3,275.9,22 / 22,989515,2019-11-06 12:58:51:223,-0.1632,-0.2003,9.7692,0.0034,0.0012,9.8066,-0.0133,-0.0246,0.0003,17.81,-41.81,-1.06,56.53,-87.5,138.46
53.05122,-1.757876,264.18,6.42,3,275.9,22 / 22,989615,2019-11-06 12:58:51:323,-0.5152,0.0903,9.8632,0.0057,0.008,9.8066,0.0095,0.0005,-0.0165,17.38,-42.31,-1.44,56.13,-87.66,137.94
53.05122,-1.757876,264.18,6.42,3,275.9,22 / 22,989714,2019-11-06 12:58:51:422,-0.4339,0.0513,9.8774,0.0059,0.0028,9.8066,0.0055,-0.021,-0.0146,17.25,-42.87,-1.31,55.06,-87.73,136.97
53.05122,-1.757876,264.18,6.42,3,275.9,22 / 22,989814,2019-11-06 12:58:51:522,-0.3877,0.5995,9.8079,0.0081,0.0064,9.8065,0.0067,-0.0117,-0.0219,18.13,-41.75,-1.12,52.72,-87.8,135.43
53.05122,-1.757876,264.18,6.42,3,275.9,22 / 22,989914,2019-11-06 12:58:51:622,-0.5893,0.2931,9.7704,0.0091,0.0012,9.8066,0.009,-0.0043,-0.0339,17.63,-42.25,-1.62,53.81,-87.92,133.55
53.05122,-1.757876,264.18,6.42,3,275.9,22 / 22,990014,2019-11-06 12:58:51:722,-0.49,0.3689,9.7767,0.0089,0.0052,9.8066,0.0014,-0.0245,-0.0195,16.94,-42.5,-0.81,48.73,-87.96,131.55
53.05122,-1.757876,264.18,6.42,3,275.9,22 / 22,990114,2019-11-06 12:58:51:822,-0.6016,0.1796,9.8368,0.0087,0.0019,9.8066,-0.0111,-0.0395,-0.0067,17.38,-43.19,-0.75,45.7,-88.09,128.87
53.05122,-1.757876,264.18,6.42,3,275.9,22 / 22,990214,2019-11-06 12:58:51:922,-0.4889,0.5396,9.9218,0.0081,0.0023,9.8066,-0.0032,-0.06,-0.0051,17.38,-42.62,-0.75,41.61,-88.22,125.25
53.05122,-1.757876,264.18,6.42,3,275.9,22 / 22,990314,2019-11-06 12:58:52:022,-0.6102,0.0813,9.8282,0.0118,0.0022,9.8066,-0.0038,-0.0396,-0.0248,17.31,-42.31,-0.94,37.77,-88.29,121.8
53.05122,-1.757876,264.18,6.42,3,275.9,22 / 22,990414,2019-11-06 12:58:52:122,-0.5143,0.5635,9.898,0.0144,0.0008,9.8066,0.0046,-0.0806,-0.0093,16.69,-42.19,-1.44,34.08,-88.34,118.41
53.05122,-1.757876,264.18,6.42,3,275.9,20 / 22,990514,2019-11-06 12:58:52:222,-0.7467,0.0473,9.768,0.009,0.0061,9.8066,-0.0278,-0.0525,-0.0286,17.13,-41.69,-2.12,30.99,-88.44,112.3
53.05122,-1.757876,264.18,6.42,3,275.9,20 / 22,990614,2019-11-06 12:58:52:322,-0.8994,0.4512,9.6673,0.0114,0.0073,9.8066,-0.0237,-0.1285,0.0208,17.31,-41.69,-1.62,25.06,-88.52,106.81
53.05122,-1.757876,264.18,6.42,3,275.9,20 / 22,990714,2019-11-06 12:58:52:422,-1.0887,0.4198,9.6029,0.0156,0.0109,9.8066,-0.0203,-0.1507,0.03,17.13,-42.5,-1.69,17.16,-88.74,99.53
53.05122,-1.757876,264.18,6.42,3,275.9,20 / 22,990814,2019-11-06 12:58:52:522,-0.3381,0.8079,9.8823,0.0131,0.0068,9.8066,-0.0175,-0.1841,0.029,16.81,-42.87,-2.94,8.67,-88.97,88.27
53.05122,-1.757876,264.18,6.42,3,275.9,20 / 22,990915,2019-11-06 12:58:52:623,-1.6876,0.8822,10.0636,0.0093,0.0067,9.8066,0.0003,-0.1916,0.024,16.5,-43.25,-3.19,1.47,-89.08,81.4
53.05122,-1.757876,264.18,6.42,3,275.9,20 / 22,991014,2019-11-06 12:58:52:722,-1.2703,1.0377,9.9911,-0.006,0.0101,9.8066,-0.0261,-0.225,-0.0042,17.06,-43.25,-3.5,355.89,-89.19,76.02
53.05122,-1.757876,264.18,6.42,3,275.9,20 / 22,991114,2019-11-06 12:58:52:822,-0.9214,1.5511,10.2954,-0.0174,-0.0042,9.8066,0.04,-0.2377,0.0011,16.88,-42.69,-4.56,5.52,-89.26,78.96
53.05122,-1.757876,264.18,6.42,3,275.9,20 / 22,991215,2019-11-06 12:58:52:923,-1.4703,0.9318,9.7438,-0.0061,-0.0134,9.8066,0.0169,-0.2296,-0.0431,17.06,-42.25,-4.87,3.5,-89.12,76.99
53.05122,-1.757876,264.18,6.42,3,275.9,20 / 22,991314,2019-11-06 12:58:53:022,-3.3048,1.1075,9.3443,-0.0092,-0.0059,9.8066,0.056,-0.2932,0.0074,16.94,-42,-4.94,12.84,-88.95,85.9
53.05122,-1.757876,264.18,6.42,3,275.9,20 / 22,991414,2019-11-06 12:58:53:122,-1.1329,0.8227,10.1022,0.0101,0.0082,9.8066,0.0165,-0.2592,-0.0418,16.38,-41.81,-5.81,18.75,-89.02,87.42
53.05122,-1.757876,264.18,6.42,3,275.9,22 / 22,991514,2019-11-06 12:58:53:222,-1.508,1.4657,9.9334,-0.0007,0.0073,9.8066,0.0161,-0.2732,0.0272,16.31,-42.12,-6.31,17.11,-89.07,85.88
53.05122,-1.757876,264.18,6.42,3,275.9,22 / 22,991614,2019-11-06 12:58:53:322,-0.8763,2.0141,10.3131,0.004,0.0039,9.8066,-0.0715,-0.2675,-0.0197,15.5,-42.87,-6.75,27.11,-89.19,92.58
53.05122,-1.757876,264.18,6.42,3,275.9,22 / 22,991714,2019-11-06 12:58:53:422,-0.991,0.7255,9.6253,0.0196,0.0119,9.8065,-0.035,-0.2409,-0.0728,15.75,-42.56,-7.87,11.87,-89.25,74.93
53.05122,-1.757876,264.18,6.42,3,275.9,22 / 22,991814,2019-11-06 12:58:53:522,0.2655,1.3558,9.2926,0.0182,0.0058,9.8066,0.0126,-0.2993,-0.0316,15.81,-42.69,-8.87,7.67,-89.22,68.06
53.05122,-1.757876,264.18,6.42,3,275.9,22 / 22,991914,2019-11-06 12:58:53:622,0.1042,0.1193,9.3853,0.0024,0.0163,9.8066,0.0003,-0.2122,-0.0223,15.56,-42.87,-9.19,0.4,-89.28,61.03
53.05122,-1.757876,264.18,6.42,3,275.9,22 / 22,992014,2019-11-06 12:58:53:722,0.7232,1.0755,9.908,-0.0067,0.0163,9.8066,0.0301,-0.3609,0.0556,14.94,-42.12,-9.56,15.96,-89.53,71.97
53.05122,-1.757876,264.18,6.42,3,275.9,22 / 22,992114,2019-11-06 12:58:53:822,0.2971,-0.7119,10.7886,0.0031,0.0216,9.8065,0.0269,-0.1425,-0.0924,15.13,-41.37,-9.94,39.41,-89.68,95.26
53.05122,-1.757876,264.18,6.42,3,275.9,22 / 22,992215,2019-11-06 12:58:53:923,0.2226,0.0594,9.8507,0.0016,-0.0164,9.8065,0.0235,-0.3652,0.0116,14,-41.69,-9.69,43.29,-89.52,96.94
53.05122,-1.757876,264.18,6.42,3,275.9,22 / 22,992315,2019-11-06 12:58:54:023,-0.1538,-1.1439,9.4584,0.003,0.0219,9.8066,0.0188,-0.2159,-0.0128,13.63,-42.75,-11.06,45.53,-89.46,96.44
53.05122,-1.757876,264.18,6.42,3,275.9,22 / 22,992415,2019-11-06 12:58:54:123,-0.6742,0.5389,9.4488,-0.0057,-0.0058,9.8066,0.01,-0.4431,0.1171,13.94,-42.75,-10.94,56.61,-89.46,107.36
53.05122,-1.757876,264.18,6.42,3,275.9,20 / 22,992515,2019-11-06 12:58:54:223,1.3032,0.6512,10.1838,0.0204,0.0155,9.8065,0.0022,-0.2734,0.0425,13.31,-42.25,-11.19,64.08,-89.67,113.11
53.05122,-1.757876,264.18,6.42,3,275.9,20 / 22,992615,2019-11-06 12:58:54:323,1.148,1.1137,10.3281,0.0034,-0.0128,9.8066,-0.0069,-0.4083,0.1161,12.63,-43.37,-11.25,40.51,-89.83,90
53.05122,-1.757876,264.18,6.42,3,275.9,20 / 22,992714,2019-11-06 12:58:54:422,0.9981,0.8618,9.9506,0.003,-0.0032,9.8066,-0.0111,-0.3478,0.0473,12.88,-42,-12.06,354.89,-89.92,42.19
53.05122,-1.757876,264.18,6.42,3,275.9,20 / 22,992814,2019-11-06 12:58:54:522,-0.9236,-0.1793,9.8389,-0.013,-0.0064,9.8066,0.0238,-0.3242,0.0652,11.81,-42.31,-11.62,310.45,-89.95,-4.45
53.05122,-1.757876,264.18,6.42,3,275.9,20 / 22,992914,2019-11-06 12:58:54:622,-0.0911,1.2291,9.9354,-0.0101,0.006,9.8066,0.0524,-0.401,0.0789,11.69,-42.37,-12.12,156.22,-89.88,-158.9
53.05122,-1.757876,264.18,6.42,3,275.9,20 / 22,993014,2019-11-06 12:58:54:722,-1.1258,0.1843,9.4482,-0.0011,0.0083,9.8066,0.046,-0.2866,0.06,11.5,-43,-12.5,170.42,-89.6,-144.75
53.05122,-1.757876,264.18,6.42,3,275.9,20 / 22,993114,2019-11-06 12:58:54:822,-0.0536,1.2141,9.7899,-0.0006,-0.0015,9.8066,0.0006,-0.3732,0.0629,11.06,-42.31,-12.44,181.79,-89.38,-135.65
53.05122,-1.757876,264.18,6.42,3,275.9,20 / 22,993214,2019-11-06 12:58:54:922,-1.2996,0.4375,9.615,0.0045,-0.0008,9.8066,-0.0298,-0.2203,0.002,10.38,-43.25,-13.31,199.51,-89.39,-122.38
53.05122,-1.757876,264.18,6.42,3,275.9,20 / 22,993314,2019-11-06 12:58:55:022,0.607,1.0488,9.9164,-0.0039,-0.0061,9.8066,0.0012,-0.3207,0.0411,10.31,-43.19,-13.5,206.2,-89.33,-115.46
53.05122,-1.757876,264.18,6.42,3,275.9,20 / 22,993414,2019-11-06 12:58:55:122,-0.792,0.6524,9.8574,0.0162,0.014,9.8066,0.0154,-0.2058,-0.0658,10.5,-43.37,-13.62,203.36,-89.29,-117.8
53.05122,-1.757876,264.18,6.42,3,275.9,20 / 21,993515,2019-11-06 12:58:55:223,-0.1928,0.6799,9.9788,-0.001,0.002,9.8066,-0.0128,-0.2557,0.0959,9.5,-42.56,-14.37,208.69,-89.07,-114.66
53.05122,-1.757876,264.18,6.42,3,275.9,20 / 21,993614,2019-11-06 12:58:55:322,-0.0142,0.9941,9.8506,0.0201,0.0122,9.8065,-0.0453,-0.2374,0.0232,8.38,-42.62,-14.5,219.63,-88.72,-108.45
53.05122,-1.757876,264.18,6.42,3,275.9,20 / 21,993714,2019-11-06 12:58:55:422,-0.0875,1.1018,9.8373,0.0216,0.0122,9.8065,-0.01,-0.2618,0.0283,8.31,-42.94,-14.5,221.51,-88.55,-106.19
53.05122,-1.757876,264.18,6.42,3,275.9,20 / 21,993814,2019-11-06 12:58:55:522,0.9747,0.8702,9.7036,0.0219,-0.0061,9.8065,0.0038,-0.2461,0.0184,7.69,-42.5,-14.56,222.73,-88.36,-106.46
53.05122,-1.757876,264.18,6.42,3,275.9,20 / 21,993915,2019-11-06 12:58:55:623,0.5365,1.123,10.2801,0.008,0.0062,9.8066,-0.041,-0.2897,-0.0093,8.31,-42.87,-14.75,224.91,-88.24,-103.89
53.05122,-1.757876,264.18,6.42,3,275.9,20 / 21,994015,2019-11-06 12:58:55:723,-0.2178,1.9167,9.9894,-0.0125,0.0014,9.8066,-0.0225,-0.2703,-0.0123,6.69,-42.31,-15.94,227.26,-88.21,-105.96
53.05122,-1.757876,264.18,6.42,3,275.9,20 / 21,994115,2019-11-06 12:58:55:823,-0.1711,2.0011,9.7656,-0.0131,0.0192,9.8065,0.0278,-0.2877,-0.0308,6.13,-42.37,-15.87,222.91,-88.29,-113.68
53.05122,-1.757876,264.18,6.42,3,275.9,20 / 21,994214,2019-11-06 12:58:55:922,-0.6312,1.2202,9.7039,-0.0151,0.0088,9.8066,0.0595,-0.3431,-0.0375,6.13,-42.56,-16.25,216.04,-88.41,-121.06
53.05122,-1.757876,264.18,6.42,3,275.9,20 / 21,994314,2019-11-06 12:58:56:022,0.3937,0.4089,9.858,-0.0102,-0.0072,9.8066,0.0583,-0.3254,0.0243,5.06,-42.56,-16.06,214.17,-88.41,-126.19
53.05122,-1.757876,264.18,6.42,3,275.9,20 / 21,994414,2019-11-06 12:58:56:122,0.5614,-0.334,10.0404,0.0016,0.0058,9.8066,-0.0059,-0.2501,-0.0134,5.56,-42,-16.56,206.43,-88.28,-132.35
53.051308,-1.758184,264.45,3.46,3,353.49,19 / 21,994514,2019-11-06 12:58:56:222,1.1286,0.3517,10.2792,-0.0048,0.0178,9.8066,-0.005,-0.235,-0.0232,4.75,-42.81,-16.56,206.15,-88.15,-135.5
53.051308,-1.758184,264.45,3.46,3,353.49,19 / 21,994614,2019-11-06 12:58:56:322,0.5621,-0.2164,9.7539,-0.0143,-0.0018,9.8066,0.0163,-0.1667,-0.0301,4.63,-42.69,-16.44,200.77,-88.21,-140.26
53.051308,-1.758184,264.45,3.46,3,353.49,19 / 21,994714,2019-11-06 12:58:56:422,-1.3092,-0.1622,9.487,-0.0224,-0.0202,9.8066,-0.0264,-0.1077,-0.0952,4.69,-43.31,-16.44,196.38,-88.19,-144.97
53.051308,-1.758184,264.45,3.46,3,353.49,19 / 21,994814,2019-11-06 12:58:56:522,0.1915,-0.5224,10.0584,-0.0087,-0.009,9.8065,-0.0113,-0.1741,0.0038,4.31,-43.37,-16.62,197.39,-88.39,-148.19
53.051308,-1.758184,264.45,3.46,3,353.49,19 / 21,994914,2019-11-06 12:58:56:622,-0.9713,-0.5801,9.8043,0.0042,-0.0046,9.8066,-0.0348,-0.1042,-0.0283,4.13,-42.37,-17.25,201.76,-88.39,-143.58
53.051308,-1.758184,264.45,3.46,3,353.49,19 / 21,995015,2019-11-06 12:58:56:723,0.8174,0.0513,10.3762,0.0089,0.005,9.8066,-0.0072,-0.1942,0.0381,3.19,-43.25,-17.5,211.74,-88.23,-135.95
53.051308,-1.758184,264.45,3.46,3,353.49,19 / 21,995115,2019-11-06 12:58:56:823,0.0933,-0.3795,10.1091,0.0063,0.0109,9.8066,0.0166,-0.1375,-0.0229,2.88,-42.75,-18,213.34,-88.1,-134.75
53.051308,-1.758184,264.45,3.46,3,353.49,19 / 21,995215,2019-11-06 12:58:56:923,0.4954,-0.2057,9.3478,-0.0137,0.0044,9.8065,0.0128,-0.1686,-0.0428,2.56,-42.19,-16.87,211.24,-88.05,-136.31
53.051308,-1.758184,264.45,3.46,3,353.49,19 / 21,995315,2019-11-06 12:58:57:023,-1.1566,0.0816,9.7536,-0.0184,0.0106,9.8066,0.03,-0.1326,-0.0449,2.31,-41.75,-17.37,209.3,-88.16,-141.79
53.051308,-1.758184,264.45,3.46,3,353.49,19 / 21,995415,2019-11-06 12:58:57:123,-0.2511,-0.5175,10.1291,-0.0117,0.0085,9.8066,0.0417,-0.1917,0.0384,2.75,-42.25,-17.69,200.86,-88.12,-148.15
53.051308,-1.758184,264.45,3.46,3,353.49,18 / 20,995514,2019-11-06 12:58:57:222,-0.3484,-0.0551,9.8525,0.0057,0.0208,9.8066,0.0443,-0.1182,0.0035,1.81,-42.94,-17.06,201.03,-87.93,-150.4
53.051308,-1.758184,264.45,3.46,3,353.49,18 / 20,995614,2019-11-06 12:58:57:322,-0.0698,-0.4372,9.715,-0.0014,0.0111,9.8066,0.0338,-0.2278,0.058,2,-43.37,-17,199.22,-87.72,-152.2
53.051308,-1.758184,264.45,3.46,3,353.49,18 / 20,995714,2019-11-06 12:58:57:422,0.6811,0.7748,9.5482,0.0047,0.0053,9.8066,-0.0006,-0.1729,0.0237,1.5,-43,-17.31,199.2,-87.63,-152.15
53.051308,-1.758184,264.45,3.46,3,353.49,18 / 20,995814,2019-11-06 12:58:57:522,-0.1473,-0.23,9.8268,0.003,-0.0086,9.8066,-0.0406,-0.194,0.0662,0.88,-42.87,-17.75,201.86,-87.79,-153.01
53.051308,-1.758184,264.45,3.46,3,353.49,18 / 20,995914,2019-11-06 12:58:57:622,0.435,-0.7005,9.9468,0.0059,-0.0025,9.8066,0.0023,-0.1597,0.0203,1.5,-42.62,-17.31,200.41,-87.95,-151.09
53.051308,-1.758184,264.45,3.46,3,353.49,18 / 20,996014,2019-11-06 12:58:57:722,-0.5719,-0.8014,10.225,-0.0042,-0.0002,9.8066,0.0109,-0.1138,-0.0167,1.31,-42.56,-17.19,202.6,-88.04,-152.14
53.051308,-1.758184,264.45,3.46,3,353.49,18 / 20,996114,2019-11-06 12:58:57:822,0.2554,0.3951,9.8431,-0.0056,0.0009,9.8066,0.0074,-0.1475,-0.0113,0.88,-42.44,-17.5,197.45,-88.12,-157.8
53.051308,-1.758184,264.45,3.46,3,353.49,18 / 20,996214,2019-11-06 12:58:57:922,-1.1089,-0.8028,9.8022,-0.0115,-0.0075,9.8066,0.0056,-0.1453,-0.0604,1.19,-43.5,-17.81,192.82,-88.31,-163.12
53.051308,-1.758184,264.45,3.46,3,353.49,18 / 20,996314,2019-11-06 12:58:58:022,0.0641,-0.2426,9.6182,0.0049,0.0059,9.8065,-0.0447,-0.1887,0.1152,0.63,-42.75,-18.62,191.12,-88.5,-165.22
53.051308,-1.758184,264.45,3.46,3,353.49,18 / 20,996414,2019-11-06 12:58:58:122,-0.3664,-0.9656,9.1773,0.0242,0.004,9.8065,-0.0491,-0.0834,0.0668,0.5,-42.62,-17.87,191.83,-88.44,-164.23
53.051308,-1.758184,264.45,3.46,3,353.49,18 / 20,996514,2019-11-06 12:58:58:222,-0.2268,0.0766,9.9524,-0.0035,0.0143,9.8065,0.0862,-0.1012,-0.0138,0.31,-43.37,-17.5,194.97,-88.33,-163.94
53.051308,-1.758184,264.45,3.46,3,353.49,18 / 20,996614,2019-11-06 12:58:58:322,0.09,0.0879,9.6973,-0.0128,0.0062,9.8066,0.0588,-0.116,-0.0478,0.88,-43.37,-16.94,188.15,-88.26,-167.86
53.051308,-1.758184,264.45,3.46,3,353.49,18 / 20,996714,2019-11-06 12:58:58:422,-0.3685,-0.1856,10.011,-0.0253,-0.0042,9.8065,-0.0716,-0.0244,-0.0448,0.94,-43.06,-17.87,175.47,-88.23,178.32
53.051308,-1.758184,264.45,3.46,3,353.49,18 / 20,996814,2019-11-06 12:58:58:522,-1.7708,-0.3993,9.2604,-0.0339,-0.0206,9.8065,-0.015,-0.1694,-0.0178,0.94,-42.81,-18.06,163.78,-88.19,165.76
53.051308,-1.758184,264.45,3.46,3,353.49,18 / 20,996914,2019-11-06 12:58:58:622,-0.6634,-0.1328,10.2729,0.0143,0.0063,9.8066,0.0691,-0.1381,0.0502,0.75,-42.12,-17.81,157.78,-88.25,159.43
53.051308,-1.758184,264.45,3.46,3,353.49,18 / 20,997014,2019-11-06 12:58:58:722,-1.0435,0.5126,9.9208,0.0125,-0.0006,9.8066,0.0117,-0.1651,0.0271,0.25,-41.94,-17,167.07,-88.28,166.12
53.051308,-1.758184,264.45,3.46,3,353.49,18 / 20,997114,2019-11-06 12:58:58:822,0.9143,0.2312,9.6162,0.0229,-0.0034,9.8066,-0.0495,-0.0776,0.135,0.13,-43.37,-18,175.77,-88.38,175.49
53.051308,-1.758184,264.45,3.46,3,353.49,18 / 20,997214,2019-11-06 12:58:58:922,-0.3729,0.8209,10.4064,0.0177,-0.006,9.8066,-0.0488,-0.0653,0.1034,-0.31,-43.75,-18,181.95,-88.47,-177.92
53.051308,-1.758184,264.45,3.46,3,353.49,18 / 20,997315,2019-11-06 12:58:59:023,-0.4149,0.3757,9.8765,0.0197,0.0124,9.8066,0.0468,-0.116,0.0383,-0.06,-43.44,-17.44,189.64,-88.32,-169.65
53.051308,-1.758184,264.45,3.46,3,353.49,18 / 20,997414,2019-11-06 12:58:59:122,-1.9266,-0.3827,9.049,0.0308,0.0073,9.8066,0.059,0.0538,0.0598,-0.5,-42.31,-18.37,198.11,-88.21,-160.6
53.051308,-1.758184,264.45,3.46,3,353.49,19 / 19,997514,2019-11-06 12:58:59:222,-1.6195,-1.2813,10.7254,-0.008,-0.0101,9.8066,0.0109,0.0547,-0.0227,-1,-41.81,-17,210.83,-87.76,-149.72
53.051308,-1.758184,264.45,3.46,3,353.49,19 / 19,997615,2019-11-06 12:58:59:323,0.3908,3.1714,10.5977,0.0021,0.0171,9.8066,0.1469,0.0617,0.0419,-1.31,-42.25,-17.37,213.94,-87.59,-146.13
53.051308,-1.758184,264.45,3.46,3,353.49,19 / 19,997714,2019-11-06 12:58:59:422,-1.4931,2.0557,8.7252,-0.0119,0.012,9.8066,-0.0412,0.1211,-0.0879,-1,-43.12,-17.19,212.72,-87.18,-146.83
53.051308,-1.758184,264.45,3.46,3,353.49,19 / 19,997815,2019-11-06 12:58:59:523,-0.0978,1.075,10.0471,-0.0473,0.0253,9.8065,-0.0186,0.0042,0.0328,-1.44,-42.69,-16.81,204.9,-86.93,-155.22
53.051308,-1.758184,264.45,3.46,3,353.49,19 / 19,997914,2019-11-06 12:58:59:622,-4.8406,3.5746,8.4497,0.0187,-0.0005,9.8066,-0.029,0.213,-0.0774,-1.5,-42.44,-17,204.04,-86.93,-156.27
53.051308,-1.758184,264.45,3.46,3,353.49,19 / 19,998014,2019-11-06 12:58:59:722,-1.7414,-1.9333,10.1531,0.0495,-0.0131,9.8065,0.1239,-0.1975,0.1782,-2.06,-43.12,-16.62,217.84,-86.69,-143.8
53.051308,-1.758184,264.45,3.46,3,353.49,19 / 19,998114,2019-11-06 12:58:59:822,0.8136,0.8304,10.6247,0.0748,-0.0027,9.8063,-0.0315,-0.0612,0.2074,-2.25,-42.81,-16.37,222.86,-86.1,-137.24
53.051308,-1.758184,264.45,3.46,3,353.49,19 / 19,998214,2019-11-06 12:58:59:922,2.1123,0.4728,10.3225,0.0447,-0.0227,9.8065,-0.0326,-0.0933,0.1247,-3.37,-42.87,-17.37,233.81,-85.43,-127.05
53.051308,-1.758184,264.45,3.46,3,353.49,19 / 19,998314,2019-11-06 12:59:00:022,1.3403,1.3454,10.4255,0.0005,0.0247,9.8066,0.0631,-0.0884,-0.0196,-3.06,-42.12,-16.37,235.01,-85.49,-126.1
53.051308,-1.758184,264.45,3.46,3,353.49,19 / 19,998415,2019-11-06 12:59:00:123,-2.3067,0.7451,9.1048,-0.0329,-0.0081,9.8066,0.1125,-0.1837,0.0265,-2.56,-42.69,-17.12,231.79,-85.87,-130.17
53.051308,-1.758184,264.45,3.46,3,353.49,19 / 20,998514,2019-11-06 12:59:00:222,3.6087,-0.0958,10.5564,-0.0036,0.056,9.8065,0.0496,-0.2708,0.0395,-2,-43.62,-17.12,221.41,-86.02,-138.59
53.051308,-1.758184,264.45,3.46,3,353.49,19 / 20,998615,2019-11-06 12:59:00:323,-1.0151,0.9762,8.7191,-0.0046,0.0228,9.8066,-0.0567,-0.2375,0.3601,-2.31,-42.56,-16.69,209.03,-85.87,-152.71
53.051308,-1.758184,264.45,3.46,3,353.49,19 / 20,998715,2019-11-06 12:59:00:423,2.6233,0.4558,10.4691,0.0776,-0.0068,9.8063,-0.0077,-0.3826,0.2375,-1.75,-43.06,-16.12,211.68,-85.64,-149.4
53.051308,-1.758184,264.45,3.46,3,353.49,19 / 20,998814,2019-11-06 12:59:00:522,-0.1108,3.3577,10.8773,0.0349,0.0322,9.8064,-0.0159,0.096,-0.0263,-2.44,-43,-16.31,216.43,-85.27,-143.27
53.051308,-1.758184,264.45,3.46,3,353.49,19 / 20,998915,2019-11-06 12:59:00:623,1.6199,1.1583,10.2604,-0.0256,0.0226,9.8065,0.1103,-0.0743,0.0249,-1.94,-42.31,-16.25,213.47,-85.18,-146.81
53.051308,-1.758184,264.45,3.46,3,353.49,19 / 20,999014,2019-11-06 12:59:00:722,-4.0844,0.9023,7.8198,-0.0533,0.0236,9.8065,-0.1451,0.3743,-0.2245,-0.81,-42.75,-16.25,203.55,-85.48,-155.24
53.051308,-1.758184,264.45,3.46,3,353.49,19 / 20,999114,2019-11-06 12:59:00:822,-6.5682,-0.9179,8.7342,-0.0659,-0.0339,9.8064,-0.064,0.2079,-0.112,-1,-43,-16.37,200.96,-85.6,-158.44
53.051308,-1.758184,264.45,3.46,3,353.49,19 / 20,999214,2019-11-06 12:59:00:922,1.7988,-0.3446,8.5483,-0.0353,0.0165,9.8065,-0.1279,0.4113,0.0193,-1.12,-42.12,-16.56,197.13,-85.58,-163.07
53.051308,-1.758184,264.45,3.46,3,353.49,19 / 20,999314,2019-11-06 12:59:01:022,-3.1301,0.7513,10.3978,-0.0377,0.0065,9.8065,0.0775,0.3042,-0.4254,-1,-42.87,-15.87,198.3,-85.53,-161.57
53.051308,-1.758184,264.45,3.46,3,353.49,19 / 20,999414,2019-11-06 12:59:01:122,-0.0623,0.106,8.1865,-0.0205,0.0178,9.8065,0.1556,0.0797,-0.0128,-1.56,-42.62,-16.75,200.4,-85.44,-162.37
53.051308,-1.758184,264.45,3.46,3,353.49,19 / 19,999514,2019-11-06 12:59:01:222,-2.7472,2.2449,9.4043,0.0079,0.0421,9.8065,0.0135,0.2389,-0.1917,-1,-43.19,-16.31,196.36,-85.17,-163.62
53.051308,-1.758184,264.45,3.46,3,353.49,19 / 19,999614,2019-11-06 12:59:01:322,2.3356,1.4636,10.4171,-0.0255,-0.0525,9.8065,-0.1574,0.0022,0.1169,-0.87,-42.81,-16.25,198.08,-85.37,-161.69
53.051308,-1.758184,264.45,3.46,3,353.49,19 / 19,999715,2019-11-06 12:59:01:423,0.4392,-1.5287,9.2052,0.02,-0.0676,9.8063,-0.1706,0.4198,-0.2305,-1,-43.62,-16.94,197.92,-85.31,-161.77
53.051308,-1.758184,264.45,3.46,3,353.49,19 / 19,999814,2019-11-06 12:59:01:522,1.166,-1.0676,9.7729,-0.066,-0.0197,9.8063,-0.0214,-0.1318,-0.01,-1.12,-42.19,-17.25,198.82,-86.01,-161.42
53.051308,-1.758184,264.45,3.46,3,353.49,19 / 19,999915,2019-11-06 12:59:01:623,-2.0319,-0.9255,9.8136,0.0041,0.0167,9.8066,0.0225,0.0767,-0.0819,-0.94,-43.19,-16.75,198.96,-86.21,-161.33
53.051308,-1.758184,264.45,3.46,3,353.49,19 / 19,1000014,2019-11-06 12:59:01:722,-1.3988,-0.9771,9.8865,-0.0125,-0.0118,9.8066,0.0107,0.0142,-0.0112,-1.12,-43,-17,200.77,-86.21,-159.24
53.051308,-1.758184,264.45,3.46,3,353.49,19 / 19,1000115,2019-11-06 12:59:01:823,-0.5013,-0.4511,9.855,-0.0042,-0.0025,9.8066,0.0907,0.2147,-0.0481,-1.12,-43.06,-17,201.02,-85.66,-158.47
53.051308,-1.758184,264.45,3.46,3,353.49,19 / 19,1000215,2019-11-06 12:59:01:923,2.7431,-0.3311,10.6459,-0.047,0.025,9.8065,0.0591,0.0602,0.0188,-1.25,-43.25,-16.44,197.92,-85.61,-162.08
53.051308,-1.758184,264.45,3.46,3,353.49,19 / 19,1000315,2019-11-06 12:59:02:023,-1.8765,-2.1912,9.1237,-0.0408,0.034,9.8064,0.0614,0.1454,-0.1923,-0.87,-42.69,-17.31,202.08,-85.62,-157.18
53.051308,-1.758184,264.45,3.46,3,353.49,19 / 19,1000414,2019-11-06 12:59:02:122,-1.7071,0.2528,9.5317,-0.0036,-0.0161,9.8065,-0.0228,0.0235,-0.0944,-1.75,-43.19,-17.19,203.76,-85.45,-158.4
53.051308,-1.758184,264.45,3.46,3,353.49,20 / 21,1000515,2019-11-06 12:59:02:223,-0.8293,-1.7016,9.3262,-0.0021,-0.0078,9.8066,0.001,-0.1305,0.1483,-1.12,-42.94,-16.56,199.35,-85.41,-160.24
53.051308,-1.758184,264.45,3.46,3,353.49,20 / 21,1000615,2019-11-06 12:59:02:323,-2.1882,-0.4117,9.623,-0.0152,0.0077,9.8066,-0.0721,-0.0165,-0.0133,-1.06,-43.06,-16.62,194.66,-85.38,-165.79
53.051308,-1.758184,264.45,3.46,3,353.49,20 / 21,1000715,2019-11-06 12:59:02:423,3.2425,-0.7277,10.2334,-0.0036,-0.0016,9.8066,0.0873,-0.4154,0.3053,-1.25,-42.75,-16.87,196.7,-85.08,-163.16
53.051308,-1.758184,264.45,3.46,3,353.49,20 / 21,1000815,2019-11-06 12:59:02:523,-4.0627,-0.8044,7.9969,0.0936,0.0346,9.8061,0.2299,-0.1177,0.1295,-1.56,-43.37,-16.06,200.36,-84.6,-161.84
53.051308,-1.758184,264.45,3.46,3,353.49,20 / 21,1000915,2019-11-06 12:59:02:623,4.8312,-0.2827,9.882,0.0157,-0.0244,9.8065,-0.1273,-0.5195,0.3006,-1.5,-43.06,-16.75,196.59,-84.2,-162.68
53.051308,-1.758184,264.45,3.46,3,353.49,20 / 21,1001014,2019-11-06 12:59:02:722,-4.8324,0.0951,10.4747,0.0625,-0.0048,9.8064,-0.0935,-0.022,0.037,-1.37,-42.81,-16.5,197.15,-84.11,-161.85
53.051308,-1.758184,264.45,3.46,3,353.49,20 / 21,1001114,2019-11-06 12:59:02:822,0.9624,1.2545,8.9984,0.001,-0.0224,9.8065,0.0867,-0.4525,0.2066,-1.75,-42.75,-16.81,197.16,-84.15,-165.31
53.051308,-1.758184,264.45,3.46,3,353.49,20 / 21,1001214,2019-11-06 12:59:02:922,-1.7008,1.2296,9.8625,0.0374,0.0145,9.8065,0.0796,-0.1587,0.0806,-1.44,-42.44,-17,192.93,-84.02,-167.21
53.051308,-1.758184,264.45,3.46,3,353.49,20 / 21,1001314,2019-11-06 12:59:03:022,-0.8626,0.1839,9.2731,-0.0285,0.0273,9.8065,0.0391,-0.0693,-0.0435,-1.69,-43.06,-16.12,194.96,-83.91,-168.05
53.051308,-1.758184,264.45,3.46,3,353.49,20 / 21,1001414,2019-11-06 12:59:03:122,5.281,-0.1449,10.9679,-0.0284,-0.003,9.8066,0.046,0.4883,-0.4184,-1.25,-43.62,-16.62,190.22,-83.55,-170.25
53.051308,-1.758184,264.45,3.46,3,353.49,20 / 21,1001514,2019-11-06 12:59:03:222,-0.2064,-0.8477,10.1139,-0.0528,-0.0167,9.8065,-0.1653,0.5842,-0.14,-1.69,-42.94,-16.56,194.71,-82.9,-167.58
53.051308,-1.758184,264.45,3.46,3,353.49,20 / 21,1001614,2019-11-06 12:59:03:322,10.796,1.4564,10.3152,-0.0466,-0.0045,9.8065,-0.3149,0.6143,-0.1908,-2.25,-42.5,-16.19,193.2,-82.82,-169.77
53.051308,-1.758184,264.45,3.46,3,353.49,20 / 21,1001714,2019-11-06 12:59:03:422,-1.8188,0.3488,11.2019,-0.0709,-0.032,9.8063,0.0048,0.9928,-0.6456,-1.69,-43.62,-17,193.96,-83.18,-168.62
53.051308,-1.758184,264.45,3.46,3,353.49,20 / 21,1001814,2019-11-06 12:59:03:522,7.1692,1.4041,10.5981,-0.1396,-0.0166,9.8056,0.099,-0.248,0.0277,-2.25,-42.69,-16.5,191.71,-83.62,-172.03
53.051308,-1.758184,264.45,3.46,3,353.49,20 / 21,1001914,2019-11-06 12:59:03:622,-8.4895,-0.5258,8.3299,-0.011,0.0166,9.8066,-0.0686,0.8329,-0.4376,-1.87,-42.94,-16.56,192.08,-83.7,-171.39
53.051308,-1.758184,264.45,3.46,3,353.49,20 / 21,1002014,2019-11-06 12:59:03:722,-2.9543,0.9912,10.0709,-0.1029,-0.0283,9.806,0.0301,-0.8011,0.5935,-2.69,-42.81,-16.25,192.43,-83.41,-174.52
53.051308,-1.758184,264.45,3.46,3,353.49,20 / 21,1002114,2019-11-06 12:59:03:822,-6.6391,1.6556,10.3073,0.0711,-0.0184,9.8064,0.0101,0.2367,-0.1768,-2.75,-43,-16.25,195,-82.97,-170.92
53.051308,-1.758184,264.45,3.46,3,353.49,20 / 21,1002214,2019-11-06 12:59:03:922,4.0173,-1.0891,9.2624,-0.0592,-0.0047,9.8064,0.1756,-0.8022,0.6009,-3,-43.19,-16.5,195.48,-83.19,-170.45
53.051308,-1.758184,264.45,3.46,3,353.49,20 / 21,1002314,2019-11-06 12:59:04:022,6.7305,1.2796,12.3871,-0.0155,0.0497,9.8065,-0.0349,0.0925,-0.5437,-1.75,-42.87,-16.69,188.04,-83.23,-176.35
53.051308,-1.758184,264.45,3.46,3,353.49,20 / 21,1002414,2019-11-06 12:59:04:122,-4.8715,0.9878,7.6103,-0.0341,0.0022,9.8066,0.1165,-0.6191,0.2581,-2.06,-43.06,-16.37,183.66,-83.31,177.65
53.051308,-1.758184,264.45,3.46,3,353.49,20 / 21,1002514,2019-11-06 12:59:04:222,-7.0638,-2.9194,7.6153,0.0935,-0.0057,9.8061,-0.1445,0.0272,0.2344,-2.31,-43.12,-16.37,183.68,-83.48,177.64
53.051308,-1.758184,264.45,3.46,3,353.49,20 / 21,1002614,2019-11-06 12:59:04:322,1.685,0.3849,11.7062,0.0234,-0.0267,9.8065,-0.0918,-0.4029,0.3015,-2.87,-42.94,-16.37,189.29,-83.58,-178.65
53.051308,-1.758184,264.45,3.46,3,353.49,20 / 21,1002714,2019-11-06 12:59:04:422,6.5908,-1.2094,11.0247,0.0527,0.0086,9.8065,0.0979,-0.6482,0.4209,-3.12,-42.94,-16.75,188.25,-83.7,-179.56
53.051308,-1.758184,264.45,3.46,3,353.49,20 / 21,1002814,2019-11-06 12:59:04:522,6.1899,-1.2626,10.3236,0.0624,0.0323,9.8063,0.1312,-1.0186,0.7637,-2.37,-42.81,-16.37,185.55,-83.48,-179.93
53.051308,-1.758184,264.45,3.46,3,353.49,20 / 21,1002914,2019-11-06 12:59:04:622,11.0858,-0.4418,11.5933,0.1768,0.01,9.805,0.3887,-1.2116,0.616,-2.56,-42.87,-16.12,191.79,-82.95,-175.12
53.051308,-1.758184,264.45,3.46,3,353.49,20 / 21,1003014,2019-11-06 12:59:04:722,-11.9684,3.3369,9.6794,0.1363,0.0148,9.8056,0.0792,-1.1122,0.7356,-2.37,-42.81,-15.75,186.22,-82.92,-178.91
53.051308,-1.758184,264.45,3.46,3,353.49,20 / 21,1003114,2019-11-06 12:59:04:822,11.4013,-5.4617,9.9455,0.12,-0.0688,9.8056,-0.0737,-1.7889,0.9427,-2.94,-43.25,-15.12,185.36,-83.04,175.84
53.051308,-1.758184,264.45,3.46,3,353.49,20 / 21,1003214,2019-11-06 12:59:04:922,-8.2272,1.0996,10.7007,0.1428,-0.0363,9.8055,-0.0351,0.7027,-0.5571,-2.06,-43.19,-15.44,187.67,-83.59,-177.55
53.051308,-1.758184,264.45,3.46,3,353.49,20 / 21,1003314,2019-11-06 12:59:05:022,-4.3443,-1.1948,9.7956,-0.0552,0.0013,9.8064,0.0304,-0.6221,0.4707,-3.19,-42.69,-15.87,188.49,-83.52,-179.66
53.051308,-1.758184,264.45,3.46,3,353.49,20 / 21,1003415,2019-11-06 12:59:05:123,-6.7203,3.5128,9.1865,0.0518,0.0363,9.8064,-0.0195,1.0064,-0.6029,-2.94,-42.75,-15.19,188.33,-83.05,179.78
53.051735,-1.75806,265.62,8.64,3,16.8,19 / 21,1003514,2019-11-06 12:59:05:222,1.0162,-2.4722,8.3488,-0.0911,-0.0225,9.8062,0.0585,0.5991,-0.294,-3.25,-43.31,-15.37,188.05,-82.63,179.57
53.051735,-1.75806,265.62,8.64,3,16.8,19 / 21,1003614,2019-11-06 12:59:05:322,1.3006,1.0437,10.381,-0.0391,0.0008,9.8065,0.0249,0.3315,-0.2114,-2.94,-43.19,-15.56,187.51,-82.96,179.26
53.051735,-1.75806,265.62,8.64,3,16.8,19 / 21,1003715,2019-11-06 12:59:05:423,-5.5183,-1.9547,10.1738,-0.0489,0.0223,9.8065,-0.0023,0.6886,-0.3199,-3.19,-43.62,-15.25,191.95,-83.12,-175.36
53.051735,-1.75806,265.62,8.64,3,16.8,19 / 21,1003816,2019-11-06 12:59:05:524,-0.5921,1.4705,10.902,-0.0777,-0.0341,9.8062,-0.1467,-0.3813,0.4602,-4.12,-43.56,-15.12,192.89,-83.12,-177.78
53.051735,-1.75806,265.62,8.64,3,16.8,19 / 21,1003914,2019-11-06 12:59:05:622,-4.74,2.2664,12.3327,0.0545,-0.0011,9.8064,0.254,0.3885,-0.4217,-4.37,-43.44,-14.5,195.61,-82.67,-174.64
53.051735,-1.75806,265.62,8.64,3,16.8,19 / 21,1004014,2019-11-06 12:59:05:722,2.4221,-1.9998,6.8004,-0.1086,0.0618,9.8058,0.2626,-0.4483,-0.0341,-3.87,-42.94,-15,194.19,-82.69,-175.89
53.051735,-1.75806,265.62,8.64,3,16.8,19 / 21,1004114,2019-11-06 12:59:05:822,-1.988,-1.5299,9.5819,0.0055,0.0571,9.8064,-0.0077,0.1783,-0.0505,-3.81,-43.19,-15.5,196.54,-83.36,-173.27
53.051735,-1.75806,265.62,8.64,3,16.8,19 / 21,1004214,2019-11-06 12:59:05:922,0.0951,-0.5465,12.0285,-0.029,-0.014,9.8065,-0.0625,-0.1642,0.0379,-4.19,-43.44,-15.69,194.8,-83.28,-174.85
53.051735,-1.75806,265.62,8.64,3,16.8,19 / 21,1004314,2019-11-06 12:59:06:022,-0.0769,0.6883,11.9368,0.0421,0.0199,9.8065,0.1672,-0.1667,0.2062,-3.75,-43.62,-14.44,196.42,-82.77,-173.47
53.051735,-1.75806,265.62,8.64,3,16.8,19 / 21,1004414,2019-11-06 12:59:06:122,1.496,3.8482,9.1373,0.0241,0.0182,9.8065,-0.0162,0.1328,0.1447,-4.06,-43.25,-14.94,195.32,-82.52,-174.27
53.051735,-1.75806,265.62,8.64,3,16.8,19 / 21,1004514,2019-11-06 12:59:06:222,-2.4945,-1.4509,8.4344,-0.0373,-0.0546,9.8064,-0.1014,0.0151,-0.1324,-3.5,-43.56,-14.44,193.05,-82.79,-174.14
53.051735,-1.75806,265.62,8.64,3,16.8,19 / 21,1004614,2019-11-06 12:59:06:322,0.8098,-1.4088,11.0147,0.0146,-0.0368,9.8065,0.1206,-0.0983,0.1336,-4.44,-43.19,-14.56,197.34,-83.54,-172.36
53.051735,-1.75806,265.62,8.64,3,16.8,19 / 21,1004714,2019-11-06 12:59:06:422,-2.2029,0.5212,8.1316,0.0102,-0.0045,9.8066,-0.1868,0.0743,-0.1097,-3.62,-43,-15.44,196.16,-83.96,-174.2
53.051735,-1.75806,265.62,8.64,3,16.8,19 / 21,1004815,2019-11-06 12:59:06:523,0.8114,0.1011,11.0239,-0.0101,0.0114,9.8065,-0.0901,0.1961,-0.107,-4.56,-43.12,-15.19,200.27,-83.82,-172.45
53.051735,-1.75806,265.62,8.64,3,16.8,19 / 21,1004914,2019-11-06 12:59:06:622,-2.0003,0.3218,9.1624,0.0052,0.0209,9.8066,0.1849,0.2843,-0.1133,-3.87,-42.81,-15.44,197.48,-83.64,-172.25
53.051735,-1.75806,265.62,8.64,3,16.8,19 / 21,1005014,2019-11-06 12:59:06:722,3.1561,-1.5989,14.3852,-0.0288,-0.0531,9.8064,0.1004,-0.2538,-0.0059,-4,-43.25,-15.12,199.14,-84.27,-170.68
53.051735,-1.75806,265.62,8.64,3,16.8,19 / 21,1005114,2019-11-06 12:59:06:822,7.9099,-2.9601,14.9597,0.0517,0.0627,9.8063,0.0331,-0.7271,0.6074,-4.62,-43.31,-16.37,206.85,-84.65,-164.4
53.051735,-1.75806,265.62,8.64,3,16.8,19 / 21,1005214,2019-11-06 12:59:06:922,-12.7304,1.7261,10.3982,0.1286,0.0564,9.8056,0.2225,0.2887,-0.173,-2.69,-43.56,-15.19,201.22,-84.36,-164.31
53.051735,-1.75806,265.62,8.64,3,16.8,19 / 21,1005314,2019-11-06 12:59:07:022,9.2026,-7.308,8.2849,0.0424,0.0436,9.8064,-0.1422,-0.9549,1.0133,-4,-43.37,-15.06,200.54,-83.9,-168.56
53.051735,-1.75806,265.62,8.64,3,16.8,19 / 21,1005415,2019-11-06 12:59:07:123,-5.1541,2.1312,9.6872,0.268,-0.0907,9.8025,-0.0634,-0.1933,0.4943,-4,-43.75,-15.31,206.26,-83.36,-160.48
53.051735,-1.75806,265.62,8.64,3,16.8,18 / 21,1005515,2019-11-06 12:59:07:223,8.0238,-3.4875,10.1456,0.0968,-0.1289,9.8053,-0.3252,-1.1988,0.6535,-4.37,-43.12,-15.44,209.14,-84.23,-158.11
53.051735,-1.75806,265.62,8.64,3,16.8,18 / 21,1005615,2019-11-06 12:59:07:323,-12.7421,0.827,5.7768,0.0962,0.012,9.8061,-0.2243,0.171,-0.2004,-3.31,-42.69,-16,205.33,-84.5,-159.17
53.051735,-1.75806,265.62,8.64,3,16.8,18 / 21,1005715,2019-11-06 12:59:07:423,-7.9231,3.8672,11.1415,-0.0317,0.0232,9.8065,0.1805,-0.3755,0.2065,-3.75,-42.69,-15.94,205.49,-85.24,-163.27
53.051735,-1.75806,265.62,8.64,3,16.8,18 / 21,1005814,2019-11-06 12:59:07:522,-7.6284,0.7512,9.6383,0.0181,-0.0356,9.8066,-0.0338,0.7684,-0.8936,-3.37,-42.87,-15.62,205.94,-85.05,-159.04
53.051735,-1.75806,265.62,8.64,3,16.8,18 / 21,1005914,2019-11-06 12:59:07:622,3.2514,-2.1028,11.5164,-0.1128,0.0221,9.8059,0.1342,-0.0631,0.3594,-3.37,-42.81,-15.37,204.94,-84.63,-160.09
53.051735,-1.75806,265.62,8.64,3,16.8,18 / 21,1006014,2019-11-06 12:59:07:722,3.6694,-0.9992,10.2095,0.056,0.0033,9.8064,0.0848,0.9558,-0.3912,-2.81,-42.94,-15.94,196.53,-84.76,-170.21
53.051735,-1.75806,265.62,8.64,3,16.8,18 / 21,1006114,2019-11-06 12:59:07:822,0.5201,-2.3214,10.4141,-0.0924,0.016,9.8061,0.031,0.4764,-0.1959,-2.81,-43.37,-15.44,194.48,-84.46,-173.01
53.051735,-1.75806,265.62,8.64,3,16.8,18 / 21,1006214,2019-11-06 12:59:07:922,-1.0691,-3.1407,9.982,-0.0243,0.0311,9.8065,-0.0078,0.266,-0.0381,-2.5,-43.44,-15.37,190.49,-84.05,-174.08
53.051735,-1.75806,265.62,8.64,3,16.8,18 / 21,1006314,2019-11-06 12:59:08:022,-4.8691,-0.206,8.2574,-0.0093,0.012,9.8066,-0.0996,0.458,-0.2493,-1.87,-43.44,-15.62,189.83,-83.97,-174.6
53.051735,-1.75806,265.62,8.64,3,16.8,18 / 21,1006415,2019-11-06 12:59:08:123,-2.598,-2.5726,9.4,-0.0361,-0.0197,9.8065,0.0099,-0.1716,0.2064,-2.06,-43.75,-14.81,189.08,-83.91,-175.77
53.051735,-1.75806,265.62,8.64,3,16.8,19 / 20,1006515,2019-11-06 12:59:08:223,-5.9305,-0.5323,9.0987,0.0358,-0.0514,9.8064,-0.1577,0.2968,-0.126,-1.44,-42.5,-15.87,186.05,-84.08,-175.93
53.051735,-1.75806,265.62,8.64,3,16.8,19 / 20,1006618,2019-11-06 12:59:08:326,2.7459,-0.1211,10.9995,-0.0444,-0.0302,9.8065,0.0811,-0.5043,0.3419,-1.25,-43.62,-15.69,185.56,-84.71,-176.63
53.051735,-1.75806,265.62,8.64,3,16.8,19 / 20,1006714,2019-11-06 12:59:08:422,-0.7836,-1.0807,10.1198,0.0505,0.0196,9.8065,0.0036,-0.1176,0.0655,-1.06,-42.87,-16.06,187.58,-85.01,-174.26
53.051735,-1.75806,265.62,8.64,3,16.8,19 / 20,1006814,2019-11-06 12:59:08:522,-3.8002,2.0915,10.0367,0.0321,0.0303,9.8065,0.0202,-0.1469,0.247,-0.56,-43.81,-16.19,188.98,-84.9,-172.45
53.051735,-1.75806,265.62,8.64,3,16.8,19 / 20,1006914,2019-11-06 12:59:08:622,-1.2715,0.0583,9.4822,0.0697,0.0222,9.8063,0.0444,-0.1705,0.1445,-1.44,-42.81,-16.12,187.33,-84.82,-174.51
53.051735,-1.75806,265.62,8.64,3,16.8,19 / 20,1007014,2019-11-06 12:59:08:722,-4.7247,0.4998,9.6526,0.0629,-0.0136,9.8064,-0.0215,-0.1451,0.0974,-0.44,-43.69,-15.75,190.44,-84.74,-166.98
53.051735,-1.75806,265.62,8.64,3,16.8,19 / 20,1007114,2019-11-06 12:59:08:822,-0.0926,0.8344,7.855,0.0193,-0.0346,9.8065,-0.2276,-0.2386,0.1724,-0.44,-42.44,-16.44,187.94,-84.92,-170.26
53.051735,-1.75806,265.62,8.64,3,16.8,19 / 20,1007214,2019-11-06 12:59:08:922,-0.3819,0.5724,9.7113,0.1107,-0.0561,9.8058,-0.0968,-0.6191,0.454,-0.75,-42.87,-16.25,195.01,-84.93,-165.1
53.051735,-1.75806,265.62,8.64,3,16.8,19 / 20,1007314,2019-11-06 12:59:09:022,6.867,-2.8544,9.7419,0.1664,-0.0018,9.8052,0.0125,-0.8235,0.6402,-0.75,-43,-16.25,196.98,-84.42,-162.31
53.051735,-1.75806,265.62,8.64,3,16.8,19 / 20,1007414,2019-11-06 12:59:09:122,-8.3412,2.1916,10.2249,0.064,0.0084,9.8064,-0.0683,-0.6287,0.451,-0.31,-43.06,-16.87,192.15,-84.26,-164.85
53.051735,-1.75806,265.62,8.64,3,16.8,19 / 19,1007514,2019-11-06 12:59:09:222,-10.1288,-4.216,9.418,0.171,-0.1009,9.8046,-0.3934,0.296,0.437,-1.06,-42.69,-16.31,191.04,-84.2,-169.61
53.051735,-1.75806,265.62,8.64,3,16.8,19 / 19,1007614,2019-11-06 12:59:09:322,-1.7951,0.1634,11.5125,0.0085,-0.0466,9.8065,-0.2144,-1.066,0.8541,-1.75,-43.25,-16.44,199.46,-84.52,-162.87
53.051735,-1.75806,265.62,8.64,3,16.8,19 / 19,1007714,2019-11-06 12:59:09:422,8.1225,-1.0033,10.0104,0.1526,0.0328,9.8053,0.2505,-0.2456,0.2883,-0.87,-43.25,-16.06,194.47,-84.42,-165.43
53.051735,-1.75806,265.62,8.64,3,16.8,19 / 19,1007814,2019-11-06 12:59:09:522,8.4433,-2.2341,10.0328,-0.0496,-0.0121,9.8064,-0.1425,-0.6602,0.6799,-0.87,-43.12,-16.69,194.85,-84.3,-164.9
53.051735,-1.75806,265.62,8.64,3,16.8,19 / 19,1007915,2019-11-06 12:59:09:623,-2.2023,-0.3514,9.0275,0.108,0.0239,9.806,0.0414,0.0449,-0.0371,-0.62,-42.87,-15.87,200.58,-84.12,-157.55
53.051735,-1.75806,265.62,8.64,3,16.8,19 / 19,1008014,2019-11-06 12:59:09:722,-14.0238,-0.7581,6.7773,0.0749,-0.0609,9.8061,0.4444,-1.5228,0.7521,-0.5,-43.19,-16.44,201.41,-84.37,-153.16
53.051735,-1.75806,265.62,8.64,3,16.8,19 / 19,1008114,2019-11-06 12:59:09:822,7.1326,2.433,12.6405,0.0332,0.0551,9.8064,0.1858,-1.2529,0.3456,-1.37,-42.69,-16.06,201.42,-84.25,-156.62
53.051735,-1.75806,265.62,8.64,3,16.8,19 / 19,1008214,2019-11-06 12:59:09:922,-3.6625,-0.2288,10.2277,0.0574,0.0274,9.8064,0.0831,-0.0909,0.0032,-0.62,-43.12,-16,199.22,-84,-159.16
53.051735,-1.75806,265.62,8.64,3,16.8,19 / 19,1008315,2019-11-06 12:59:10:023,7.5781,-1.0293,12.457,0.0915,0.0453,9.806,0.0106,-0.4579,0.3438,-0.37,-43.25,-15.87,191.51,-84.29,-165.48
53.051735,-1.75806,265.62,8.64,3,16.8,19 / 19,1008415,2019-11-06 12:59:10:123,-6.1713,-2.4245,7.1295,0.0359,0.0384,9.8064,-0.3123,-0.0347,-0.123,0.06,-43.5,-16.19,192.39,-84.2,-164.33
53.051735,-1.75806,265.62,8.64,3,16.8,18 / 19,1008515,2019-11-06 12:59:10:223,3.3268,1.4584,9.157,0.1025,-0.027,9.806,-0.0085,-0.4678,0.6892,-0.31,-43.19,-16.19,198.22,-84.5,-157.24
53.051735,-1.75806,265.62,8.64,3,16.8,18 / 19,1008614,2019-11-06 12:59:10:322,2.3948,-5.5968,11.5465,0.0807,-0.0029,9.8063,-0.1445,0.3784,-0.1439,-0.81,-43.19,-16.62,204.22,-84.57,-153.61
53.051735,-1.75806,265.62,8.64,3,16.8,18 / 19,1008715,2019-11-06 12:59:10:423,-3.3755,-5.48,9.0394,-0.0662,-0.0263,9.8064,-0.1403,0.4555,-0.1153,-0.81,-42.94,-16.5,204.34,-84.43,-153.18
53.051735,-1.75806,265.62,8.64,3,16.8,18 / 19,1008815,2019-11-06 12:59:10:523,-3.6939,0.0081,10.2664,0.0389,-0.0283,9.8065,0.2271,-0.9466,0.8192,-1.44,-43.56,-15.31,200.97,-84.59,-157.26
53.051735,-1.75806,265.62,8.64,3,16.8,18 / 19,1008915,2019-11-06 12:59:10:623,5.8999,-4.6157,8.4963,0.1093,-0.0659,9.8057,-0.1352,-0.6431,0.2142,-1.31,-43.44,-15.25,202.11,-83.75,-155.08
53.051735,-1.75806,265.62,8.64,3,16.8,18 / 19,1009015,2019-11-06 12:59:10:723,0.5912,-0.5897,9.3233,0.0494,-0.0085,9.8065,0.0233,-0.3462,0.035,-1.87,-43.19,-15.62,213.64,-83.98,-144.69
53.051735,-1.75806,265.62,8.64,3,16.8,18 / 19,1009115,2019-11-06 12:59:10:823,1.3561,3.0476,9.3784,0.0462,0.0217,9.8064,-0.0554,-0.3927,0.1826,-1.25,-43.25,-16.75,215.62,-84.93,-140.38
53.051735,-1.75806,265.62,8.64,3,16.8,18 / 19,1009215,2019-11-06 12:59:10:923,1.1322,-2.3197,8.2571,0.0288,0.0136,9.8066,-0.0961,0.4765,-0.3383,-1.06,-42.81,-16.81,219.07,-85.12,-136.6
53.051735,-1.75806,265.62,8.64,3,16.8,18 / 19,1009315,2019-11-06 12:59:11:023,5.6121,-0.9857,12.6172,0.0622,0.069,9.8062,0.172,-0.4689,0.4114,-2,-42.37,-16.44,221.83,-85.06,-136.79
53.051735,-1.75806,265.62,8.64,3,16.8,18 / 19,1009414,2019-11-06 12:59:11:122,-1.6044,1.2541,10.2941,-0.0936,0.0179,9.8061,0.2276,-0.0474,-0.2958,-1.44,-43.37,-16.75,212.9,-84.71,-143.31
53.051735,-1.75806,265.62,8.64,3,16.8,19 / 20,1009514,2019-11-06 12:59:11:222,-5.7038,-3.0004,9.814,0.0324,0.0117,9.8065,0.3429,0.4537,-0.7181,-1,-43.19,-15.56,199.85,-84.37,-158.69
53.051735,-1.75806,265.62,8.64,3,16.8,19 / 20,1009614,2019-11-06 12:59:11:322,2.9066,-4.766,11.8515,-0.0337,-0.0597,9.8064,0.613,-0.7097,-0.1259,-1.37,-43.56,-15.56,190.47,-84.04,-170.19
53.051735,-1.75806,265.62,8.64,3,16.8,19 / 20,1009714,2019-11-06 12:59:11:422,11.492,-2.4014,9.7086,0.1355,-0.0238,9.8057,0.0786,1.3738,-0.8754,-0.94,-43.44,-14.62,186.39,-83.4,-175.36
53.051735,-1.75806,265.62,8.64,3,16.8,19 / 20,1009815,2019-11-06 12:59:11:523,2.8333,1.2895,10.495,0.0131,0.055,9.8064,-0.4342,1.1251,-0.5531,-1.44,-44.19,-15.19,187.26,-83.52,-174.2
53.051735,-1.75806,265.62,8.64,3,16.8,19 / 20,1009915,2019-11-06 12:59:11:623,18.4688,-1.1505,11.908,0.1762,0.0659,9.8048,-0.1817,1.662,-0.5463,-1.25,-43.5,-15.06,183.87,-84.19,-178.85
53.051735,-1.75806,265.62,8.64,3,16.8,19 / 20,1010014,2019-11-06 12:59:11:722,-10.3821,-5.1811,6.0923,0.2789,0.0544,9.8025,-0.4854,1.9039,-1.4257,0,-43.94,-15.31,186.69,-83.85,-171.25
53.051735,-1.75806,265.62,8.64,3,16.8,19 / 20,1010114,2019-11-06 12:59:11:822,10.3814,-3.1414,6.8116,-0.0355,0.062,9.8063,-0.3176,-1.0906,0.6463,-0.87,-43.06,-15.62,181.59,-84.19,178.44
53.051735,-1.75806,265.62,8.64,3,16.8,19 / 20,1010215,2019-11-06 12:59:11:923,-0.6341,0.9248,11.1258,-0.0099,-0.076,9.8063,0.3178,0.0965,0.306,0.5,-43.06,-15.87,178.11,-84.74,-178.78
53.051735,-1.75806,265.62,8.64,3,16.8,19 / 20,1010314,2019-11-06 12:59:12:022,-6.7976,0.3171,6.7695,-0.0864,-0.0736,9.806,0.4968,-0.2713,0.3512,0.44,-43.25,-15.81,183.38,-84.18,-175.72
53.051735,-1.75806,265.62,8.64,3,16.8,19 / 20,1010415,2019-11-06 12:59:12:123,0.1886,-2.7434,6.8995,-0.0976,-0.0608,9.8059,0.0189,0.2623,0.4584,0.5,-43.12,-15.19,174.74,-84.39,177.11
53.051735,-1.75806,265.62,8.64,3,16.8,20 / 20,1010515,2019-11-06 12:59:12:223,4.7803,-1.377,11.321,0.0538,0.0495,9.8064,0.0207,0.2578,-0.0481,0.81,-43.69,-15.06,177.78,-83.81,-179.09
53.051735,-1.75806,265.62,8.64,3,16.8,20 / 20,1010615,2019-11-06 12:59:12:323,3.0553,-1.1671,10.0255,0.1112,0.0314,9.8059,-0.0217,0.7801,-0.216,0.44,-44.06,-14.81,186.41,-83.34,-171.46
53.051735,-1.75806,265.62,8.64,3,16.8,20 / 20,1010715,2019-11-06 12:59:12:423,7.6197,-0.3231,8.8897,-0.0692,-0.0233,9.8063,0.0545,-0.8748,0.5627,-0.12,-43.56,-14.25,185.98,-83.28,-171.86
53.051735,-1.75806,265.62,8.64,3,16.8,20 / 20,1010815,2019-11-06 12:59:12:523,2.2311,1.09,8.9481,0.0375,-0.0197,9.8065,0.0249,-0.1743,0.1178,0.5,-43.69,-14.44,185.24,-83.19,-168.77
53.051735,-1.75806,265.62,8.64,3,16.8,20 / 20,1010915,2019-11-06 12:59:12:623,-4.1015,-0.8613,8.6736,-0.047,-0.0599,9.8063,-0.1946,-0.1237,0.248,0.75,-43.31,-15.5,187.1,-83.42,-166.81
53.051735,-1.75806,265.62,8.64,3,16.8,20 / 20,1011015,2019-11-06 12:59:12:723,4.7768,0.7572,9.2472,-0.0327,-0.0269,9.8065,-0.4502,-0.4443,0.1981,0.13,-43.19,-16.06,191.8,-84.44,-165.2
53.051735,-1.75806,265.62,8.64,3,16.8,20 / 20,1011114,2019-11-06 12:59:12:822,-5.3972,-0.2007,9.0139,-0.037,-0.0082,9.8065,-0.3159,0.2704,-0.105,0.88,-42.56,-17.25,190.53,-85.5,-164.06
53.051735,-1.75806,265.62,8.64,3,16.8,20 / 20,1011214,2019-11-06 12:59:12:922,0.3113,0.8118,10.475,-0.0691,-0.0614,9.8062,0.0952,-0.2654,0.1686,0.44,-43.06,-17.12,190.88,-86.2,-167.33
53.051735,-1.75806,265.62,8.64,3,16.8,20 / 20,1011315,2019-11-06 12:59:13:023,-6.1549,2.3036,12.9665,0.0149,0.0037,9.8066,0.1882,0.525,-0.2195,1,-42.37,-17.56,189.76,-86.06,-165.53
53.051735,-1.75806,265.62,8.64,3,16.8,20 / 20,1011415,2019-11-06 12:59:13:123,-4.0412,-2.099,7.549,0.0757,0.0908,9.8059,-0.2647,0.8791,-0.3596,1.13,-42.5,-16.87,192.3,-85.41,-161.96
53.051735,-1.75806,265.62,8.64,3,16.8,19 / 21,1011515,2019-11-06 12:59:13:223,-3.3083,1.8027,11.0761,-0.066,0.0651,9.8061,-0.2783,-0.3593,0.21,1.06,-43.19,-16.94,187.34,-85.73,-167.94
53.051735,-1.75806,265.62,8.64,3,16.8,19 / 21,1011616,2019-11-06 12:59:13:324,-8.8245,0.5467,10.6307,-0.0096,-0.0073,9.8066,0.0946,0.3572,0.2375,1.69,-43.12,-17.31,182.24,-85.54,-170.62
53.051735,-1.75806,265.62,8.64,3,16.8,19 / 21,1011715,2019-11-06 12:59:13:423,-3.1645,7.2015,11.5292,-0.059,-0.0868,9.8061,0.2196,-1.1323,0.0343,0.88,-43.31,-17,192,-85.22,-162.17
53.051735,-1.75806,265.62,8.64,3,16.8,19 / 21,1011815,2019-11-06 12:59:13:523,6.9427,-3.095,9.9467,-0.1295,0.0651,9.8055,0.1796,-0.7124,0.702,0.44,-42.69,-16.25,183.73,-85.29,-175.46
53.051735,-1.75806,265.62,8.64,3,16.8,19 / 21,1011915,2019-11-06 12:59:13:623,2.7758,2.6553,10.8604,-0.1463,0.0251,9.8055,0.3004,-0.3677,0.7632,0.69,-43.12,-15.31,178,-83.98,-178.77
53.051735,-1.75806,265.62,8.64,3,16.8,19 / 21,1012015,2019-11-06 12:59:13:723,3.5838,2.6989,10.5609,0.0305,-0.0161,9.8065,-0.0055,-0.7134,-0.2185,1.5,-43.25,-14.75,178.55,-83.61,-174.3
53.051735,-1.75806,265.62,8.64,3,16.8,19 / 21,1012114,2019-11-06 12:59:13:822,-3.4747,0.1991,7.3342,-0.0465,-0.0852,9.8062,-0.0159,0.0539,0.0343,2.44,-44.12,-16.12,173.79,-84.03,179.19
53.051735,-1.75806,265.62,8.64,3,16.8,19 / 21,1012214,2019-11-06 12:59:13:922,-0.9683,0.1915,9.5459,-0.0483,-0.0443,9.8063,-0.1552,-0.275,0.1646,1.75,-43,-16.87,171.73,-84.83,176.61
53.051735,-1.75806,265.62,8.64,3,16.8,19 / 21,1012314,2019-11-06 12:59:14:022,-3.6376,-3.1668,8.5962,0.0164,0.0253,9.8065,-0.027,0.0376,-0.1404,2.94,-43.19,-17.19,168.95,-85.1,176.66
53.051735,-1.75806,265.62,8.64,3,16.8,19 / 21,1012414,2019-11-06 12:59:14:122,0.7338,0.4945,11.7686,-0.0681,-0.0154,9.8064,0.2556,-0.3954,0.3189,2,-43.31,-16.31,171.45,-84.74,176.52
53.052452,-1.757877,266.6,8.86,3,359.09,19 / 21,1012514,2019-11-06 12:59:14:222,-0.2772,1.1773,9.4149,-0.0244,0.0166,9.8066,0.0429,-0.3479,0.2238,1.88,-43.25,-16.06,174.11,-84.55,179.77
53.052452,-1.757877,266.6,8.86,3,359.09,19 / 21,1012614,2019-11-06 12:59:14:322,3.1198,2.202,9.769,0.0251,-0.0133,9.8066,-0.0455,-0.2937,0.1935,2,-43.81,-16.12,178.09,-84.53,-175.28
53.052452,-1.757877,266.6,8.86,3,359.09,19 / 21,1012714,2019-11-06 12:59:14:422,1.3178,-1.8966,9.9216,0.036,-0.0154,9.8065,-0.015,0.0767,0.026,1.31,-43.44,-16.44,183.34,-84.73,-172.27
53.052452,-1.757877,266.6,8.86,3,359.09,19 / 21,1012814,2019-11-06 12:59:14:522,-4.1426,1.5781,8.6227,-0.0211,-0.0259,9.8065,0.0071,-0.3459,0.2361,2.06,-43.19,-16.25,180.23,-84.69,-172.58
53.052452,-1.757877,266.6,8.86,3,359.09,19 / 21,1012914,2019-11-06 12:59:14:622,2.1337,0.1389,11.2155,0.0248,-0.0217,9.8065,0.2192,-0.3197,-0.0048,1.31,-42.56,-16.75,185.27,-84.79,-170.17
53.052452,-1.757877,266.6,8.86,3,359.09,19 / 21,1013014,2019-11-06 12:59:14:722,-4.3165,0.6724,9.5984,-0.0366,-0.0446,9.8065,0.1117,-0.028,-0.098,1.56,-42.75,-15.69,179.32,-84.61,-173.72
53.052452,-1.757877,266.6,8.86,3,359.09,19 / 21,1013114,2019-11-06 12:59:14:822,-0.4622,-0.1292,10.3169,-0.0593,-0.0029,9.8064,0.0729,-0.4532,0.1681,2.06,-42.81,-16.31,175.21,-84.77,-178.81
53.052452,-1.757877,266.6,8.86,3,359.09,19 / 21,1013214,2019-11-06 12:59:14:922,-4.087,-2.5521,10.0456,-0.0074,-0.0354,9.8066,-0.0295,0.0464,-0.024,2.06,-43.37,-15.62,175.15,-84.9,-178.86
53.052452,-1.757877,266.6,8.86,3,359.09,19 / 21,1013314,2019-11-06 12:59:15:022,3.5875,2.6131,10.6608,-0.061,-0.0532,9.8062,0.0066,-0.4475,0.2194,1.5,-43.19,-16.44,174.88,-85.22,-179.11
53.052452,-1.757877,266.6,8.86,3,359.09,19 / 21,1013415,2019-11-06 12:59:15:123,3.5946,-2.8547,11.0445,0.0545,-0.0127,9.8064,-0.0742,0.453,-0.3437,3.13,-43.31,-15.94,170.29,-85.77,179.06
53.052452,-1.757877,266.6,8.86,3,359.09,19 / 21,1013514,2019-11-06 12:59:15:222,2.2326,-0.978,9.5674,-0.0309,0.015,9.8065,-0.2549,0.1263,0.2081,2.19,-42.87,-15.75,174.68,-86.09,-179.14
53.052452,-1.757877,266.6,8.86,3,359.09,19 / 21,1013614,2019-11-06 12:59:15:322,-1.9062,0.9481,10.4261,0.0023,0.0212,9.8066,-0.2717,0.3505,-0.1174,2.56,-43.12,-16.06,173.57,-86.66,-176.79
53.052452,-1.757877,266.6,8.86,3,359.09,19 / 21,1013714,2019-11-06 12:59:15:422,-4.8979,-1.2012,9.6505,0.0274,-0.0198,9.8066,-0.0365,0.5642,-0.2151,2.75,-43.25,-16,175.94,-86.86,-174.03
53.052452,-1.757877,266.6,8.86,3,359.09,19 / 21,1013814,2019-11-06 12:59:15:522,3.6372,-0.3416,11.0075,0.0441,-0.0042,9.8065,0.1521,-0.0462,-0.0822,2.38,-43.19,-16.31,178.15,-87.07,-174.97
53.052452,-1.757877,266.6,8.86,3,359.09,19 / 21,1013915,2019-11-06 12:59:15:623,-4.17,0.3026,8.9532,0.046,0.0529,9.8063,0.0207,0.327,-0.1782,2.44,-43.25,-15.69,175.74,-86.54,-177.81
53.052452,-1.757877,266.6,8.86,3,359.09,19 / 21,1014015,2019-11-06 12:59:15:723,-2.1595,-1.4503,10.4679,-0.0189,0.0061,9.8066,0.0926,-0.0434,0.0063,2.88,-43.62,-15.31,173.41,-86.02,-176.58
53.052452,-1.757877,266.6,8.86,3,359.09,19 / 21,1014114,2019-11-06 12:59:15:822,-0.9115,1.8039,9.2761,-0.0177,0.0142,9.8066,-0.2173,0.0772,0.0553,3,-43.37,-15.25,174.57,-85.88,-175.2
53.052452,-1.757877,266.6,8.86,3,359.09,19 / 21,1014214,2019-11-06 12:59:15:922,1.4527,1.0661,9.0787,0.0044,0.0322,9.8065,-0.3121,0.3164,0.0049,3.06,-43.44,-15.06,174.63,-86.22,-175.05
53.052452,-1.757877,266.6,8.86,3,359.09,19 / 21,1014314,2019-11-06 12:59:16:022,-2.3532,-1.7418,8.9583,0.0611,-0.0147,9.8064,-0.0909,0.4939,-0.2922,2.44,-43.19,-16.37,182,-86.43,-170.55
53.052452,-1.757877,266.6,8.86,3,359.09,19 / 21,1014414,2019-11-06 12:59:16:122,4.1303,0.9843,10.2541,0.0298,-0.0263,9.8066,0.0611,-0.2806,0.0484,2.31,-42.81,-15.31,182.99,-86.89,-168.95
53.052452,-1.757877,266.6,8.86,3,359.09,19 / 21,1014514,2019-11-06 12:59:16:222,-3.285,-1.3383,9.0827,0.0292,-0.0109,9.8065,-0.0921,0.3547,-0.2018,2.69,-43.5,-16.25,180.34,-87.04,-168.99
53.052452,-1.757877,266.6,8.86,3,359.09,19 / 21,1014614,2019-11-06 12:59:16:322,-1.1592,-1.697,8.3402,0.0047,-0.0504,9.8065,-0.0197,-0.2147,0.1584,2.69,-42.87,-15.62,180.01,-87.29,-169.37
53.052452,-1.757877,266.6,8.86,3,359.09,19 / 21,1014714,2019-11-06 12:59:16:422,-3.3286,-2.7082,8.6259,0.0562,-0.0431,9.8063,0.0631,0.1119,-0.1412,2.75,-42.94,-16.87,187.73,-87.75,-161.52
53.052452,-1.757877,266.6,8.86,3,359.09,19 / 21,1014814,2019-11-06 12:59:16:522,-2.6214,0.4486,11.3657,-0.0375,-0.0234,9.8065,0.1178,-0.6435,0.2901,2.63,-43.12,-16.37,185.37,-87.77,-163.46
53.052452,-1.757877,266.6,8.86,3,359.09,19 / 21,1014914,2019-11-06 12:59:16:622,6.2065,-0.0585,8.8504,-0.0577,0.0625,9.8063,-0.1718,-0.2976,0.4247,1.75,-42.62,-16.44,187.83,-87.53,-164.15
53.052452,-1.757877,266.6,8.86,3,359.09,19 / 21,1015014,2019-11-06 12:59:16:722,1.7372,0.5648,8.9955,-0.1019,-0.0003,9.8061,-0.0804,-0.4133,0.2976,2.56,-43.56,-16.5,179.58,-87.47,-169.85
53.052452,-1.757877,266.6,8.86,3,359.09,19 / 21,1015114,2019-11-06 12:59:16:822,4.3375,1.4668,11.427,-0.0306,-0.0589,9.8064,0.2159,-0.6045,0.13,2.06,-42.87,-16.06,181.36,-87.64,-171.37
53.052452,-1.757877,266.6,8.86,3,359.09,19 / 21,1015214,2019-11-06 12:59:16:922,0.3875,0.6782,8.2291,0.0029,-0.023,9.8065,0.0475,0.1659,-0.1166,3,-43.19,-17,174.77,-87.57,-175.77
53.052452,-1.757877,266.6,8.86,3,359.09,19 / 21,1015314,2019-11-06 12:59:17:022,2.88,-0.4089,10.0792,-0.045,-0.0374,9.8065,-0.0928,-0.0608,-0.0662,3.06,-43,-17.31,168.16,-87.86,177.09
53.052452,-1.757877,266.6,8.86,3,359.09,19 / 21,1015414,2019-11-06 12:59:17:122,-2.5639,-1.951,9.2542,-0.0128,-0.0029,9.8066,-0.0469,0.1205,-0.09,3.31,-42.56,-16.25,159.75,-88.16,168.69
53.052452,-1.757877,266.6,8.86,3,359.09,19 / 21,1015514,2019-11-06 12:59:17:222,-1.3513,0.0561,8.8509,-0.022,-0.0114,9.8066,0.0386,-0.1702,0.1211,2.38,-43,-16.62,160.11,-88.15,165.24
53.052452,-1.757877,266.6,8.86,3,359.09,19 / 21,1015614,2019-11-06 12:59:17:322,-2.8642,-0.7793,9.4268,0.0395,-0.0068,9.8065,-0.0004,0.4799,-0.2575,2.81,-43.31,-17,170.3,-88.14,179.53
53.052452,-1.757877,266.6,8.86,3,359.09,19 / 21,1015714,2019-11-06 12:59:17:422,-1.8611,-0.5111,10.1909,0.0233,-0.0033,9.8065,0.052,0.1604,-0.1428,2.44,-43.19,-17.56,169.93,-88.09,175.48
53.052452,-1.757877,266.6,8.86,3,359.09,19 / 21,1015814,2019-11-06 12:59:17:522,3.6951,1.1025,10.3436,0.0594,0.031,9.8064,0.0964,0.2158,-0.1917,2.19,-42.75,-16.69,169.6,-88.01,175.41
53.052452,-1.757877,266.6,8.86,3,359.09,19 / 21,1015914,2019-11-06 12:59:17:622,-2.9546,0.581,9.9071,-0.0001,0.0405,9.8065,-0.0798,0.4027,-0.1911,2.88,-43,-17.25,169.83,-87.58,178.78
53.052452,-1.757877,266.6,8.86,3,359.09,19 / 21,1016014,2019-11-06 12:59:17:722,2.6153,-0.3578,9.9987,-0.028,0.045,9.8064,-0.0481,0.1831,-0.128,2.25,-43.19,-16.69,166.84,-87.19,171.96
53.052452,-1.757877,266.6,8.86,3,359.09,19 / 21,1016114,2019-11-06 12:59:17:822,-1.8653,1.5382,10.03,0.0463,0.0267,9.8065,0.0464,0.3579,-0.2184,2.63,-43.25,-16.87,159.96,-86.69,167.17
53.052452,-1.757877,266.6,8.86,3,359.09,19 / 21,1016214,2019-11-06 12:59:17:922,3.8851,0.0663,10.6479,-0.0443,-0.0252,9.8065,0.093,-0.4905,0.087,3.13,-43.06,-17.25,153.31,-86.47,159.41
53.052452,-1.757877,266.6,8.86,3,359.09,19 / 21,1016315,2019-11-06 12:59:18:023,1.8746,1.213,10.1481,-0.0233,-0.0062,9.8065,-0.0008,-0.3371,0.1911,3.06,-42.81,-17.12,150.47,-86.44,156.15
53.052452,-1.757877,266.6,8.86,3,359.09,19 / 21,1016415,2019-11-06 12:59:18:123,-2.0596,-0.03,9.815,-0.043,0.0021,9.8065,0.0417,-0.3438,0.2533,3.69,-43.25,-16.37,149.63,-86.57,159.18
53.052452,-1.757877,266.6,8.86,3,359.09,18 / 19,1016514,2019-11-06 12:59:18:222,0.1802,-1.2228,10.2624,-0.0129,0.0339,9.8066,0.1467,-0.2621,0.1082,3.31,-43.31,-15.94,154.05,-86.06,160.17
53.052452,-1.757877,266.6,8.86,3,359.09,18 / 19,1016614,2019-11-06 12:59:18:322,0.2852,0.6612,10.7209,0.0097,0.0118,9.8066,-0.0008,-0.1458,0.1416,2.69,-43.31,-16.5,156.72,-85.84,163.05
53.052452,-1.757877,266.6,8.86,3,359.09,18 / 19,1016714,2019-11-06 12:59:18:422,-0.173,-0.0551,9.6292,-0.0238,0.009,9.8065,-0.0175,0.0428,-0.0574,2.25,-42.94,-16.81,161.59,-85.79,165.01
53.052452,-1.757877,266.6,8.86,3,359.09,18 / 19,1016814,2019-11-06 12:59:18:522,2.7117,1.9071,9.6993,0.0269,-0.0198,9.8065,0.0277,-0.2116,0.1281,2.44,-43.19,-16.37,162.61,-85.8,166.43
53.052452,-1.757877,266.6,8.86,3,359.09,18 / 19,1016914,2019-11-06 12:59:18:622,2.6856,-1.8628,9.6133,0.0211,-0.0245,9.8065,-0.1044,-0.21,0.0062,2.13,-43.31,-16.06,163.73,-86.08,167.97
53.052452,-1.757877,266.6,8.86,3,359.09,18 / 19,1017014,2019-11-06 12:59:18:722,-2.1681,0.4659,10.5539,-0.0096,0.0056,9.8066,-0.0336,-0.358,0.1559,2.38,-43,-16.44,161.75,-86.39,165.89
53.052452,-1.757877,266.6,8.86,3,359.09,18 / 19,1017114,2019-11-06 12:59:18:822,2.8984,0.0619,11.1925,-0.0399,0.0357,9.8064,0.0411,-0.4295,0.2293,1.38,-42.81,-16.44,167.32,-86.11,168.63
53.052452,-1.757877,266.6,8.86,3,359.09,18 / 19,1017214,2019-11-06 12:59:18:922,-2.311,-0.9121,8.6469,0.0014,0.0453,9.8065,-0.1259,0.1014,-0.1525,2.19,-43.06,-15.81,165.9,-85.93,170.42
53.052452,-1.757877,266.6,8.86,3,359.09,18 / 19,1017314,2019-11-06 12:59:19:022,-2.5848,-0.3006,9.9852,-0.0225,-0.0532,9.8064,0.0098,-0.0631,0.0902,1.38,-43.37,-16.25,169.57,-85.93,171.2
53.052452,-1.757877,266.6,8.86,3,359.09,18 / 19,1017414,2019-11-06 12:59:19:122,0.4081,-1.5092,9.9104,0.0669,-0.0314,9.8063,-0.1026,0.1783,-0.2241,0.94,-42.75,-16.37,176.21,-86.52,179.18
53.052452,-1.757877,266.6,8.86,3,359.09,18 / 19,1017514,2019-11-06 12:59:19:222,-0.1846,1.9545,9.4606,0.0047,0.0298,9.8066,0.0118,0.1815,-0.0906,0.81,-42.75,-17.12,174.06,-86.49,176.53
53.052452,-1.757877,266.6,8.86,3,359.09,18 / 19,1017614,2019-11-06 12:59:19:322,3.5499,-0.5171,10.5183,0.0089,-0.0091,9.8066,-0.0354,0.078,-0.1714,1.25,-43.25,-15.5,170.6,-86.24,172.68
53.052452,-1.757877,266.6,8.86,3,359.09,18 / 19,1017714,2019-11-06 12:59:19:422,-0.4453,-0.702,10.2589,-0.0034,-0.0239,9.8066,0.0413,0.2767,-0.3018,1.44,-43.25,-16.31,165.27,-86.27,166.32
53.052452,-1.757877,266.6,8.86,3,359.09,18 / 19,1017814,2019-11-06 12:59:19:522,2.4018,0.0131,10.1082,0.0195,-0.0124,9.8066,0.0614,0.0405,-0.176,1.75,-43.06,-16,155.02,-86.19,157.9
53.052452,-1.757877,266.6,8.86,3,359.09,18 / 19,1017914,2019-11-06 12:59:19:622,0.6286,-0.5652,10.5644,0.0166,0.0243,9.8066,-0.041,-0.1137,0.0749,1.5,-42.69,-16.12,154.36,-86.13,157.06
53.052452,-1.757877,266.6,8.86,3,359.09,18 / 19,1018014,2019-11-06 12:59:19:722,1.3484,-0.2374,9.9604,0.0102,-0.0053,9.8066,-0.0312,-0.1574,0.1298,0.5,-42.87,-16.31,160.76,-86.54,161.32
53.052452,-1.757877,266.6,8.86,3,359.09,18 / 19,1018115,2019-11-06 12:59:19:823,2.4534,-1.1968,9.6322,-0.0135,-0.0042,9.8066,0.074,-0.3625,0.2136,0.19,-43.31,-15.87,166.27,-86.6,164.12
53.052452,-1.757877,266.6,8.86,3,359.09,18 / 19,1018215,2019-11-06 12:59:19:923,1.629,1.2061,9.9063,0.0245,-0.0078,9.8066,0.0129,-0.0219,-0.0312,0.19,-42.75,-16.31,173.52,-86.47,172.46
53.052452,-1.757877,266.6,8.86,3,359.09,18 / 19,1018315,2019-11-06 12:59:20:023,6.4357,1.7005,9.8949,-0.0326,-0.0482,9.8065,0.0858,-0.3196,-0.1026,-0.25,-42.94,-16.62,173.28,-86.75,172.33
53.052452,-1.757877,266.6,8.86,3,359.09,18 / 19,1018415,2019-11-06 12:59:20:123,-0.2602,0.0988,10.0718,0.1648,-0.0337,9.8052,0.0674,1.6537,-1.1933,1.25,-42.94,-17.31,176.68,-87.01,179.62
53.052452,-1.757877,266.6,8.86,3,359.09,18 / 19,1018515,2019-11-06 12:59:20:223,-13.57,-0.0295,10.0198,0.0373,0.0584,9.8063,-0.1902,0.6088,-0.5188,-0.37,-42.5,-16.25,169.56,-86.6,167.96
53.052452,-1.757877,266.6,8.86,3,359.09,18 / 19,1018615,2019-11-06 12:59:20:323,9.3547,2.4007,10.6324,0.2031,0.0659,9.8043,-0.1798,1.379,-0.2486,-1.62,-43.69,-15.75,169.42,-86.68,160.65
53.052452,-1.757877,266.6,8.86,3,359.09,18 / 19,1018715,2019-11-06 12:59:20:423,-15.1024,0.9655,9.6492,0.2609,0.0501,9.803,-0.1588,1.6624,-1.2371,0,-43.31,-15.94,180.45,-86.24,-179.47
53.052452,-1.757877,266.6,8.86,3,359.09,18 / 19,1018814,2019-11-06 12:59:20:522,3.4108,-0.1551,8.9495,0.0479,-0.0132,9.8065,0.0085,-0.2278,0.2413,-1.31,-43.5,-16.19,174.72,-86.26,170.23
53.052452,-1.757877,266.6,8.86,3,359.09,18 / 19,1018914,2019-11-06 12:59:20:622,-9.4025,-2.5175,9.7465,0.1854,-0.027,9.8048,0.1501,0.7845,-0.6118,0.13,-43.69,-16.19,179.5,-86.42,179.42
53.052452,-1.757877,266.6,8.86,3,359.09,18 / 19,1019014,2019-11-06 12:59:20:722,5.4567,1.889,11.1711,-0.0243,0.0213,9.8065,0.1377,-0.6138,0.4214,-1.06,-43.19,-15.81,176.72,-86.15,172.56
