GPS LATITUDE (degrees), GPS LONGITUDE (degrees), GPS ALTITUDE (m), GPS SPEED (Kmh), GPS ACCURACY (m), GPS ORIENTATION (Â°),GPS SATELLITES IN RANGE, TIME SINCE START (ms), DATE (YYYY-MO-DD HH-MI-SS_SSS), ACCELEROMETER X (m/s²) , ACCELEROMETER Y (m/s²), ACCELEROMETER Z (m/s²), GRAVITY X (m/s²), GRAVITY Y (m/s²), GRAVITY Z (m/s²), GYROSCOPE Yaw (rad/s), GYROSCOPE Pitch (rad/s), GYROSCOPE Roll (rad/s), MAGNETIC FIELD X (Î¼T), MAGNETIC FIELD Y (Î¼T), MAGNETIC FIELD Z (Î¼T), ORIENTATION (Yaw) (Â°), ORIENTATION (Pitch) (Â°), ORIENTATION (Roll ) (Â°)
52.563107,-1.498144,143.98,19.41,4,117.13,22 / 23,8124915,2019-11-06 18:21:45:377,2.9032,2.7091,9.0967,0.0258,0.0452,9.8064,0.0949,-0.702,0.3478,-25.06,-36.69,23.06,324.8,-88.44,-166.82
52.563107,-1.498144,143.98,19.41,4,117.13,22 / 23,8125013,2019-11-06 18:21:45:475,0.1345,0.4251,10.0103,-0.038,-0.0608,9.8063,-0.0618,0.5939,-0.2717,-25.12,-36.31,22.44,326.55,-88.37,-163.82
52.563107,-1.498144,143.98,19.41,4,117.13,22 / 23,8125114,2019-11-06 18:21:45:576,-3.6349,-3.892,11.0083,-0.003,0.0111,9.8066,-0.0141,-0.2325,0.157,-24.81,-36.12,23.31,323.84,-88.46,-167.8
52.563107,-1.498144,143.98,19.41,4,117.13,22 / 23,8125213,2019-11-06 18:21:45:675,2.5897,3.2003,9.0073,-0.0262,-0.0717,9.8063,-0.1307,0.5105,-0.2482,-24.94,-36.62,22.81,330.34,-88.45,-161.43
52.563107,-1.498144,143.98,19.41,4,117.13,22 / 23,8125313,2019-11-06 18:21:45:775,0.476,-0.6911,9.907,-0.0068,-0.0043,9.8066,-0.019,-0.1496,0.0776,-25.75,-36.69,22.81,322.65,-88.63,-167.95
52.563107,-1.498144,143.98,19.41,4,117.13,22 / 23,8125414,2019-11-06 18:21:45:876,2.6525,2.9932,9.6531,-0.0397,-0.0442,9.8065,0.0157,0.3188,-0.1787,-24.87,-35.94,22.56,332.94,-88.62,-159
52.563107,-1.498144,143.98,19.41,4,117.13,22 / 23,8125514,2019-11-06 18:21:45:976,-0.5491,-2.6249,10.0319,-0.0033,0.0282,9.8066,0.0959,-0.3364,0.1225,-25.5,-35.87,22.81,332.58,-88.69,-159.39
52.563107,-1.498144,143.98,19.41,4,117.13,22 / 23,8125614,2019-11-06 18:21:46:076,-1.5699,0.5571,10.2734,-0.0178,-0.0234,9.8066,-0.0309,0.0598,-0.0496,-24.94,-36.62,23.25,332.11,-88.82,-159.89
52.563107,-1.498144,143.98,19.41,4,117.13,22 / 23,8125714,2019-11-06 18:21:46:176,4.6458,3.8307,10.4341,0.0765,0.0539,9.8061,-0.0511,-0.7222,0.375,-25.37,-36.62,22.88,301.82,-88.73,170.39
52.563107,-1.498144,143.98,19.41,4,117.13,22 / 23,8125813,2019-11-06 18:21:46:275,2.0913,0.3212,10.1377,-0.0018,0.0627,9.8064,0.2339,-0.7967,0.4452,-25.5,-36.25,23.25,311.22,-88.76,179.59
52.563107,-1.498144,143.98,19.41,4,117.13,21 / 21,8125914,2019-11-06 18:21:46:376,5.4522,5.5376,8.0703,0.0064,0.1143,9.8059,0.1763,-0.7985,0.3117,-25.56,-37.25,22.56,327.62,-88.46,-162.99
52.563107,-1.498144,143.98,19.41,4,117.13,21 / 21,8126013,2019-11-06 18:21:46:475,-4.742,-5.161,11.1566,0.0338,0.0885,9.8061,0.0441,-1.0428,0.5525,-25.31,-36.25,23.06,319.22,-88.91,-172.63
52.563107,-1.498144,143.98,19.41,4,117.13,21 / 21,8126114,2019-11-06 18:21:46:576,2.0438,0.7568,10.8064,0.0388,0.0833,9.8061,0.1394,-0.4762,0.2818,-24.94,-36.25,22.31,315.5,-89.19,-175.23
52.563107,-1.498144,143.98,19.41,4,117.13,21 / 21,8126214,2019-11-06 18:21:46:676,-2.4432,-3.4775,9.4922,0.0564,0.0495,9.8063,0.035,-0.5849,0.2861,-24.75,-36.75,22.81,325.34,-89.01,-166.66
52.563107,-1.498144,143.98,19.41,4,117.13,21 / 21,8126313,2019-11-06 18:21:46:775,2.102,0.9413,9.7287,0.0148,0.016,9.8066,-0.0195,-0.0593,0.0127,-25.37,-36.19,22.94,333.6,-88.92,-158.5
52.563107,-1.498144,143.98,19.41,4,117.13,21 / 21,8126414,2019-11-06 18:21:46:876,-1.4343,-2.7619,10.7369,0.0278,0.0485,9.8065,-0.0238,-0.4555,0.2746,-25.62,-36.25,22.56,326.68,-89.02,-164.25
52.563107,-1.498144,143.98,19.41,4,117.13,21 / 21,8126514,2019-11-06 18:21:46:976,1.6742,2.8697,9.4972,0.0287,0.0134,9.8065,-0.0327,0.1296,-0.0037,-25.44,-36.62,22.25,337.67,-89.05,-153.28
52.563107,-1.498144,143.98,19.41,4,117.13,21 / 21,8126614,2019-11-06 18:21:47:076,0.5012,-0.1789,10.0093,0.0155,0.043,9.8065,0.1192,-0.2777,0.0671,-24.87,-36.87,22.5,321.46,-89.04,-170.5
52.563107,-1.498144,143.98,19.41,4,117.13,21 / 21,8126714,2019-11-06 18:21:47:176,3.4725,2.5105,10.4958,-0.0551,-0.029,9.8064,0.0539,0.4845,-0.4219,-24.87,-36.5,22.25,320.53,-88.96,-170.1
52.563107,-1.498144,143.98,19.41,4,117.13,21 / 21,8126814,2019-11-06 18:21:47:276,-0.719,-0.4641,8.7442,0.0572,0.0108,9.8064,-0.2131,-0.0376,0.1194,-25.31,-36.44,22.38,294.88,-88.81,164.71
52.563107,-1.498144,143.98,19.41,4,117.13,21 / 22,8126914,2019-11-06 18:21:47:376,-0.0059,-3.5805,10.6791,0.004,-0.0668,9.8064,-0.2125,0.5194,-0.067,-25,-36.5,22.75,307.5,-89.19,175.57
52.563107,-1.498144,143.98,19.41,4,117.13,21 / 22,8127013,2019-11-06 18:21:47:475,-0.9536,-1.9409,10.432,-0.0496,-0.0084,9.8065,0.0296,0.1419,-0.1929,-25.06,-36.62,22.19,337.29,-89.1,-153.67
52.563107,-1.498144,143.98,19.41,4,117.13,21 / 22,8127113,2019-11-06 18:21:47:575,-2.0836,-1.8826,9.8642,-0.0516,-0.0475,9.8064,0.1151,0.4461,-0.2664,-25.56,-36.5,22.31,326.01,-89.13,-163.71
52.563107,-1.498144,143.98,19.41,4,117.13,21 / 22,8127213,2019-11-06 18:21:47:675,3.389,1.2734,9.9193,0.0013,-0.0198,9.8066,-0.0694,0.2425,-0.1641,-25.44,-35.75,22.06,334.81,-89,-156.07
52.563107,-1.498144,143.98,19.41,4,117.13,21 / 22,8127314,2019-11-06 18:21:47:776,1.0108,1.4033,9.3901,0.0101,-0.0333,9.8065,-0.164,0.1984,-0.054,-24.75,-36.19,22.63,324.99,-88.91,-166.96
52.563107,-1.498144,143.98,19.41,4,117.13,21 / 22,8127414,2019-11-06 18:21:47:876,1.4045,-0.8312,10.5565,0.009,-0.0087,9.8066,-0.0204,-0.0299,0,-25.06,-35.94,22.75,331.6,-88.93,-160.47
52.563107,-1.498144,143.98,19.41,4,117.13,21 / 22,8127514,2019-11-06 18:21:47:976,-1.8034,0.0169,9.1558,-0.0308,-0.0006,9.8065,0.0103,0.0641,-0.142,-25.5,-36.25,22.19,333.31,-89.06,-157.57
52.563107,-1.498144,143.98,19.41,4,117.13,21 / 22,8127614,2019-11-06 18:21:48:076,-1.3557,0.333,7.9743,0.0035,0.0407,9.8065,-0.0327,-0.0316,0.0515,-25,-36.37,23.06,331.67,-89.27,-160.58
52.563107,-1.498144,143.98,19.41,4,117.13,21 / 22,8127714,2019-11-06 18:21:48:176,2.1292,-0.597,10.7133,-0.0033,0.0256,9.8066,0.0158,-0.0722,-0.1139,-25.31,-36.56,22.38,324.52,-89.48,-166.49
52.563107,-1.498144,143.98,19.41,4,117.13,21 / 22,8127814,2019-11-06 18:21:48:276,-2.7475,-1.689,7.8313,0.0685,0.009,9.8064,-0.2502,-0.1993,0.1474,-25,-36.69,22.06,278.9,-89.46,148.14
52.563107,-1.498144,143.98,19.41,4,117.13,21 / 22,8127914,2019-11-06 18:21:48:376,5.5292,1.8272,12.4753,0.075,0.01,9.8063,-0.4142,-0.6401,0.3364,-24.75,-36.12,21.63,241.02,-88.88,110.73
52.563107,-1.498144,143.98,19.41,4,117.13,21 / 22,8128014,2019-11-06 18:21:48:476,-2.6238,-4.6003,11.0086,0.0329,0.0764,9.8062,0.3695,-0.7535,0.7378,-25,-36.81,22.38,234.81,-89.2,104.19
52.563107,-1.498144,143.98,19.41,4,117.13,21 / 22,8128114,2019-11-06 18:21:48:576,-1.683,-0.1955,9.7608,-0.0037,0.1035,9.8061,0.1212,-0.6538,0.3941,-25.56,-36.75,22.31,341.04,-89.21,-148.91
52.563107,-1.498144,143.98,19.41,4,117.13,21 / 22,8128213,2019-11-06 18:21:48:675,-4.6446,-6.117,11.2792,-0.0332,0.0608,9.8063,0.2759,-0.8455,0.2983,-25.06,-36.19,22.25,9.25,-89.76,-122.14
52.563107,-1.498144,143.98,19.41,4,117.13,21 / 22,8128313,2019-11-06 18:21:48:775,2.5131,3.8163,7.6887,-0.0064,0.079,9.8063,0.2178,-0.2573,0.0736,-25.25,-36.5,21.94,8.43,-89.54,-122.99
52.563107,-1.498144,143.98,19.41,4,117.13,21 / 22,8128413,2019-11-06 18:21:48:875,-3.2622,-2.7964,10.305,0.1005,0.0784,9.8058,-0.1889,-0.7439,0.4877,-25.37,-36.31,21.69,299.22,-89.97,167.91
52.563107,-1.498144,143.98,19.41,4,117.13,21 / 22,8128513,2019-11-06 18:21:48:975,3.7093,4.1,9.4853,0.0701,0.0243,9.8063,-0.1535,0.0683,0.0927,-25,-36.75,22.19,57.99,-89.79,-73.56
52.563107,-1.498144,143.98,19.41,4,117.13,21 / 22,8128614,2019-11-06 18:21:49:076,0.4653,-0.4424,10.1463,0.0015,0.0603,9.8064,0.1427,-0.4643,0.1407,-25.44,-36.31,22.25,183.88,-89.89,52.54
52.563107,-1.498144,143.98,19.41,4,117.13,21 / 22,8128714,2019-11-06 18:21:49:176,3.4627,3.8449,9.3789,-0.0089,-0.0162,9.8066,-0.0045,0.222,-0.2126,-25.56,-36.5,22.44,240.21,-89.94,110.03
52.563107,-1.498144,143.98,19.41,4,117.13,21 / 22,8128814,2019-11-06 18:21:49:276,-1.7672,1.212,8.6327,0.0864,0.0344,9.8061,-0.0745,-0.0375,0.0848,-25.37,-37.25,22,281.84,-89.58,150.95
52.563107,-1.498144,143.98,19.41,4,117.13,21 / 22,8128914,2019-11-06 18:21:49:376,-3.298,-6.2603,10.5528,-0.0339,-0.0817,9.8062,0.0579,1.0383,-0.5696,-24.62,-36.31,22.13,276.38,-89.49,145.59
52.563107,-1.498144,143.98,19.41,4,117.13,21 / 22,8129014,2019-11-06 18:21:49:476,2.5032,0.7915,8.6459,0.0087,-0.0325,9.8065,-0.0392,1.0979,-0.409,-25.12,-36.62,22.69,290.42,-89.33,158.49
52.563107,-1.498144,143.98,19.41,4,117.13,21 / 22,8129113,2019-11-06 18:21:49:575,-9.9387,-6.6951,10.2622,-0.0497,-0.0923,9.8061,-0.0283,0.456,-0.1703,-25.25,-36.56,22.31,286.31,-89.1,155.92
52.563107,-1.498144,143.98,19.41,4,117.13,21 / 22,8129213,2019-11-06 18:21:49:675,3.001,4.3658,10.1213,-0.1086,-0.1602,9.8047,-0.0985,1.4046,-0.7955,-25.19,-36.69,22.19,334.06,-88.98,-156.79
52.563107,-1.498144,143.98,19.41,4,117.13,21 / 22,8129314,2019-11-06 18:21:49:776,-5.1997,-7.3945,10.3001,-0.0203,-0.0388,9.8065,0.0605,-0.2889,0.171,-25.06,-36.37,22.56,306.66,-89.18,174.75
52.563107,-1.498144,143.98,19.41,4,117.13,21 / 22,8129414,2019-11-06 18:21:49:876,3.2241,5.4961,9.0108,-0.0652,-0.1225,9.8056,-0.0919,0.7763,-0.4329,-25.25,-36.62,22.25,337.13,-88.87,-153.73
52.563107,-1.498144,143.98,19.41,4,117.13,21 / 22,8129514,2019-11-06 18:21:49:976,0.993,2.6629,10.2116,0.0257,0.0358,9.8065,0.057,-0.5772,0.2977,-25.37,-36.37,21.81,313.14,-89.09,-177.49
52.563107,-1.498144,143.98,19.41,4,117.13,21 / 22,8129613,2019-11-06 18:21:50:075,4.769,5.0887,8.9112,-0.0179,-0.0522,9.8064,0.0049,0.2613,-0.1188,-25.06,-37.12,21.63,324.3,-88.95,-166.37
52.563107,-1.498144,143.98,19.41,4,117.13,21 / 22,8129714,2019-11-06 18:21:50:176,-0.8407,0.3279,10.0908,0.0243,0.061,9.8064,0.1261,-0.6589,0.2686,-25.37,-36.94,22.69,318.49,-88.85,-173.29
52.563107,-1.498144,143.98,19.41,4,117.13,21 / 22,8129813,2019-11-06 18:21:50:275,-2.0568,-3.0925,10.1124,0.0031,-0.0079,9.8066,-0.0113,-0.0579,0.0663,-25.37,-36.25,21.75,304.76,-88.86,174.43
52.563107,-1.498144,143.98,19.41,4,117.13,20 / 23,8129913,2019-11-06 18:21:50:375,-0.8791,-0.9043,9.5929,0.0254,0.0624,9.8064,0.0178,-0.4409,0.238,-25,-36.25,22.38,309.15,-88.88,178.74
52.563107,-1.498144,143.98,19.41,4,117.13,20 / 23,8130013,2019-11-06 18:21:50:475,-1.5753,-1.0888,10.806,-0.0056,0.0127,9.8065,0.046,0.3904,-0.2164,-25,-36.31,22,297.51,-89.01,167.11
52.563107,-1.498144,143.98,19.41,4,117.13,20 / 23,8130113,2019-11-06 18:21:50:575,3.0137,1.4282,9.0242,0.029,0.0342,9.8065,-0.0906,0.1544,-0.0659,-25.25,-36.37,21.81,303.73,-88.82,173.45
52.563107,-1.498144,143.98,19.41,4,117.13,20 / 23,8130214,2019-11-06 18:21:50:676,0.386,-0.0464,9.4679,-0.0244,-0.0019,9.8066,-0.1099,0.1967,0.0233,-26,-36.19,22.13,299.98,-88.76,170.89
52.563107,-1.498144,143.98,19.41,4,117.13,20 / 23,8130314,2019-11-06 18:21:50:776,1.1963,0.3745,9.6621,-0.0217,0.0144,9.8065,-0.0488,0.12,-0.0285,-25.69,-36.81,22.13,305.82,-88.79,176.66
52.563107,-1.498144,143.98,19.41,4,117.13,20 / 23,8130414,2019-11-06 18:21:50:876,-1.9019,-1.4087,9.5727,0.0022,0.0051,9.8066,0.0188,0.1863,-0.0666,-25.5,-36.56,22.75,319.86,-88.97,-172.03
52.563107,-1.498144,143.98,19.41,4,117.13,20 / 23,8130513,2019-11-06 18:21:50:975,-2.8349,0.1085,9.0256,0.0235,0.0286,9.8065,-0.0511,0.1656,-0.1074,-26.06,-36.25,21.69,324.66,-89.01,-164.97
52.563107,-1.498144,143.98,19.41,4,117.13,20 / 23,8130613,2019-11-06 18:21:51:075,-0.3017,-2.2736,11.1624,-0.0192,0.0237,9.8066,-0.0289,0.1499,-0.1074,-25.62,-36.31,22.56,338.9,-89.12,-152.27
52.563107,-1.498144,143.98,19.41,4,117.13,20 / 23,8130713,2019-11-06 18:21:51:175,0.8293,0.6454,8.8667,-0.0067,0.0277,9.8065,-0.0927,0.3262,-0.1613,-25.81,-36.44,21.88,321.13,-88.97,-168.42
52.563107,-1.498144,143.98,19.41,4,117.13,20 / 23,8130813,2019-11-06 18:21:51:275,-0.6886,-1.1954,9.3933,0.0428,0.0365,9.8065,0.0013,0.1503,-0.1191,-25.56,-36.56,22.19,306.32,-88.93,177.03
52.563107,-1.498144,143.98,19.41,4,117.13,23 / 23,8130913,2019-11-06 18:21:51:375,0.7757,1.6429,10.431,0.0014,-0.0239,9.8065,-0.0763,-0.2352,0.2256,-25.31,-36.06,22.69,310.58,-88.96,178.81
52.563107,-1.498144,143.98,19.41,4,117.13,23 / 23,8131014,2019-11-06 18:21:51:476,0.2546,-1.8022,10.6541,0.0183,0.0137,9.8066,0.1479,-0.2543,0.1181,-25.69,-36.62,22.25,314.25,-88.71,-174.97
52.563107,-1.498144,143.98,19.41,4,117.13,23 / 23,8131114,2019-11-06 18:21:51:576,2.4176,-0.5492,9.8907,0.0042,0.0022,9.8066,-0.0752,-0.163,0.0602,-25,-36.62,22.81,317.01,-88.4,-174.4
52.563107,-1.498144,143.98,19.41,4,117.13,23 / 23,8131214,2019-11-06 18:21:51:676,-0.3267,-1.4781,9.2075,0.005,0.0178,9.8065,-0.0464,-0.1045,0.0605,-25.06,-36.25,21.94,314.99,-88.44,-175.15
52.563107,-1.498144,143.98,19.41,4,117.13,23 / 23,8131313,2019-11-06 18:21:51:775,0.4892,0.3941,9.352,-0.0101,0.0196,9.8066,-0.0464,-0.1912,0.1437,-25.5,-36.12,22.13,318.29,-88.6,-172.04
52.563107,-1.498144,143.98,19.41,4,117.13,23 / 23,8131413,2019-11-06 18:21:51:875,-0.6558,-1.1466,10.2497,0.0189,0.0257,9.8065,-0.0728,-0.0968,0.1164,-26,-36.06,22.38,316.5,-88.86,-172.9
52.563107,-1.498144,143.98,19.41,4,117.13,23 / 23,8131513,2019-11-06 18:21:51:975,0.6001,1.036,9.8647,0.0246,-0.0018,9.8066,0.064,-0.134,-0.0099,-25.87,-35,21.94,315.53,-88.78,-173.83
52.563107,-1.498144,143.98,19.41,4,117.13,23 / 23,8131613,2019-11-06 18:21:52:075,1.2875,-1.2142,10.7503,0.0093,0.019,9.8065,0.1059,-0.1052,0.0192,-25.5,-35.5,21.88,311.7,-88.64,-178.57
52.563107,-1.498144,143.98,19.41,4,117.13,23 / 23,8131713,2019-11-06 18:21:52:175,0.7156,-0.4088,10.7384,-0.0077,0.0031,9.8066,-0.0352,-0.0511,-0.0224,-25.31,-34.44,22.75,316.94,-88.53,-174.66
52.563107,-1.498144,143.98,19.41,4,117.13,23 / 23,8131813,2019-11-06 18:21:52:275,-0.1497,-1.7613,8.9077,0.0187,0.0111,9.8066,-0.055,-0.1081,0.0383,-25.37,-35.5,22.44,313.02,-88.73,-177.34
52.563107,-1.498144,143.98,19.41,4,117.13,22 / 23,8131913,2019-11-06 18:21:52:375,1.8695,0.1905,10.6452,0.0504,0.0131,9.8065,-0.1351,-0.0998,0.2161,-25.44,-35.62,23.13,325.74,-88.97,-166.25
52.563107,-1.498144,143.98,19.41,4,117.13,22 / 23,8132014,2019-11-06 18:21:52:476,2.4245,-0.2515,10.0725,-0.0213,-0.0072,9.8065,-0.0471,-0.1043,0.0512,-25.19,-36.69,22.31,322,-89.01,-168.67
52.563107,-1.498144,143.98,19.41,4,117.13,22 / 23,8132114,2019-11-06 18:21:52:576,-0.2426,-0.1756,10.0235,-0.005,0.0093,9.8066,0.0899,-0.1206,-0.0121,-25,-35.62,22.56,310.96,-88.85,179.27
52.563107,-1.498144,143.98,19.41,4,117.13,22 / 23,8132213,2019-11-06 18:21:52:675,1.1393,-1.4,10.1073,0.0153,-0.0145,9.8066,0.088,-0.033,0.07,-25.06,-36.81,22.81,308.07,-88.7,176.58
52.563107,-1.498144,143.98,19.41,4,117.13,22 / 23,8132314,2019-11-06 18:21:52:776,-0.3475,-0.3137,9.1962,-0.0014,0.0036,9.8066,-0.0607,-0.1118,0.0151,-24.69,-36.56,22.06,298.73,-88.72,168.63
52.563107,-1.498144,143.98,19.41,4,117.13,22 / 23,8132414,2019-11-06 18:21:52:876,0.1646,0.014,9.9351,-0.0023,0.0042,9.8066,-0.0512,-0.1211,0.1505,-25.5,-36.94,22.5,301.03,-88.87,169.47
52.563107,-1.498144,143.98,19.41,4,117.13,22 / 23,8132514,2019-11-06 18:21:52:976,0.5506,0.2055,9.8576,0.0019,-0.0052,9.8066,0.0263,-0.0574,-0.0291,-25.06,-36.25,22.06,304.31,-88.82,174.03
52.563107,-1.498144,143.98,19.41,4,117.13,22 / 23,8132614,2019-11-06 18:21:53:076,0.5706,-1.1685,9.8505,0.0195,0.0069,9.8066,0.0241,-0.1187,-0.0604,-24.94,-36.25,22.69,301.62,-88.62,170.25
52.563107,-1.498144,143.98,19.41,4,117.13,22 / 23,8132714,2019-11-06 18:21:53:176,1.37,0.1609,10.0437,0.0185,0.0175,9.8066,-0.004,-0.0137,0.1008,-25.06,-36.06,22.38,307.7,-88.45,177.69
52.563107,-1.498144,143.98,19.41,4,117.13,22 / 23,8132814,2019-11-06 18:21:53:276,-0.5495,-1.7527,9.6829,0.0018,0.0066,9.8066,-0.0764,0.0008,-0.0238,-25.06,-37.31,23.06,306.04,-88.48,174.78
52.563107,-1.498144,143.98,19.41,4,117.13,21 / 21,8132914,2019-11-06 18:21:53:376,2.3307,-0.1038,9.1441,-0.0047,0.0298,9.8065,-0.051,0.094,0.0318,-25.19,-36.25,22.88,311.23,-88.53,179.79
52.563107,-1.498144,143.98,19.41,4,117.13,21 / 21,8133013,2019-11-06 18:21:53:475,0.1591,-1.5108,9.8858,-0.0082,0.0205,9.8066,-0.0132,0.0511,-0.014,-25,-36.62,22.13,306.83,-88.82,176.54
52.563107,-1.498144,143.98,19.41,4,117.13,21 / 21,8133114,2019-11-06 18:21:53:576,0.9741,0.0747,9.462,-0.002,0.0145,9.8065,0.053,0.0517,-0.1025,-25.12,-36.75,21.56,303.11,-88.77,172.91
52.563107,-1.498144,143.98,19.41,4,117.13,21 / 21,8133214,2019-11-06 18:21:53:676,0.7208,-0.8998,10.1883,0.0086,0.0082,9.8066,0.026,0.0362,0.0082,-24.94,-36.06,22.5,302.91,-88.84,171.33
52.563107,-1.498144,143.98,19.41,4,117.13,21 / 21,8133313,2019-11-06 18:21:53:775,0.8972,1.1711,9.9057,0.0038,0.0017,9.8066,-0.0199,0.0319,-0.0759,-24.94,-36.25,21.44,302.51,-88.81,173.59
52.563107,-1.498144,143.98,19.41,4,117.13,21 / 21,8133413,2019-11-06 18:21:53:875,-0.0866,-1.6865,9.884,0.0113,0.0094,9.8066,0.024,0.048,-0.0178,-24.75,-36.75,22.56,308.15,-88.76,176.61
52.563107,-1.498144,143.98,19.41,4,117.13,21 / 21,8133513,2019-11-06 18:21:53:975,0.2632,0.3565,9.3054,0.0099,0.0078,9.8066,-0.0179,0.0769,-0.0783,-25,-36.25,21.94,306.38,-88.81,176.08
52.563107,-1.498144,143.98,19.41,4,117.13,21 / 21,8133614,2019-11-06 18:21:54:076,-1.1812,-1.1868,10.4828,0.0242,0.0207,9.8065,-0.1206,0.0995,-0.1039,-25.12,-36.87,21.88,308.82,-88.73,178.57
52.563107,-1.498144,143.98,19.41,4,117.13,21 / 21,8133714,2019-11-06 18:21:54:176,0.4779,1.507,8.9478,-0.0212,0.0388,9.8065,-0.0181,0.1548,-0.004,-24.94,-36.81,21.63,315.66,-88.67,-174.64
52.563107,-1.498144,143.98,19.41,4,117.13,21 / 21,8133813,2019-11-06 18:21:54:275,1.0172,-0.3699,8.2705,0.0095,0.0221,9.8066,-0.0044,0.0844,-0.119,-24.56,-37.25,20.88,310.37,-88.99,-178.78
52.5624,-1.495742,146.16,21.34,4,115.91,21 / 22,8133915,2019-11-06 18:21:54:377,1.9655,1.0562,10.6387,0.0122,0.0129,9.8066,0.1452,0.2697,-0.0727,-24.62,-38,21.63,319.24,-88.89,-171.27
52.5624,-1.495742,146.16,21.34,4,115.91,21 / 22,8134013,2019-11-06 18:21:54:475,-2.7846,-0.2124,10.5432,0.0211,0.024,9.8065,0.0145,0.2991,-0.1816,-24.69,-37.69,21.81,314.45,-89.08,-176.14
52.5624,-1.495742,146.16,21.34,4,115.91,21 / 22,8134114,2019-11-06 18:21:54:576,2.1054,0.1019,10.252,0.0244,-0.01,9.8066,-0.0201,0.3135,-0.0283,-24.81,-37.37,23.31,322.57,-89.02,-169.39
52.5624,-1.495742,146.16,21.34,4,115.91,21 / 22,8134214,2019-11-06 18:21:54:676,-0.995,-1.8955,10.4034,0.0214,0.0163,9.8066,-0.0791,0.2192,-0.0963,-25.19,-36.25,23,318.43,-88.87,-173.38
52.5624,-1.495742,146.16,21.34,4,115.91,21 / 22,8134313,2019-11-06 18:21:54:775,0.3822,-1.1272,9.0516,-0.0158,0.0004,9.8066,0.028,0.1521,-0.0436,-25.31,-36.12,22.75,326.35,-88.83,-165.57
52.5624,-1.495742,146.16,21.34,4,115.91,21 / 22,8134413,2019-11-06 18:21:54:875,-1.4091,-2.3384,10.0635,0.0117,0.0363,9.8065,0.0408,0.135,-0.1677,-25.37,-36.44,22.63,330.02,-89.16,-162.14
52.5624,-1.495742,146.16,21.34,4,115.91,21 / 22,8134513,2019-11-06 18:21:54:975,0.8758,-0.1431,10.445,0.0226,-0.0074,9.8066,0.0758,0.1595,-0.0705,-25.06,-36.5,22.44,338.52,-89.15,-152.49
52.5624,-1.495742,146.16,21.34,4,115.91,21 / 22,8134613,2019-11-06 18:21:55:075,0.7547,-0.2689,10.2471,0.0402,0.0178,9.8065,-0.0521,0.0389,-0.0635,-24.56,-36.5,22.25,315.46,-88.9,-175.05
52.5624,-1.495742,146.16,21.34,4,115.91,21 / 22,8134714,2019-11-06 18:21:55:176,2.1616,0.2775,9.7889,-0.0103,-0.0003,9.8066,-0.0448,0.0696,0.0306,-25.44,-36.19,22.69,315.17,-88.76,-176.51
52.5624,-1.495742,146.16,21.34,4,115.91,21 / 22,8134814,2019-11-06 18:21:55:276,-0.2328,-1.4235,9.6217,0.0047,0.0156,9.8065,-0.0354,-0.0047,-0.0289,-25.25,-36,22.88,311.11,-88.77,179.48
52.5624,-1.495742,146.16,21.34,4,115.91,22 / 23,8134913,2019-11-06 18:21:55:375,0.0565,-0.8959,9.585,-0.0128,-0.0032,9.8066,-0.0267,0.02,0.0244,-25.25,-36.87,22.19,314,-88.76,-176.35
52.5624,-1.495742,146.16,21.34,4,115.91,22 / 23,8135013,2019-11-06 18:21:55:475,-0.8631,-1.4563,10.6738,0.01,0.0158,9.8066,0.0434,-0.0297,-0.019,-25.44,-36.62,22.19,313.73,-88.88,-176.71
52.5624,-1.495742,146.16,21.34,4,115.91,22 / 23,8135114,2019-11-06 18:21:55:576,0.9685,-0.1873,10.47,0.01,-0.0093,9.8065,0.0205,-0.0311,-0.0015,-25.19,-36.31,22.25,313.77,-88.85,-176.68
52.5624,-1.495742,146.16,21.34,4,115.91,22 / 23,8135214,2019-11-06 18:21:55:676,1.4837,-0.6563,9.9656,0.0148,0.0065,9.8065,-0.0317,0.0094,0.0548,-24.81,-36.25,22.38,309.22,-88.67,179
52.5624,-1.495742,146.16,21.34,4,115.91,22 / 23,8135314,2019-11-06 18:21:55:776,-0.8098,-0.4155,9.0376,-0.0137,-0.0028,9.8065,0.0656,-0.087,0.0152,-25.06,-37,22.06,313.78,-88.64,-176.47
52.5624,-1.495742,146.16,21.34,4,115.91,22 / 23,8135414,2019-11-06 18:21:55:876,0.5027,0.4101,10.6585,-0.0279,-0.0144,9.8065,0.0488,-0.1423,0.0143,-25.5,-36.19,21.94,323.72,-88.85,-166.88
52.5624,-1.495742,146.16,21.34,4,115.91,22 / 23,8135514,2019-11-06 18:21:55:976,-1.2476,-0.9965,8.831,-0.0327,-0.0332,9.8065,0.0116,-0.2047,0.2179,-25.75,-36.25,22.25,307.6,-88.98,178.23
52.5624,-1.495742,146.16,21.34,4,115.91,22 / 23,8135614,2019-11-06 18:21:56:076,3.0501,1.2855,9.8708,-0.004,-0.0233,9.8066,-0.0949,-0.296,0.2296,-25.94,-36.25,22.06,316.7,-88.84,-172.69
52.5624,-1.495742,146.16,21.34,4,115.91,22 / 23,8135714,2019-11-06 18:21:56:176,0.8251,-0.0866,9.9405,-0.0141,-0.0466,9.8065,0.0805,-0.3154,0.1885,-25.25,-36.75,22.31,312.45,-88.91,-178
52.5624,-1.495742,146.16,21.34,4,115.91,22 / 23,8135814,2019-11-06 18:21:56:276,0.9248,1.1306,9.5579,-0.0068,-0.0217,9.8066,0.1528,-0.2223,0.0368,-25.37,-36.81,21.69,326.04,-88.85,-164.58
52.5624,-1.495742,146.16,21.34,4,115.91,21 / 23,8135914,2019-11-06 18:21:56:376,0.0581,-2.8279,10.4147,0.0083,-0.0364,9.8065,0.1423,-0.2179,0.0096,-25.12,-36.62,21.75,330.99,-88.71,-159.65
52.5624,-1.495742,146.16,21.34,4,115.91,21 / 23,8136014,2019-11-06 18:21:56:476,2.6847,0.1664,10.6672,-0.0128,-0.0132,9.8066,-0.0732,-0.0895,0.0762,-25.25,-36.69,22.69,324.43,-88.57,-167.27
52.5624,-1.495742,146.16,21.34,4,115.91,21 / 23,8136113,2019-11-06 18:21:56:575,0.7483,-0.0436,10.7431,-0.04,0.0023,9.8065,-0.1259,0.0116,0.0498,-25.19,-36.06,22.5,318.28,-88.44,-173.22
52.5624,-1.495742,146.16,21.34,4,115.91,21 / 23,8136213,2019-11-06 18:21:56:675,-0.2581,1.1455,9.6608,0.0191,-0.0159,9.8066,-0.0457,0.0126,-0.0167,-25.69,-36.44,21.88,318.35,-88.55,-170.86
52.5624,-1.495742,146.16,21.34,4,115.91,21 / 23,8136314,2019-11-06 18:21:56:776,1.4523,-1.188,10.3899,0.0084,-0.0037,9.8066,0.0049,0.0689,-0.0331,-25.5,-36,22.06,320.73,-88.58,-169.64
52.5624,-1.495742,146.16,21.34,4,115.91,21 / 23,8136414,2019-11-06 18:21:56:876,1.1849,-0.2242,9.6654,-0.0393,0.0084,9.8065,0.0644,-0.0111,-0.0618,-25,-36.56,22.69,330.68,-88.86,-161.32
52.5624,-1.495742,146.16,21.34,4,115.91,21 / 23,8136514,2019-11-06 18:21:56:976,-0.6549,-0.1588,9.0649,-0.038,0.008,9.8065,-0.0464,0.0597,0.0287,-25.44,-36.31,22.31,336.56,-89.01,-154.36
52.5624,-1.495742,146.16,21.34,4,115.91,21 / 23,8136614,2019-11-06 18:21:57:076,1.225,-0.2563,9.6016,0.0085,-0.0004,9.8066,-0.0688,-0.0438,0.0482,-25.19,-36.5,22,327.99,-88.94,-162.74
52.5624,-1.495742,146.16,21.34,4,115.91,21 / 23,8136714,2019-11-06 18:21:57:176,1.5489,0.565,9.9596,0.0226,-0.0054,9.8066,0.0031,-0.0917,0.0889,-24.87,-36.56,22.56,322.69,-89,-169.26
52.5624,-1.495742,146.16,21.34,4,115.91,21 / 23,8136814,2019-11-06 18:21:57:276,0.4934,0.3241,10.0008,0.0111,-0.0009,9.8066,0.0164,-0.0347,0.0224,-24.87,-36.06,22.44,314.7,-88.88,-175.78
52.5624,-1.495742,146.16,21.34,4,115.91,21 / 23,8136914,2019-11-06 18:21:57:376,0.1846,-0.4956,8.8034,-0.0217,0.0042,9.8065,0.0667,-0.1047,0.0286,-25,-35.5,22.94,318.73,-89.01,-173.21
52.5624,-1.495742,146.16,21.34,4,115.91,21 / 23,8137014,2019-11-06 18:21:57:476,-1.0493,-0.8415,10.0201,-0.0009,0.0138,9.8066,0.0344,-0.097,0.0023,-25.19,-35.25,22.44,314.69,-89.07,-175.96
52.5624,-1.495742,146.16,21.34,4,115.91,21 / 23,8137113,2019-11-06 18:21:57:575,1.336,-0.3499,9.8164,-0.0028,-0.0145,9.8065,-0.0275,-0.067,0.0229,-25.25,-35.5,22.56,309.73,-89.06,177.87
52.5624,-1.495742,146.16,21.34,4,115.91,21 / 23,8137213,2019-11-06 18:21:57:675,0.4954,0.267,10.0433,0.0068,-0.003,9.8066,-0.0344,-0.0099,0.0138,-25.5,-36.19,21.88,315.49,-89.01,-175.1
52.5624,-1.495742,146.16,21.34,4,115.91,21 / 23,8137314,2019-11-06 18:21:57:776,-0.1907,-0.4911,9.8073,-0.0038,-0.0032,9.8066,0.0994,0.0698,-0.0624,-25.06,-35.69,22.13,318.67,-89.02,-171.98
52.5624,-1.495742,146.16,21.34,4,115.91,21 / 23,8137414,2019-11-06 18:21:57:876,1.2932,0.8025,9.1181,-0.0157,-0.0133,9.8066,-0.0492,0.1062,-0.1307,-25.56,-36.81,21.81,322.73,-88.96,-166.82
52.5624,-1.495742,146.16,21.34,4,115.91,21 / 23,8137514,2019-11-06 18:21:57:976,-0.2144,-1.3058,10.217,-0.004,-0.0133,9.8066,-0.0777,0.1415,-0.0028,-25.62,-36.75,21.5,318.58,-88.93,-170.88
52.5624,-1.495742,146.16,21.34,4,115.91,21 / 23,8137614,2019-11-06 18:21:58:076,0.1024,0.5889,9.9766,0.024,-0.0186,9.8066,-0.144,0.2154,-0.0559,-24.94,-36.87,21.75,316.33,-88.84,-174.12
52.5624,-1.495742,146.16,21.34,4,115.91,21 / 23,8137714,2019-11-06 18:21:58:176,0.226,-1.4975,9.8011,-0.0056,-0.0256,9.8066,0.0372,0.1993,-0.0729,-25.12,-36.25,21.94,310.79,-88.94,-179.68
52.5624,-1.495742,146.16,21.34,4,115.91,21 / 23,8137814,2019-11-06 18:21:58:276,1.111,1.2237,10.325,-0.0333,-0.0098,9.8066,0.0863,0.1476,-0.0953,-25.44,-36.19,22,323.02,-88.99,-167.67
52.5624,-1.495742,146.16,21.34,4,115.91,20 / 22,8137914,2019-11-06 18:21:58:376,0.113,-1.2213,10.0518,-0.0099,-0.0198,9.8066,0.0536,0.0965,-0.0309,-24.94,-36.25,22.19,321.19,-89.02,-169.49
52.5624,-1.495742,146.16,21.34,4,115.91,20 / 22,8138014,2019-11-06 18:21:58:476,0.9662,-0.6974,9.8666,0.0031,-0.0059,9.8066,-0.0087,0.0122,-0.0022,-24.81,-36,21.81,324.58,-88.87,-166.05
52.5624,-1.495742,146.16,21.34,4,115.91,20 / 22,8138113,2019-11-06 18:21:58:575,-0.2629,-0.5552,10.0651,-0.0085,0.0028,9.8066,-0.1012,-0.0544,0.0691,-25.25,-36.87,21.69,326.13,-88.96,-164.57
52.5624,-1.495742,146.16,21.34,4,115.91,20 / 22,8138213,2019-11-06 18:21:58:675,0.863,0.1729,9.2352,-0.0003,-0.0068,9.8066,-0.0506,-0.0407,0.1152,-25.44,-36.56,21.69,337.22,-89.06,-153.72
52.5624,-1.495742,146.16,21.34,4,115.91,20 / 22,8138313,2019-11-06 18:21:58:775,1.6772,0.5336,9.9545,0.0194,0.0151,9.8066,0.0246,-0.1678,0.0472,-25.44,-36.69,21.25,346.63,-88.99,-143.14
52.5624,-1.495742,146.16,21.34,4,115.91,20 / 22,8138413,2019-11-06 18:21:58:875,0.4233,0.6849,10.7444,-0.0009,0.0029,9.8066,0.0598,-0.057,0.0289,-25.06,-36.5,21.81,337.42,-88.93,-153.48
52.5624,-1.495742,146.16,21.34,4,115.91,20 / 22,8138514,2019-11-06 18:21:58:976,0.5989,-0.2231,9.8013,0.0147,0.0186,9.8066,-0.0069,-0.0927,0.0382,-24.56,-36.81,21.38,330.66,-88.91,-158.76
52.5624,-1.495742,146.16,21.34,4,115.91,20 / 22,8138613,2019-11-06 18:21:59:075,-0.4786,-0.4906,9.7284,-0.0008,0.0045,9.8066,-0.02,-0.099,0.0536,-24.87,-36.69,22.44,325.88,-89.01,-164.85
52.5624,-1.495742,146.16,21.34,4,115.91,20 / 22,8138714,2019-11-06 18:21:59:176,0.3612,-1.2697,9.8993,0.0006,0.0054,9.8066,0.0077,-0.141,0.075,-25.37,-36.44,21.81,334.57,-89.11,-156.37
52.5624,-1.495742,146.16,21.34,4,115.91,20 / 22,8138814,2019-11-06 18:21:59:276,-0.7869,-0.9048,10.4311,0.0028,-0.0022,9.8066,0.0575,-0.1813,0.0824,-25.37,-36.81,21.94,340.79,-89.06,-150.21
52.5624,-1.495742,146.16,21.34,4,115.91,21 / 21,8138914,2019-11-06 18:21:59:376,1.1983,0.6193,9.9452,0.0215,0.0122,9.8066,0.0033,-0.1671,0.099,-25.31,-35.87,21.88,341.52,-88.94,-149.46
52.5624,-1.495742,146.16,21.34,4,115.91,21 / 21,8139014,2019-11-06 18:21:59:476,0.7451,-1.2257,10.002,0.0015,0.0083,9.8066,0.0017,-0.1316,0.0975,-25.31,-36.56,22.25,337.43,-88.91,-153.45
52.5624,-1.495742,146.16,21.34,4,115.91,21 / 21,8139114,2019-11-06 18:21:59:576,1.2291,0.3804,10.203,0.0091,0.0113,9.8066,0.0277,0.0057,0.0077,-25.69,-36.12,22.31,340.75,-88.9,-149.1
52.5624,-1.495742,146.16,21.34,4,115.91,21 / 21,8139214,2019-11-06 18:21:59:676,1.0777,-1.018,10.7406,-0.0197,-0.0095,9.8066,-0.0067,0.0734,-0.0035,-25.56,-36.37,21.94,343.77,-88.93,-146.15
52.5624,-1.495742,146.16,21.34,4,115.91,21 / 21,8139313,2019-11-06 18:21:59:775,0.8517,-1.0728,10.2353,0.0343,-0.0177,9.8066,-0.0147,0.0047,0.0201,-25.31,-36.5,21.69,339.44,-88.9,-151.49
52.5624,-1.495742,146.16,21.34,4,115.91,21 / 21,8139413,2019-11-06 18:21:59:875,0.1403,1.0826,10.0895,0.0108,-0.0192,9.8066,0.0198,-0.0965,0.0906,-25.62,-36.06,22.25,331.84,-88.59,-157.68
52.5624,-1.495742,146.16,21.34,4,115.91,21 / 21,8139513,2019-11-06 18:21:59:975,1.6768,-1.0568,9.5368,-0.0047,-0.0122,9.8066,-0.0771,0.0944,-0.0785,-25.56,-36,22,329.55,-88.65,-159.96
52.5624,-1.495742,146.16,21.34,4,115.91,21 / 21,8139614,2019-11-06 18:22:00:076,-0.2904,-0.1116,9.3154,-0.0033,0.0134,9.8065,-0.0631,0.1314,-0.033,-25.56,-35.87,22.31,333.48,-88.74,-156.15
52.5624,-1.495742,146.16,21.34,4,115.91,21 / 21,8139714,2019-11-06 18:22:00:176,1.3789,1.1607,8.7178,0.0166,-0.0273,9.8066,-0.0944,0.2737,-0.1354,-25.81,-35.56,22.69,332.23,-88.63,-158.6
52.5624,-1.495742,146.16,21.34,4,115.91,21 / 21,8139814,2019-11-06 18:22:00:276,1.9933,-0.2455,10.147,0.0044,0.0129,9.8066,-0.1743,0.1826,-0.079,-26.12,-35.56,22.25,325.7,-88.79,-163.81
52.5624,-1.495742,146.16,21.34,4,115.91,22 / 22,8139914,2019-11-06 18:22:00:376,-2.549,-1.1378,9.3347,-0.0364,-0.0256,9.8065,0.0712,0.0459,-0.0346,-25.56,-36.31,21.88,319.78,-88.75,-169.59
52.5624,-1.495742,146.16,21.34,4,115.91,22 / 22,8140013,2019-11-06 18:22:00:475,0.5193,0.0446,9.2846,0.0163,-0.0151,9.8066,0.1534,-0.0386,-0.1348,-25.62,-36,21.44,321.34,-88.73,-166.73
52.5624,-1.495742,146.16,21.34,4,115.91,22 / 22,8140114,2019-11-06 18:22:00:576,-0.1579,-1.1747,10.0363,0.019,-0.0176,9.8065,0,-0.0864,0.121,-24.75,-35.69,21.81,327.92,-88.69,-162.67
52.5624,-1.495742,146.16,21.34,4,115.91,22 / 22,8140214,2019-11-06 18:22:00:676,1.2336,-0.6565,9.5169,-0.0335,-0.0239,9.8065,-0.0527,-0.182,0.1559,-24.94,-35.87,21.81,333.88,-88.55,-156.77
52.5624,-1.495742,146.16,21.34,4,115.91,22 / 22,8140313,2019-11-06 18:22:00:775,0.7031,-1.4775,8.6196,0.013,-0.0163,9.8065,-0.1814,-0.0179,0.0821,-25.37,-36.19,21.38,329.92,-88.41,-159.22
52.5624,-1.495742,146.16,21.34,4,115.91,22 / 22,8140413,2019-11-06 18:22:00:875,3.569,-1.7435,11.6729,-0.0141,0.0207,9.8066,-0.1859,0.2639,0.0399,-25.37,-36.5,21.69,321.98,-88.42,-168.3
52.5624,-1.495742,146.16,21.34,4,115.91,22 / 22,8140514,2019-11-06 18:22:00:976,0.5046,-1.7053,8.876,-0.0495,0.0121,9.8065,0.3081,-0.2203,0.3381,-24.75,-36.12,21.75,320.22,-88.19,-169.86
52.5624,-1.495742,146.16,21.34,4,115.91,22 / 22,8140614,2019-11-06 18:22:01:076,-2.7301,-0.3145,10.1801,0.0161,-0.0331,9.8065,0.2021,-0.1855,-0.376,-25.19,-36.25,22.25,320.82,-88.54,-169.52
52.5624,-1.495742,146.16,21.34,4,115.91,22 / 22,8140714,2019-11-06 18:22:01:176,1.0886,-1.8696,10.1774,0.0491,0.0148,9.8065,0.0693,-0.103,-0.016,-24.87,-36.25,22.75,348.58,-88.78,-143.78
52.5624,-1.495742,146.16,21.34,4,115.91,22 / 22,8140813,2019-11-06 18:22:01:275,1.4551,-0.2779,10.7106,-0.0218,-0.0259,9.8065,-0.1681,0.0284,0.0689,-25.06,-36.37,22.31,347.3,-88.82,-143.76
52.5624,-1.495742,146.16,21.34,4,115.91,22 / 23,8140913,2019-11-06 18:22:01:375,0.1449,0.3589,8.4897,-0.021,0.034,9.8066,-0.2072,0.0439,-0.0535,-24.75,-35.94,21.69,340.53,-88.99,-150.45
52.5624,-1.495742,146.16,21.34,4,115.91,22 / 23,8141013,2019-11-06 18:22:01:475,0.255,-1.4203,10.1829,-0.0061,0.0013,9.8066,-0.051,0.1846,-0.0384,-25.12,-36.56,21.44,337.9,-88.87,-151.64
52.5624,-1.495742,146.16,21.34,4,115.91,22 / 23,8141113,2019-11-06 18:22:01:575,0.8187,0.2691,9.2997,0.0194,0.0137,9.8065,0.0561,0.0928,-0.1916,-24.75,-36.81,21.94,339.11,-88.98,-151.83
52.5624,-1.495742,146.16,21.34,4,115.91,22 / 23,8141213,2019-11-06 18:22:01:675,-0.7402,-0.1998,10.3823,-0.0054,0.0149,9.8066,-0.0741,0.1171,-0.0183,-25,-36.12,21.5,336.7,-89.02,-154.23
52.5624,-1.495742,146.16,21.34,4,115.91,22 / 23,8141314,2019-11-06 18:22:01:776,-2.4707,0.7658,9.7225,-0.0347,0.0093,9.8065,-0.1256,-0.0024,0.0621,-24.81,-37.19,21.69,326.56,-89.04,-164.19
52.5624,-1.495742,146.16,21.34,4,115.91,22 / 23,8141414,2019-11-06 18:22:01:876,-1.2248,0.2042,9.3818,0.02,-0.0198,9.8066,0.1669,-0.1332,0.0463,-25.06,-36.12,21.44,329.78,-89.1,-159.75
52.5624,-1.495742,146.16,21.34,4,115.91,22 / 23,8141514,2019-11-06 18:22:01:976,-0.4636,-0.4527,9.8065,0.026,-0.0307,9.8065,0.1328,-0.1201,-0.0214,-25.31,-36.87,21.31,344.23,-89.11,-145.53
52.5624,-1.495742,146.16,21.34,4,115.91,22 / 23,8141614,2019-11-06 18:22:02:076,-0.2709,0.4965,10.0402,-0.0284,-0.0011,9.8066,-0.1199,-0.0178,0.0799,-26.06,-37,22,6.73,-89.18,-123.61
52.5624,-1.495742,146.16,21.34,4,115.91,22 / 23,8141714,2019-11-06 18:22:02:176,0.3295,0.5601,10.6745,-0.0341,-0.0034,9.8066,-0.0981,-0.0618,0.1232,-25.31,-37.19,21.63,353.02,-89.2,-138.21
52.5624,-1.495742,146.16,21.34,4,115.91,22 / 23,8141813,2019-11-06 18:22:02:275,-1.22,1.114,9.562,0.0225,-0.0102,9.8066,-0.0533,0.0253,0.0135,-25.56,-36.44,21.38,348.14,-89.13,-140.59
52.5624,-1.495742,146.16,21.34,4,115.91,22 / 23,8141913,2019-11-06 18:22:02:375,0.6651,0.8544,10.5902,0.0118,0.0037,9.8066,0.0703,0.0753,-0.0566,-25.56,-36.31,21.63,356.23,-89.17,-133.94
52.5624,-1.495742,146.16,21.34,4,115.91,22 / 23,8142014,2019-11-06 18:22:02:476,-2.1016,0.9275,8.9492,-0.0041,0.0078,9.8066,0.065,0.0823,-0.0581,-25.44,-36.94,20.81,6.74,-89.2,-123.4
52.5624,-1.495742,146.16,21.34,4,115.91,22 / 23,8142114,2019-11-06 18:22:02:576,-2.4525,1.1297,8.3921,0.0025,0.0142,9.8066,0.0399,0.018,-0.0811,-25.06,-36.94,21.19,17.01,-89.23,-113.28
52.5624,-1.495742,146.16,21.34,4,115.91,22 / 23,8142214,2019-11-06 18:22:02:676,-1.1456,-0.6152,11.2506,-0.016,0.0221,9.8065,-0.0825,0.177,-0.1533,-24.81,-37.25,21.63,17.98,-89.29,-113.61
52.5624,-1.495742,146.16,21.34,4,115.91,22 / 23,8142314,2019-11-06 18:22:02:776,-0.5411,0.4387,9.2999,-0.0028,0.0038,9.8066,-0.1671,0.0007,0.0054,-24.81,-36.37,20.88,349.49,-89.18,-140.38
52.5624,-1.495742,146.16,21.34,4,115.91,22 / 23,8142413,2019-11-06 18:22:02:875,-1.8683,2.3039,9.5168,0.0166,0.0046,9.8066,-0.0592,0.0655,0.0093,-24.94,-37.06,20.75,337.01,-89.28,-152.7
52.5624,-1.495742,146.16,21.34,4,115.91,22 / 23,8142513,2019-11-06 18:22:02:975,-0.7291,0.1149,10.7843,0.0238,0.0096,9.8066,0.014,0.0914,-0.1578,-25.44,-36.19,21.31,354.32,-89.28,-135.63
52.5624,-1.495742,146.16,21.34,4,115.91,22 / 23,8142613,2019-11-06 18:22:03:075,-2.6208,0.6151,10.0596,-0.0052,-0.0157,9.8066,0.1273,0.2582,-0.0767,-25.75,-36.44,20.75,349.13,-89.33,-139.66
52.5624,-1.495742,146.16,21.34,4,115.91,22 / 23,8142714,2019-11-06 18:22:03:176,-0.6656,-0.2241,10.5938,0.0159,0.0542,9.8064,0.0727,0.1542,-0.0733,-24.5,-36.5,20.31,1.94,-89.51,-127.89
52.5624,-1.495742,146.16,21.34,4,115.91,22 / 23,8142814,2019-11-06 18:22:03:276,-2.4298,0.3911,7.8204,0.0017,-0.0005,9.8066,-0.2148,-0.3219,0.0928,-25.75,-36.94,21.19,4.59,-89.25,-124.4
52.561577,-1.492915,147.62,24.02,4,116.54,22 / 22,8142914,2019-11-06 18:22:03:376,-3.267,-2.3214,10.8901,-0.0426,-0.0695,9.8063,0.0602,-0.2602,0.4102,-25.81,-37.25,22.13,18.99,-89.73,-111.35
52.561577,-1.492915,147.62,24.02,4,116.54,22 / 22,8143014,2019-11-06 18:22:03:476,-1.787,-0.492,9.9214,0.031,0.055,9.8064,0.11,-0.1717,-0.1867,-25.37,-36.94,21.44,26.18,-89.63,-104.04
52.561577,-1.492915,147.62,24.02,4,116.54,22 / 22,8143114,2019-11-06 18:22:03:576,-0.2231,2.5591,8.4819,0.0166,-0.026,9.8066,0.1568,-0.281,-0.0962,-25.5,-36.06,21.44,352.35,-89.36,-137.59
52.561577,-1.492915,147.62,24.02,4,116.54,22 / 22,8143214,2019-11-06 18:22:03:676,0.4517,-1.4298,11.3585,-0.0197,0.0472,9.8064,0.1501,-0.2447,0.0149,-24.25,-37,21,338.29,-89.57,-152.71
52.561577,-1.492915,147.62,24.02,4,116.54,22 / 22,8143314,2019-11-06 18:22:03:776,-2.8642,-0.7432,8.9655,-0.0512,-0.0125,9.8064,-0.1293,-0.1295,0.0041,-25.44,-37.06,21.44,330.35,-89.38,-159.32
52.561577,-1.492915,147.62,24.02,4,116.54,22 / 22,8143414,2019-11-06 18:22:03:876,-4.6072,-0.719,10.1077,0.0162,0.0276,9.8065,-0.0547,-0.3142,0.2987,-26.19,-37.12,20.69,331.96,-89.64,-156.78
52.561577,-1.492915,147.62,24.02,4,116.54,22 / 22,8143514,2019-11-06 18:22:03:976,-0.48,2.1621,9.6247,0.0266,-0.0035,9.8065,0.1197,-0.2263,0.0857,-24.94,-37,21.63,0.89,-89.55,-130.46
52.561577,-1.492915,147.62,24.02,4,116.54,22 / 22,8143614,2019-11-06 18:22:04:076,-0.6692,-0.1955,10.106,-0.0063,0.012,9.8066,0.1093,-0.1744,0.114,-25,-37.19,22.25,347.19,-89.41,-144.01
52.561577,-1.492915,147.62,24.02,4,116.54,22 / 22,8143715,2019-11-06 18:22:04:177,1.2467,1.7522,9.732,-0.0208,-0.0004,9.8066,-0.0154,-0.3177,0.1555,-25.44,-37.31,21.25,1.48,-89.2,-128.57
52.561577,-1.492915,147.62,24.02,4,116.54,22 / 22,8143814,2019-11-06 18:22:04:276,-1.8355,-0.5767,9.1316,0.0286,0.0329,9.8065,-0.0084,-0.195,0.0839,-25.5,-36.81,21.75,1.55,-89.23,-129.82
52.561577,-1.492915,147.62,24.02,4,116.54,22 / 22,8143916,2019-11-06 18:22:04:378,-0.2358,2.0107,9.8519,0.046,0.0381,9.8064,-0.0989,-0.3113,0.1948,-24.75,-36.62,20.75,8.78,-89.34,-121.36
52.561577,-1.492915,147.62,24.02,4,116.54,22 / 22,8144014,2019-11-06 18:22:04:476,1.9875,4.5261,9.731,-0.0306,-0.019,9.8065,0.1746,0.4076,-0.2547,-25,-36.56,20.56,0.18,-89.36,-129.85
52.561577,-1.492915,147.62,24.02,4,116.54,22 / 22,8144113,2019-11-06 18:22:04:575,-1.574,-2.1875,10.3429,-0.0467,-0.0258,9.8064,-0.0069,0.3267,-0.1654,-25.06,-36.37,20.81,339.56,-89.46,-150.26
52.561577,-1.492915,147.62,24.02,4,116.54,22 / 22,8144214,2019-11-06 18:22:04:676,-2.0901,-1.9236,10.392,-0.0222,-0.0243,9.8066,0.0501,0.129,0.1125,-24.81,-36.12,21.38,5.01,-89.46,-125.07
52.561577,-1.492915,147.62,24.02,4,116.54,22 / 22,8144314,2019-11-06 18:22:04:776,-2.6511,-2.7141,10.2093,-0.0154,-0.0043,9.8066,-0.0579,0.233,-0.1479,-25.12,-36.81,21.44,18.91,-89.16,-111.43
52.561577,-1.492915,147.62,24.02,4,116.54,22 / 22,8144414,2019-11-06 18:22:04:876,1.1172,0.6339,9.9718,-0.0464,-0.0452,9.8064,-0.0305,0.2093,-0.0539,-25.62,-36.62,20.88,30.97,-88.88,-98.61
52.561577,-1.492915,147.62,24.02,4,116.54,22 / 22,8144514,2019-11-06 18:22:04:976,0.4325,0.5474,9.5504,0.0238,0.02,9.8066,0.0305,-0.0597,-0.0596,-25.69,-37,21.13,30.67,-88.86,-98.9
52.561577,-1.492915,147.62,24.02,4,116.54,22 / 22,8144614,2019-11-06 18:22:05:076,1.0743,-0.3035,9.7104,0.0182,0.0087,9.8066,0.0024,-0.1465,-0.0153,-24.87,-37.37,20.94,10.45,-89.17,-119.75
52.561577,-1.492915,147.62,24.02,4,116.54,22 / 22,8144714,2019-11-06 18:22:05:176,0.5779,3.5406,9.785,0.0424,0.0146,9.8065,0.0082,-0.3527,0.2115,-25.12,-37.44,21.19,339.28,-89.23,-150.44
52.561577,-1.492915,147.62,24.02,4,116.54,22 / 22,8144814,2019-11-06 18:22:05:276,-3.8757,-3.2505,10.4261,-0.001,0.0619,9.8064,0.0934,-0.5991,0.3221,-24.81,-37,21.44,324.75,-89.36,-164.86
52.561577,-1.492915,147.62,24.02,4,116.54,21 / 23,8144914,2019-11-06 18:22:05:376,0.004,3.8527,8.8462,0.0011,0.0318,9.8066,0.1197,-0.2297,-0.0076,-25.19,-37,20.88,339.71,-89.31,-150.05
52.561577,-1.492915,147.62,24.02,4,116.54,21 / 23,8145014,2019-11-06 18:22:05:476,-0.5113,1.1565,11.4878,0.0526,-0.0516,9.8063,-0.0431,-0.298,-0.0163,-25.37,-36.56,21,319.02,-88.91,-170.19
52.561577,-1.492915,147.62,24.02,4,116.54,21 / 23,8145113,2019-11-06 18:22:05:575,-0.4026,-1.3521,9.7652,0.0079,0.0093,9.8066,-0.0679,-0.0881,0.1735,-24.81,-35.94,21.06,337.68,-88.76,-151.82
52.561577,-1.492915,147.62,24.02,4,116.54,21 / 23,8145214,2019-11-06 18:22:05:676,-2.2805,0.8121,10.0539,-0.0116,-0.0148,9.8065,-0.1261,-0.1193,0.0147,-25.31,-36.44,20.63,351.54,-88.8,-138.29
52.561577,-1.492915,147.62,24.02,4,116.54,21 / 23,8145314,2019-11-06 18:22:05:776,-0.5055,1.1507,9.4262,0.0111,0.0301,9.8066,0.105,-0.0811,0.0029,-24.94,-36.44,21.56,350.03,-88.99,-141.13
52.561577,-1.492915,147.62,24.02,4,116.54,21 / 23,8145414,2019-11-06 18:22:05:876,1.8528,3.9589,9.3674,0.0102,0.0368,9.8065,0.0028,0.0728,-0.1717,-25.06,-36.87,20.69,334.75,-89.2,-154.89
52.561577,-1.492915,147.62,24.02,4,116.54,21 / 23,8145514,2019-11-06 18:22:05:976,5.6688,4.0759,9.6575,0.0556,0.0728,9.8062,-0.0181,-0.3536,0.0578,-24.94,-37.31,20.31,329.85,-89.5,-158.52
52.561577,-1.492915,147.62,24.02,4,116.54,21 / 23,8145613,2019-11-06 18:22:06:075,-0.3102,-1.758,10.7277,0.0463,0.0507,9.8063,0.0223,-0.0005,0.1811,-24.94,-37.37,20.38,273.43,-89.33,145.54
52.561577,-1.492915,147.62,24.02,4,116.54,21 / 23,8145713,2019-11-06 18:22:06:175,2.7238,3.5956,12.3153,-0.0474,0.0078,9.8065,0.2159,0.1601,-0.1768,-25.5,-36.62,20.5,294.54,-89.15,165.39
52.561577,-1.492915,147.62,24.02,4,116.54,21 / 23,8145813,2019-11-06 18:22:06:275,-1.3621,3.0781,6.8783,0.0392,-0.002,9.8065,0.2014,0.6181,-0.319,-24.94,-36.44,20.56,306.09,-89.3,176.68
52.561577,-1.492915,147.62,24.02,4,116.54,19 / 22,8145914,2019-11-06 18:22:06:376,1.6772,-1.4813,11.3267,0.039,-0.0335,9.8064,-0.0799,0.2938,-0.1674,-25.56,-36.5,20.88,320.83,-89.32,-167.63
52.561577,-1.492915,147.62,24.02,4,116.54,19 / 22,8146013,2019-11-06 18:22:06:475,1.1897,0.0894,10.9514,0.0467,-0.0064,9.8065,-0.2193,0.4067,0.0932,-25.12,-36.69,21.19,332.47,-89.35,-157.22
52.561577,-1.492915,147.62,24.02,4,116.54,19 / 22,8146113,2019-11-06 18:22:06:575,-3.4013,-2.1857,9.5267,-0.0081,-0.0742,9.8063,-0.1687,0.0577,-0.0265,-25.37,-37.06,20.69,311.97,-89.39,-177.54
52.561577,-1.492915,147.62,24.02,4,116.54,19 / 22,8146213,2019-11-06 18:22:06:675,3.1907,1.6863,11.2917,-0.0464,-0.0414,9.8064,0.0127,-0.0051,0.0747,-25.5,-36.75,19.94,332.58,-89.08,-155.59
52.561577,-1.492915,147.62,24.02,4,116.54,19 / 22,8146313,2019-11-06 18:22:06:775,-0.7633,0.216,9.7186,-0.0519,-0.0287,9.8064,0.0997,-0.1428,-0.1532,-24.81,-36.56,20.94,321.18,-89.12,-168.23
52.561577,-1.492915,147.62,24.02,4,116.54,19 / 22,8146414,2019-11-06 18:22:06:876,-0.2793,3.3489,8.4047,0.0285,-0.0058,9.8066,0.0626,-0.1033,-0.0472,-25.44,-36.94,19.81,335.87,-89.34,-152.48
52.561577,-1.492915,147.62,24.02,4,116.54,19 / 22,8146513,2019-11-06 18:22:06:975,0.2895,0.3426,10.8413,0.0519,-0.0154,9.8064,-0.0414,-0.4766,0.3241,-24.94,-36.75,21.25,312.99,-89.19,-176.37
52.561577,-1.492915,147.62,24.02,4,116.54,19 / 22,8146613,2019-11-06 18:22:07:075,1.4428,2.4126,10.1695,-0.0689,-0.0314,9.8063,-0.132,-0.3425,0.3284,-24.62,-37,20.63,329.95,-89.33,-159.7
52.561577,-1.492915,147.62,24.02,4,116.54,19 / 22,8146713,2019-11-06 18:22:07:175,0.2329,-2.2367,10.1276,-0.0488,0.0146,9.8065,0.1074,-0.3627,0.1757,-25.19,-37.06,20.88,321.56,-89.26,-167.94
52.561577,-1.492915,147.62,24.02,4,116.54,19 / 22,8146813,2019-11-06 18:22:07:275,-0.3843,-1.4059,10.0044,0.009,-0.035,9.8065,0.2742,-0.3747,0.063,-24.87,-36.44,20.38,340.75,-89.38,-147.68
52.561577,-1.492915,147.62,24.02,4,116.54,20 / 22,8146913,2019-11-06 18:22:07:375,-2.1877,-2.3229,9.666,0.0781,0.0217,9.8063,0.1996,-0.2858,0.0765,-25.37,-36.69,21.25,351.79,-89.25,-138.12
52.561577,-1.492915,147.62,24.02,4,116.54,20 / 22,8147013,2019-11-06 18:22:07:475,-0.1746,1.0983,9.4278,-0.025,-0.0195,9.8066,-0.0866,-0.2198,0.2451,-24.81,-36.75,20.63,351.47,-89.21,-138.42
52.561577,-1.492915,147.62,24.02,4,116.54,20 / 22,8147114,2019-11-06 18:22:07:576,1.3911,1.3547,8.9319,0.0233,0.0322,9.8065,-0.1424,-0.153,0.0498,-24.87,-37,21.06,348.89,-89.46,-141.02
52.561577,-1.492915,147.62,24.02,4,116.54,20 / 22,8147213,2019-11-06 18:22:07:675,0.389,0.9921,8.3803,-0.0318,-0.0025,9.8066,-0.0073,0.0356,0.0287,-25.37,-36.69,20.94,358.56,-89.37,-131.45
52.561577,-1.492915,147.62,24.02,4,116.54,20 / 22,8147314,2019-11-06 18:22:07:776,1.5915,1.7686,10.2095,0.0172,0.028,9.8066,0.0576,0.1992,-0.2355,-24.56,-36.62,20.56,313.51,-89.64,-176.22
52.561577,-1.492915,147.62,24.02,4,116.54,20 / 22,8147414,2019-11-06 18:22:07:876,-1.9835,-0.9123,9.6219,0.0412,0.0147,9.8065,0.0731,0.3129,-0.1527,-24.87,-37,20.13,269,-89.58,140.83
52.561577,-1.492915,147.62,24.02,4,116.54,20 / 22,8147514,2019-11-06 18:22:07:976,0.1791,3.0511,8.1497,0.0447,-0.0085,9.8065,-0.0055,0.3282,-0.1583,-24.5,-37.31,20.56,266.05,-89.35,135.62
52.561577,-1.492915,147.62,24.02,4,116.54,20 / 22,8147613,2019-11-06 18:22:08:075,-1.1389,-3.0769,10.7872,-0.027,0.0446,9.8065,-0.2057,0.3492,0.0558,-24.37,-37,20.56,263,-89.52,132.36
52.561577,-1.492915,147.62,24.02,4,116.54,20 / 22,8147713,2019-11-06 18:22:08:175,-0.6018,-2.8338,10.1946,-0.0245,-0.0858,9.8062,0.1104,0.0024,0.0551,-24.69,-36.87,20.38,272.9,-89.15,145.21
52.561577,-1.492915,147.62,24.02,4,116.54,20 / 22,8147813,2019-11-06 18:22:08:275,-3.4039,-1.372,10.0431,-0.0327,-0.0249,9.8066,-0.0161,-0.0347,-0.0199,-25.12,-37,20.88,336.97,-88.95,-152.59
52.561577,-1.492915,147.62,24.02,4,116.54,21 / 22,8147913,2019-11-06 18:22:08:375,-3.791,-1.7251,9.2737,-0.0157,-0.0022,9.8065,0.0075,-0.4731,0.2911,-25.5,-36.56,21.13,345.45,-88.91,-144.27
52.561577,-1.492915,147.62,24.02,4,116.54,21 / 22,8148013,2019-11-06 18:22:08:475,3.0839,4.0965,10.2559,0.0341,0.1088,9.8059,-0.3288,-0.4942,0.4569,-25.87,-36.81,20.94,358.04,-88.5,-130.83
52.561577,-1.492915,147.62,24.02,4,116.54,21 / 22,8148113,2019-11-06 18:22:08:575,0.6775,2.2561,10.626,0.0622,0.0282,9.8064,-0.2219,-0.6851,0.4378,-25,-36.69,20.38,345.28,-89.02,-143.09
52.561577,-1.492915,147.62,24.02,4,116.54,21 / 22,8148213,2019-11-06 18:22:08:675,-0.2829,0.3949,9.6346,0.1099,0.0966,9.8055,-0.0931,-0.5552,0.2851,-24.94,-36.5,21.31,303.34,-89.33,173.93
52.561577,-1.492915,147.62,24.02,4,116.54,21 / 22,8148314,2019-11-06 18:22:08:776,-2.5708,-1.9394,11.1553,-0.0362,0.007,9.8066,0.0822,-0.5229,0.1156,-24.75,-37.06,20.63,319.28,-89.3,-170.23
52.561577,-1.492915,147.62,24.02,4,116.54,21 / 22,8148414,2019-11-06 18:22:08:876,-0.1471,-0.9118,10.4134,-0.0224,0.0728,9.8063,0.4321,-0.6455,0.2843,-24.62,-37,20.31,319.78,-89.06,-168.18
52.561577,-1.492915,147.62,24.02,4,116.54,21 / 22,8148514,2019-11-06 18:22:08:976,-1.42,-1.4143,9.7467,0.0015,0.0024,9.8066,0.3754,-0.4775,0.2252,-25.12,-36.87,20.5,325.48,-88.85,-163.81
52.561577,-1.492915,147.62,24.02,4,116.54,21 / 22,8148613,2019-11-06 18:22:09:075,0.7181,3.8305,9.5562,-0.0138,0.0624,9.8064,0.0244,-0.4777,0.2165,-25.25,-36.87,20.44,334.2,-88.75,-153.83
52.561577,-1.492915,147.62,24.02,4,116.54,21 / 22,8148713,2019-11-06 18:22:09:175,-1.3523,1.1956,9.7041,0.0683,0.043,9.8063,-0.06,-0.3522,0.2416,-25.12,-37.19,20.94,327.49,-89.07,-161.97
52.561577,-1.492915,147.62,24.02,4,116.54,21 / 22,8148813,2019-11-06 18:22:09:275,0.9363,1.6476,8.9654,0.0752,0.0521,9.8062,-0.2082,-0.2498,0.2446,-24.56,-37,20.56,303.67,-89.26,174.34
52.561577,-1.492915,147.62,24.02,4,116.54,18 / 21,8148915,2019-11-06 18:22:09:377,-3.1268,-1.3735,10.1628,-0.0477,0.0378,9.8064,-0.064,-0.2824,0.1872,-24.94,-36.81,21,327.3,-89.67,-162.53
52.561577,-1.492915,147.62,24.02,4,116.54,18 / 21,8149014,2019-11-06 18:22:09:476,0.1601,2.6209,9.3947,-0.0056,0.0233,9.8066,0.07,-0.1773,-0.0358,-24.87,-37.06,20.63,292.93,-89.69,163.23
52.561577,-1.492915,147.62,24.02,4,116.54,18 / 21,8149114,2019-11-06 18:22:09:576,-2.5158,-3.3102,11.0586,0.0473,0.0585,9.8063,-0.0077,-0.0749,-0.0228,-24.94,-37.06,21.25,258.4,-89.48,128.95
52.561577,-1.492915,147.62,24.02,4,116.54,18 / 21,8149213,2019-11-06 18:22:09:675,3.138,3.8088,10.4932,0.029,0.003,9.8065,-0.0608,0.1564,-0.1057,-24.69,-36.94,20.94,273.69,-89.2,144.56
52.561577,-1.492915,147.62,24.02,4,116.54,18 / 21,8149314,2019-11-06 18:22:09:776,-1.4346,0.7632,10.0957,0.0373,0.0684,9.8063,-0.0863,0.3523,-0.1422,-24.37,-36.81,21.38,267.92,-89.22,137.64
52.561577,-1.492915,147.62,24.02,4,116.54,18 / 21,8149414,2019-11-06 18:22:09:876,2.2084,1.493,8.4286,-0.0108,0.0042,9.8066,-0.1185,0.3625,-0.1377,-24.69,-37.25,21.13,288.42,-89.55,158.88
52.561577,-1.492915,147.62,24.02,4,116.54,18 / 21,8149517,2019-11-06 18:22:09:979,-1.618,-1.0999,10.4318,0.0241,0.0605,9.8064,-0.0221,0.3057,-0.3363,-24.31,-37.31,20.5,249.99,-89.41,119.45
52.561577,-1.492915,147.62,24.02,4,116.54,18 / 21,8149614,2019-11-06 18:22:10:076,-0.3162,0.8626,10.1804,0.0085,0.0005,9.8066,0.0637,0.2891,-0.1037,-24,-36.56,20.63,250.13,-89.42,119.57
52.561577,-1.492915,147.62,24.02,4,116.54,18 / 21,8149714,2019-11-06 18:22:10:176,-2.7185,-1.9909,10.2007,0.0154,0.007,9.8065,0.0869,0.4468,-0.1864,-24.44,-36.94,21.19,253.73,-89.28,123.34
52.561577,-1.492915,147.62,24.02,4,116.54,18 / 21,8149814,2019-11-06 18:22:10:276,1.483,2.2167,10.1701,0.0005,-0.0329,9.8066,-0.0774,0.4953,-0.216,-24.75,-36.56,20.5,245.58,-89.61,115.95
52.561577,-1.492915,147.62,24.02,4,116.54,19 / 22,8149913,2019-11-06 18:22:10:375,-0.4708,4.5509,9.3285,-0.0413,0.0377,9.8065,-0.224,0.5221,-0.0952,-25.37,-36.81,20.56,161.2,-89.6,31.02
52.561577,-1.492915,147.62,24.02,4,116.54,19 / 22,8150013,2019-11-06 18:22:10:475,1.4859,3.2751,7.7764,-0.0456,-0.0277,9.8065,-0.2161,0.4297,-0.1579,-25.25,-36.81,20.5,127.7,-89.37,-2.89
52.561577,-1.492915,147.62,24.02,4,116.54,19 / 22,8150113,2019-11-06 18:22:10:575,0.4134,-0.015,10.0663,-0.0154,0.0388,9.8065,-0.2545,0.4729,-0.0919,-24.94,-37.31,21.06,119.24,-89.1,-11.67
52.561577,-1.492915,147.62,24.02,4,116.54,19 / 22,8150214,2019-11-06 18:22:10:676,-2.757,-3.8939,9.6869,-0.0735,-0.0485,9.8062,0.1355,0.3111,-0.2676,-24.75,-37.06,21.31,155.26,-89.07,24.79
52.561577,-1.492915,147.62,24.02,4,116.54,19 / 22,8150314,2019-11-06 18:22:10:776,-3.9047,-1.4212,9.4445,0.0663,0.0106,9.8063,0.1617,0.2126,-0.3561,-24.81,-37.81,20.38,163.13,-89.08,34.15
52.561577,-1.492915,147.62,24.02,4,116.54,19 / 22,8150414,2019-11-06 18:22:10:876,0.4161,-3.0402,11.4692,-0.0255,-0.0936,9.8061,0.0499,-0.2224,0.2827,-24.94,-37.12,21,130.31,-89.58,-0.08
52.561577,-1.492915,147.62,24.02,4,116.54,19 / 22,8150514,2019-11-06 18:22:10:976,3.1173,0.7812,7.9151,0.0424,-0.0029,9.8065,-0.1907,0.1266,-0.2156,-24.87,-36.81,21.19,165.93,-89.45,35.75
52.561577,-1.492915,147.62,24.02,4,116.54,19 / 22,8150614,2019-11-06 18:22:11:076,-0.1901,0.8479,8.6383,0.0107,-0.0122,9.8066,-0.1727,0.1991,-0.033,-25.5,-36.69,21.19,77.8,-89.54,-52.74
52.561577,-1.492915,147.62,24.02,4,116.54,19 / 22,8150713,2019-11-06 18:22:11:175,-1.859,-2.5931,9.7411,-0.0138,0.0195,9.8066,-0.049,0.3791,-0.1732,-25.62,-36.37,21,73.53,-89.34,-56.08
52.561577,-1.492915,147.62,24.02,4,116.54,19 / 22,8150814,2019-11-06 18:22:11:276,0.0221,0.284,8.8136,-0.0109,0.0177,9.8066,-0.0823,0.3648,-0.273,-25.19,-37.19,20.56,81.56,-89.37,-49.17
52.561577,-1.492915,147.62,24.02,4,116.54,22 / 23,8150914,2019-11-06 18:22:11:376,1.6505,1.5485,9.1366,0.0336,0.0508,9.8064,-0.0383,-0.401,0.0941,-25.06,-37.19,20.69,106.72,-89.42,-23.94
52.561577,-1.492915,147.62,24.02,4,116.54,22 / 23,8151013,2019-11-06 18:22:11:475,0.5328,-1.0001,10.1904,0.0196,0.0038,9.8066,0.0509,-0.2342,0.1414,-24.5,-36.62,21.25,116.93,-89.56,-14.72
52.561577,-1.492915,147.62,24.02,4,116.54,22 / 23,8151114,2019-11-06 18:22:11:576,3.8483,1.9438,8.9075,-0.0328,-0.0721,9.8063,0.116,-0.3182,0.2315,-25.25,-36.44,21,78.23,-89.61,-52.22
52.561577,-1.492915,147.62,24.02,4,116.54,22 / 23,8151214,2019-11-06 18:22:11:676,-1.8729,-3.0908,10.5933,0.0222,-0.0104,9.8066,0.0763,-0.3914,-0.1511,-25.25,-37.06,20.75,64.56,-89.57,-65.91
52.561577,-1.492915,147.62,24.02,4,116.54,22 / 23,8151313,2019-11-06 18:22:11:775,1.2705,-0.2576,8.3059,-0.0369,-0.0545,9.8064,0.042,0.1105,0.1251,-25.56,-36.62,20.81,46.53,-89.24,-83.02
52.561577,-1.492915,147.62,24.02,4,116.54,22 / 23,8151414,2019-11-06 18:22:11:876,-1.0408,-0.391,10.7389,0.0046,-0.0123,9.8066,0.0921,-0.1719,-0.0114,-25.25,-37.19,20.56,103.17,-89.62,-27.28
52.561577,-1.492915,147.62,24.02,4,116.54,22 / 23,8151513,2019-11-06 18:22:11:975,-0.5161,-0.0913,9.4263,0.0586,-0.0363,9.8064,0.145,-0.1215,0.1436,-24.94,-36.87,20.63,345.64,-89.84,-144.34
52.561577,-1.492915,147.62,24.02,4,116.54,22 / 23,8151613,2019-11-06 18:22:12:075,1.2304,-0.5678,10.5709,0.0116,-0.0514,9.8065,0.1677,-0.2705,0.0913,-25.19,-36.75,20.31,335.96,-89.54,-152.48
52.561577,-1.492915,147.62,24.02,4,116.54,22 / 23,8151714,2019-11-06 18:22:12:176,0.7316,2.1253,9.0888,-0.0165,0.0057,9.8066,0.0555,-0.3519,0.1349,-25.44,-37.06,20.88,20.13,-89.72,-110
52.561577,-1.492915,147.62,24.02,4,116.54,22 / 23,8151814,2019-11-06 18:22:12:276,0.3215,-0.3546,9.7474,-0.0389,-0.032,9.8065,0.0043,-0.3138,0.2153,-24.62,-37.12,20.88,76.79,-89.8,-53.46
52.560818,-1.490284,147.05,21.22,4,115.77,23 / 23,8151914,2019-11-06 18:22:12:376,-0.6074,-1.285,9.8029,-0.0042,-0.0208,9.8066,-0.059,-0.1551,0.1171,-25.06,-37,20.75,67.82,-89.77,-62.45
52.560818,-1.490284,147.05,21.22,4,115.77,23 / 23,8152013,2019-11-06 18:22:12:475,-0.0536,-0.564,10.0076,-0.0079,-0.0229,9.8066,0.0063,-0.1436,0.0744,-24.75,-36.75,21.38,23.95,-89.63,-106.25
52.560818,-1.490284,147.05,21.22,4,115.77,23 / 23,8152113,2019-11-06 18:22:12:575,1.5384,1.2257,8.803,-0.0132,-0.0232,9.8066,-0.0262,-0.106,0.0562,-25.06,-37,20.88,36.32,-89.6,-93.98
52.560818,-1.490284,147.05,21.22,4,115.77,23 / 23,8152214,2019-11-06 18:22:12:676,-0.915,-1.0414,10.3302,-0.0126,-0.0063,9.8066,-0.0194,-0.0551,0.0749,-25.25,-36.87,20.56,62.64,-89.62,-67.78
52.560818,-1.490284,147.05,21.22,4,115.77,23 / 23,8152314,2019-11-06 18:22:12:776,0.8672,-0.4714,9.3723,0.0157,-0.002,9.8066,0.0231,-0.0467,-0.0312,-25.19,-36.37,20.63,75.49,-89.66,-54.9
52.560818,-1.490284,147.05,21.22,4,115.77,23 / 23,8152413,2019-11-06 18:22:12:875,0.0936,-1.4792,10.0871,0.0039,-0.0019,9.8066,0.021,0.009,-0.0513,-24.87,-37.06,21.06,83.24,-89.63,-47.2
52.560818,-1.490284,147.05,21.22,4,115.77,23 / 23,8152514,2019-11-06 18:22:12:976,1.298,-0.6442,10.072,-0.0033,0.0009,9.8066,0.0472,0.0656,-0.0536,-24.56,-36.62,20.25,93.22,-89.69,-35.79
52.560818,-1.490284,147.05,21.22,4,115.77,23 / 23,8152614,2019-11-06 18:22:13:076,-1.8448,1.2843,9.4194,-0.0239,0.0265,9.8065,-0.0688,0.1165,-0.1112,-24.81,-36.5,21,103.59,-89.62,-26.84
52.560818,-1.490284,147.05,21.22,4,115.77,23 / 23,8152714,2019-11-06 18:22:13:176,0.9499,0.8426,8.7242,-0.0226,-0.0237,9.8066,-0.0976,0.1706,0.0176,-25.62,-36.81,20.38,96.13,-89.52,-31.98
52.560818,-1.490284,147.05,21.22,4,115.77,23 / 23,8152814,2019-11-06 18:22:13:276,-0.188,-0.4036,10.3584,0.0123,0.0074,9.8066,-0.043,0.2037,0.0003,-24.62,-37.12,20.81,99.61,-89.59,-30.88
52.560818,-1.490284,147.05,21.22,4,115.77,23 / 23,8152914,2019-11-06 18:22:13:376,-1.8683,0.7374,9.7799,-0.0033,-0.0118,9.8066,0.0353,0.1173,-0.0878,-24.69,-36.69,20.38,94.41,-89.48,-34.85
52.560818,-1.490284,147.05,21.22,4,115.77,23 / 23,8153014,2019-11-06 18:22:13:476,2.1211,-0.2044,9.7764,0.0285,-0.0018,9.8066,0.0613,0.1451,-0.0206,-25.06,-37.19,20.25,99.9,-89.44,-29.41
52.560818,-1.490284,147.05,21.22,4,115.77,23 / 23,8153114,2019-11-06 18:22:13:576,-0.0738,1.0115,9.366,0.0042,0.0086,9.8066,-0.0711,0.0772,-0.0402,-24.94,-37.12,21,92.34,-89.63,-38.11
52.560818,-1.490284,147.05,21.22,4,115.77,23 / 23,8153213,2019-11-06 18:22:13:675,0.3095,0.8309,9.9667,0.0298,0.0214,9.8066,-0.0523,0.1273,0.007,-25.12,-36.25,21.38,111.3,-89.62,-19.13
52.560818,-1.490284,147.05,21.22,4,115.77,23 / 23,8153314,2019-11-06 18:22:13:776,-1.2237,-1.1348,9.6047,0.0039,0.0011,9.8066,0.0894,0.0406,-0.1156,-25.12,-37,20.44,89.76,-89.48,-39.5
52.560818,-1.490284,147.05,21.22,4,115.77,23 / 23,8153414,2019-11-06 18:22:13:876,-0.9806,0.1362,9.9164,-0.0017,0.0231,9.8066,0.0977,0.0687,-0.09,-24.94,-37,20.56,81.95,-89.5,-48.64
52.560818,-1.490284,147.05,21.22,4,115.77,23 / 23,8153514,2019-11-06 18:22:13:976,-1.1222,-0.3102,10.3013,-0.0133,0.0265,9.8066,-0.0454,-0.1411,0.0556,-25,-36.31,21.13,88.84,-89.59,-41.64
52.560818,-1.490284,147.05,21.22,4,115.77,23 / 23,8153614,2019-11-06 18:22:14:076,-0.0317,0.6468,9.0189,-0.0293,0.0114,9.8065,-0.1276,-0.1722,0.1078,-25.37,-37.06,20.5,65,-89.7,-65.33
52.560818,-1.490284,147.05,21.22,4,115.77,23 / 23,8153714,2019-11-06 18:22:14:176,-1.2634,-0.7474,8.9539,0.0295,0.0305,9.8065,-0.1069,-0.2491,0.2228,-25.5,-36.5,21.13,98.44,-89.55,-32.08
52.560818,-1.490284,147.05,21.22,4,115.77,23 / 23,8153814,2019-11-06 18:22:14:276,1.2466,1.819,9.984,0.0238,0.0162,9.8066,-0.0013,-0.2347,0.136,-25.5,-36.87,20.13,96.52,-89.42,-32.81
52.560818,-1.490284,147.05,21.22,4,115.77,23 / 23,8153914,2019-11-06 18:22:14:376,-1.4705,-0.7238,10.1908,0.0207,0.0248,9.8066,0.0565,-0.1996,0.1038,-25.06,-36.56,20.75,100.81,-89.35,-29.94
52.560818,-1.490284,147.05,21.22,4,115.77,23 / 23,8154013,2019-11-06 18:22:14:475,-0.5583,1.9572,9.3472,-0.0073,0.0157,9.8066,0.0437,-0.2576,0.1108,-25.37,-37.12,19.69,95.06,-89.4,-34.29
52.560818,-1.490284,147.05,21.22,4,115.77,23 / 23,8154113,2019-11-06 18:22:14:575,-0.7212,-0.0612,10.4135,0.0149,0.033,9.8065,0.0014,-0.224,0.1737,-24.87,-36.37,20.81,109.77,-89.37,-20.92
52.560818,-1.490284,147.05,21.22,4,115.77,23 / 23,8154214,2019-11-06 18:22:14:676,1.077,0.4541,9.4501,0.041,0.012,9.8065,0.0815,-0.0659,0.0601,-25.25,-37.12,20.25,92.44,-89.26,-37.07
52.560818,-1.490284,147.05,21.22,4,115.77,23 / 23,8154314,2019-11-06 18:22:14:776,-0.1772,-0.7008,10.7865,-0.0431,0.0189,9.8065,0.2333,-0.1124,-0.038,-25.5,-36.94,20,98.4,-89.18,-31.2
52.560818,-1.490284,147.05,21.22,4,115.77,23 / 23,8154414,2019-11-06 18:22:14:876,0.8259,1.2264,9.9609,-0.0282,0.0109,9.8066,0.1581,-0.0955,-0.0129,-25.44,-36.75,20.06,95.4,-89.32,-34.04
52.560818,-1.490284,147.05,21.22,4,115.77,23 / 23,8154514,2019-11-06 18:22:14:976,-1.6051,-0.2497,9.0684,-0.0055,0.0102,9.8066,0.0109,-0.0392,0.0081,-25.75,-36.69,19.5,87.69,-89.42,-40.53
52.560818,-1.490284,147.05,21.22,4,115.77,23 / 23,8154614,2019-11-06 18:22:15:076,1.7269,0.7752,9.654,0.0078,0.0056,9.8066,-0.0537,-0.1981,0.2146,-24.87,-37.12,20.06,91.02,-89.23,-38.53
52.560818,-1.490284,147.05,21.22,4,115.77,23 / 23,8154714,2019-11-06 18:22:15:176,-0.8818,0.3303,11.3919,0.0053,0.0294,9.8066,0.0257,-0.1528,0.1147,-25.62,-36.56,20.63,89.42,-89.17,-40.42
52.560818,-1.490284,147.05,21.22,4,115.77,23 / 23,8154814,2019-11-06 18:22:15:276,-0.4087,-0.0521,10.0313,-0.0352,-0.0548,9.8064,0.1,0.1617,-0.1472,-25.25,-37.19,20.5,82.18,-89.31,-48.62
52.560818,-1.490284,147.05,21.22,4,115.77,23 / 23,8154914,2019-11-06 18:22:15:376,-0.991,0.4742,10.3827,-0.0203,0.0409,9.8065,-0.0075,-0.0486,0.0772,-25.06,-36.87,20.56,73.25,-89.15,-57.7
52.560818,-1.490284,147.05,21.22,4,115.77,23 / 23,8155013,2019-11-06 18:22:15:475,-5.9486,-4.1255,8.5346,-0.0547,0.011,9.8064,0.0172,0.8188,-0.3549,-25.75,-36.69,20.69,63.36,-88.79,-66.78
52.560818,-1.490284,147.05,21.22,4,115.77,23 / 23,8155113,2019-11-06 18:22:15:575,-0.8429,2.8958,8.1774,-0.0594,-0.0752,9.8062,-0.0068,0.3131,-0.4612,-25.12,-37,20.25,81.83,-88.7,-48.32
52.560818,-1.490284,147.05,21.22,4,115.77,23 / 23,8155214,2019-11-06 18:22:15:676,-2.1352,-4.8482,11.5497,-0.0235,-0.0152,9.8065,0.0353,0.3012,-0.1201,-25.19,-36.69,20.44,110.32,-89.02,-19.4
52.560818,-1.490284,147.05,21.22,4,115.77,23 / 23,8155314,2019-11-06 18:22:15:776,0.4552,2.3603,9.0683,0.0029,-0.1015,9.8061,-0.0575,0.0742,0.0328,-25.25,-36.87,20.38,96.06,-89.13,-33.59
52.560818,-1.490284,147.05,21.22,4,115.77,23 / 23,8155414,2019-11-06 18:22:15:876,-3.5098,-5.0583,10.4519,0.0401,-0.0099,9.8065,-0.0313,-0.2708,0.2733,-25.62,-36.44,19.94,100.47,-89.28,-27.88
52.560818,-1.490284,147.05,21.22,4,115.77,23 / 23,8155513,2019-11-06 18:22:15:975,3.0352,2.5525,10.5576,-0.069,-0.0802,9.806,0.0363,-0.3945,0.2209,-25.44,-36.56,19.69,84.13,-89.01,-45.67
52.560818,-1.490284,147.05,21.22,4,115.77,23 / 23,8155613,2019-11-06 18:22:16:075,1.031,1.5747,8.6461,0.0002,0.0296,9.8066,0.142,-0.5345,0.2831,-25.56,-36.37,20.19,82.85,-89.08,-45.72
52.560818,-1.490284,147.05,21.22,4,115.77,23 / 23,8155714,2019-11-06 18:22:16:176,2.0055,4.0075,8.7181,-0.0179,-0.0449,9.8065,0.1377,-0.5385,0.2408,-25.19,-36.69,20.13,79.03,-89.04,-50.72
52.560818,-1.490284,147.05,21.22,4,115.77,23 / 23,8155814,2019-11-06 18:22:16:276,0.3224,-0.9378,10.0145,0.0343,0.0508,9.8064,0.0604,-0.5047,0.234,-25.37,-36.62,19.81,87.4,-89.11,-42.29
52.560818,-1.490284,147.05,21.22,4,115.77,23 / 23,8155914,2019-11-06 18:22:16:376,-1.0709,-1.9449,9.8415,-0.0009,-0.0077,9.8066,0.0197,-0.4573,0.299,-25.12,-36.37,20.06,102.95,-89.22,-26.57
52.560818,-1.490284,147.05,21.22,4,115.77,23 / 23,8156014,2019-11-06 18:22:16:476,-1.6135,-2.2348,10.1038,0.0031,0.0372,9.8066,0.0663,-0.469,0.2119,-24.87,-36.31,20.44,105.34,-89.28,-24.1
52.560818,-1.490284,147.05,21.22,4,115.77,23 / 23,8156114,2019-11-06 18:22:16:576,0.1749,1.012,10.4201,-0.0142,-0.0224,9.8065,0.062,-0.3576,0.2267,-24.5,-37.06,19.81,101.91,-89.2,-28.83
52.560818,-1.490284,147.05,21.22,4,115.77,23 / 23,8156213,2019-11-06 18:22:16:675,0.9139,1.5134,9.8897,0.0094,0.0202,9.8066,0.1297,-0.2861,0.1198,-25.19,-36.75,20,92.27,-89.34,-37.15
52.560818,-1.490284,147.05,21.22,4,115.77,23 / 23,8156313,2019-11-06 18:22:16:775,0.942,0.8973,10.5247,0.012,-0.0103,9.8066,0.0571,-0.2204,0.0315,-25.31,-37.06,20.38,94.34,-89.44,-34.97
