GPS LATITUDE (degrees), GPS LONGITUDE (degrees), GPS ALTITUDE (m), GPS SPEED (Kmh), GPS ACCURACY (m), GPS ORIENTATION (Â°),GPS SATELLITES IN RANGE, TIME SINCE START (ms), DATE (YYYY-MO-DD HH-MI-SS_SSS), ACCELEROMETER X (m/s²) , ACCELEROMETER Y (m/s²), ACCELEROMETER Z (m/s²), GRAVITY X (m/s²), GRAVITY Y (m/s²), GRAVITY Z (m/s²), GYROSCOPE Yaw (rad/s), GYROSCOPE Pitch (rad/s), GYROSCOPE Roll (rad/s), MAGNETIC FIELD X (Î¼T), MAGNETIC FIELD Y (Î¼T), MAGNETIC FIELD Z (Î¼T), ORIENTATION (Yaw) (Â°), ORIENTATION (Pitch) (Â°), ORIENTATION (Roll ) (Â°)
53.05269,-1.77613,254.5,7.99,4,283.83,17 / 21,2831511,2019-11-06 12:33:05:392,-1.1937,0.0735,10.1027,-0.0054,0.0051,9.8066,0.0172,0.0245,-0.0021,17.5,-41.5,-5.62,290.9,-82.3,18.46
53.05269,-1.77613,254.5,7.99,4,283.83,17 / 21,2831612,2019-11-06 12:33:05:493,-0.302,0.8333,10.3281,0.0018,-0.0148,9.8066,-0.0079,0.1086,-0.0613,17.5,-42.31,-6.81,293.27,-82.33,17.79
53.05269,-1.77613,254.5,7.99,4,283.83,17 / 21,2831712,2019-11-06 12:33:05:593,0.3243,1.4855,10.4769,-0.0041,0.0157,9.8066,0.0463,-0.1244,0.2255,16.75,-43,-7.56,297.39,-82.7,17.44
53.05269,-1.77613,254.5,7.99,4,283.83,17 / 21,2831812,2019-11-06 12:33:05:693,-3.9909,-3.6713,8.835,0.0106,0.0913,9.8061,-0.1251,-0.4337,0.5076,16.75,-45.44,-7.94,293.03,-83.27,13.05
53.05269,-1.77613,254.5,7.99,4,283.83,17 / 21,2831912,2019-11-06 12:33:05:793,2.9636,3.0662,8.7775,0.0379,-0.0212,9.8065,0.2689,-0.3724,0.0231,15.88,-46.56,-7.56,293.98,-83.63,13.09
53.05269,-1.77613,254.5,7.99,4,283.83,17 / 21,2832012,2019-11-06 12:33:05:893,2.5293,-1.2258,8.5929,0.0262,0.0303,9.8065,-0.0405,-0.1712,0.0359,17,-46.31,-5.25,283.97,-83.47,14.42
53.05269,-1.77613,254.5,7.99,4,283.83,17 / 21,2832112,2019-11-06 12:33:05:993,-6.5221,0.3097,14.3064,0.0331,-0.0068,9.8065,0.1793,-0.1774,0.0062,17.38,-45.06,-5,280.81,-82.59,13.44
53.05269,-1.77613,254.5,7.99,4,283.83,17 / 21,2832212,2019-11-06 12:33:06:093,-7.4273,4.1522,5.9039,-0.0452,-0.1045,9.8059,0.4286,0.8524,-0.5975,17.06,-43.62,-3,277.55,-82.9,15.93
53.05269,-1.77613,254.5,7.99,4,283.83,17 / 21,2832312,2019-11-06 12:33:06:193,-18.5099,-8.2353,7.0032,-0.0085,-0.0781,9.8062,-0.2776,-0.3785,0.346,16.25,-42.5,-4,281.57,-83.21,14.9
53.05269,-1.77613,254.5,7.99,4,283.83,17 / 21,2832412,2019-11-06 12:33:06:293,-11.6555,-0.1563,11.1142,-0.0587,-0.1644,9.805,-0.1351,-1.332,0.3922,17.31,-41.44,-4,283.42,-83.43,15.5
53.05269,-1.77613,254.5,7.99,4,283.83,18 / 22,2832512,2019-11-06 12:33:06:393,4.0939,-1.4019,9.4074,0.0206,-0.0183,9.8066,-0.2962,0.2495,-0.0234,16.69,-41.44,-5.5,278.32,-82.37,9.86
53.05269,-1.77613,254.5,7.99,4,283.83,18 / 22,2832612,2019-11-06 12:33:06:493,-2.62,-1.058,10.2165,0.0528,-0.0297,9.8064,-0.1019,0.1924,-0.0476,17.06,-41.5,-6.31,281.19,-81.67,10.92
53.05269,-1.77613,254.5,7.99,4,283.83,18 / 22,2832712,2019-11-06 12:33:06:593,-1.5646,-2.5806,10.9497,0.0116,0.0853,9.8062,0.0836,0.2173,-0.1962,17.13,-41.81,-6.06,279.33,-81.67,9.64
53.05269,-1.77613,254.5,7.99,4,283.83,18 / 22,2832812,2019-11-06 12:33:06:693,-0.0061,0.2492,9.8077,0.0022,0.0221,9.8065,0.0454,-0.1275,0.1465,17.81,-41.37,-7,283.66,-81.92,9.57
53.05269,-1.77613,254.5,7.99,4,283.83,18 / 22,2832912,2019-11-06 12:33:06:793,-1.8929,1.0144,9.7719,-0.0214,0.03,9.8066,0.0049,-0.0103,-0.0523,17.31,-42.19,-5.37,274.66,-82.2,7.2
53.05269,-1.77613,254.5,7.99,4,283.83,18 / 22,2833012,2019-11-06 12:33:06:893,-1.7696,1.1382,9.6935,0.0062,0.0167,9.8066,-0.058,-0.0858,0.1298,16.06,-41.75,-6.5,277.74,-82.17,6.82
53.05269,-1.77613,254.5,7.99,4,283.83,18 / 22,2833112,2019-11-06 12:33:06:993,-0.49,0.7878,9.6004,0.0062,0.0486,9.8065,-0.0313,0.17,-0.0444,17.25,-42.25,-6.62,277.54,-82.1,3.54
53.05269,-1.77613,254.5,7.99,4,283.83,18 / 22,2833212,2019-11-06 12:33:07:093,0.2744,1.1036,9.6021,0.0075,0.0388,9.8065,-0.0621,0.1742,-0.0845,15.94,-42.44,-6.56,276.91,-81.99,2.97
53.05269,-1.77613,254.5,7.99,4,283.83,18 / 22,2833312,2019-11-06 12:33:07:193,-1.3127,2.308,9.9706,0.0018,0.0135,9.8066,0.0289,-0.0179,0.0702,17.19,-42.31,-5.87,272.28,-81.86,2.3
53.05269,-1.77613,254.5,7.99,4,283.83,18 / 22,2833412,2019-11-06 12:33:07:293,-1.1355,-1.1241,9.4583,-0.0084,0.05,9.8065,-0.0228,-0.3727,0.1797,16.69,-42.75,-6.5,270.86,-81.88,1.31
53.05269,-1.77613,254.5,7.99,4,283.83,19 / 21,2833512,2019-11-06 12:33:07:393,-1.3408,3.3315,9.7656,0.0121,-0.0323,9.8065,0.0388,-0.3142,0.0814,16.63,-42,-6.69,276.36,-81.8,3.15
53.05269,-1.77613,254.5,7.99,4,283.83,19 / 21,2833612,2019-11-06 12:33:07:493,-1.0543,3.3425,10.0748,-0.0042,0.0076,9.8066,-0.0361,-0.0312,0.0106,17.13,-41.87,-6.75,277.99,-81.73,4.88
53.05269,-1.77613,254.5,7.99,4,283.83,19 / 21,2833712,2019-11-06 12:33:07:593,-2.0522,4.8399,9.7997,0.0111,-0.0909,9.8061,0.0143,-0.6058,0.3353,16.56,-41.37,-7.12,281.65,-81.52,8.4
53.05269,-1.77613,254.5,7.99,4,283.83,19 / 21,2833812,2019-11-06 12:33:07:693,-2.7476,2.2948,9.5785,0.0184,-0.0594,9.8064,0.053,-0.585,0.286,16.44,-42.75,-6.62,278.86,-81.61,6.35
53.05269,-1.77613,254.5,7.99,4,283.83,19 / 21,2833912,2019-11-06 12:33:07:793,-2.078,-6.3142,8.9933,0.0027,-0.0563,9.8064,-0.0132,-0.1845,0.0459,16.38,-41.94,-6.25,276.14,-81.64,6.69
53.05269,-1.77613,254.5,7.99,4,283.83,19 / 21,2834012,2019-11-06 12:33:07:893,-1.3559,2.1837,9.7275,0.0234,-0.1218,9.8059,-0.1153,0.8538,-0.4496,16.13,-42.19,-6.62,279.51,-81.65,6.34
53.05269,-1.77613,254.5,7.99,4,283.83,19 / 21,2834112,2019-11-06 12:33:07:993,-0.6185,-6.2041,8.4413,-0.0027,0.0082,9.8066,-0.1505,0.4297,-0.2692,17.19,-41.62,-6.31,273.23,-81.64,3.81
53.05269,-1.77613,254.5,7.99,4,283.83,19 / 21,2834212,2019-11-06 12:33:08:093,-2.6542,2.1041,10.5516,0.0267,-0.0971,9.8061,-0.1219,0.4552,-0.2649,17.06,-42.87,-6.81,277.44,-81.42,5.63
53.05269,-1.77613,254.5,7.99,4,283.83,19 / 21,2834312,2019-11-06 12:33:08:193,-1.286,5.3271,9.4544,-0.007,0.0921,9.8061,-0.013,0.661,-0.3198,16.69,-42.5,-6.75,274.37,-81.63,1.63
53.05269,-1.77613,254.5,7.99,4,283.83,19 / 21,2834412,2019-11-06 12:33:08:293,-3.6067,1.9374,9.4684,-0.0089,0.0448,9.8065,0.0304,-0.0363,0.0629,17.06,-42.25,-7.12,275.83,-81.73,2.79
53.05269,-1.77613,254.5,7.99,4,283.83,19 / 20,2834512,2019-11-06 12:33:08:393,-2.9286,5.1758,9.7382,-0.0157,-0.0381,9.8065,-0.0876,0.5934,-0.2939,16.81,-42.5,-6.37,273.48,-81.91,3.36
53.05269,-1.77613,254.5,7.99,4,283.83,19 / 20,2834613,2019-11-06 12:33:08:494,-0.9168,5.7614,10.1527,0.0209,-0.1009,9.806,0.0452,-0.4898,0.2873,15.75,-41.5,-6.94,277.42,-81.76,3.56
53.05269,-1.77613,254.5,7.99,4,283.83,19 / 20,2834712,2019-11-06 12:33:08:593,-2.2542,3.6971,9.4555,0.0293,-0.0976,9.8061,-0.0394,0.0166,-0.1298,16.38,-42.31,-7.25,274.25,-81.7,1.16
53.05269,-1.77613,254.5,7.99,4,283.83,19 / 20,2834812,2019-11-06 12:33:08:693,-0.4854,-3.2908,9.1049,0.0114,-0.0145,9.8066,-0.0833,0.5363,-0.2415,15.94,-42.44,-7.44,272.1,-81.44,-0.31
53.05269,-1.77613,254.5,7.99,4,283.83,19 / 20,2834912,2019-11-06 12:33:08:793,-2.5757,4.6848,9.578,0.0098,-0.1169,9.8059,0.0182,-0.3919,0.2149,15.88,-42.5,-7.94,278.15,-81.38,2.3
53.05269,-1.77613,254.5,7.99,4,283.83,19 / 20,2835012,2019-11-06 12:33:08:893,-3.8962,-2.223,8.8694,-0.0216,0.0394,9.8065,-0.0801,-0.3221,0.0978,15.88,-41.56,-8.19,277.78,-81.37,1.99
53.05269,-1.77613,254.5,7.99,4,283.83,19 / 20,2835112,2019-11-06 12:33:08:993,-0.9714,-0.9634,8.7643,-0.0078,-0.0109,9.8066,0.0957,-0.5414,0.2191,16.06,-42.12,-8.56,281.32,-81.43,1.84
53.05269,-1.77613,254.5,7.99,4,283.83,19 / 20,2835212,2019-11-06 12:33:09:093,-0.0344,4.5051,9.9488,0.0144,0.0719,9.8063,-0.0527,-0.34,0.1641,16.31,-42.19,-8.5,275.67,-81.14,0.53
53.05269,-1.77613,254.5,7.99,4,283.83,19 / 20,2835313,2019-11-06 12:33:09:194,0.1642,0.1682,9.0521,0.0092,-0.0146,9.8066,-0.1354,-0.2958,0.1111,16.19,-41.81,-9.06,280.72,-81.14,2
53.05269,-1.77613,254.5,7.99,4,283.83,19 / 20,2835413,2019-11-06 12:33:09:294,-2.5553,5.1195,10.1916,0.0027,0.0506,9.8064,-0.089,0.266,-0.2197,16.69,-42.12,-8.81,279.78,-81.31,1.19
53.05269,-1.77613,254.5,7.99,4,283.83,19 / 21,2835512,2019-11-06 12:33:09:393,-1.3471,0.9178,9.8719,0.0046,0.0808,9.8063,0.0003,-0.0855,-0.031,16.13,-41.12,-8.81,280.57,-81.22,1.15
53.05269,-1.77613,254.5,7.99,4,283.83,19 / 21,2835612,2019-11-06 12:33:09:493,-0.6215,3.1794,9.5494,0.017,0.0106,9.8066,-0.0629,-0.2764,0.1306,16.13,-41.19,-8.94,281,-80.97,2.16
53.05269,-1.77613,254.5,7.99,4,283.83,19 / 21,2835712,2019-11-06 12:33:09:593,-1.3048,-0.1581,9.4442,0.0068,0.0451,9.8065,-0.064,0.1281,-0.1274,16.06,-42.19,-9.25,278.49,-80.86,0.6
53.05269,-1.77613,254.5,7.99,4,283.83,19 / 21,2835811,2019-11-06 12:33:09:692,-2.084,3.8216,9.5581,0.0015,-0.0212,9.8066,-0.0511,0.157,-0.0856,15.63,-42.31,-9.31,278.69,-80.88,0.73
53.05269,-1.77613,254.5,7.99,4,283.83,19 / 21,2835912,2019-11-06 12:33:09:793,-1.1576,-1.6018,9.3953,0.0212,0.0131,9.8066,-0.0852,0.3314,-0.2287,15.5,-41.75,-10,280.09,-80.71,-0.78
53.05269,-1.77613,254.5,7.99,4,283.83,19 / 21,2836012,2019-11-06 12:33:09:893,-0.4063,-0.7844,9.5799,0.0008,-0.0607,9.8064,-0.0512,0.197,-0.1063,15.69,-41.94,-10.75,284.04,-80.48,0.31
53.05269,-1.77613,254.5,7.99,4,283.83,19 / 21,2836112,2019-11-06 12:33:09:993,-1.2474,-2.4013,9.3907,-0.0021,-0.0479,9.8065,-0.0427,0.2759,-0.2107,15.63,-42.25,-10.56,283.95,-80.48,0.22
53.05269,-1.77613,254.5,7.99,4,283.83,19 / 21,2836212,2019-11-06 12:33:10:093,-1.4367,-0.9831,9.8048,-0.0276,-0.0557,9.8064,-0.0445,-0.363,0.1342,15.63,-41.81,-10.69,282.57,-80.6,-1.33
53.05269,-1.77613,254.5,7.99,4,283.83,19 / 21,2836312,2019-11-06 12:33:10:193,0.2215,3.983,9.4249,-0.0228,-0.0826,9.8062,0.0967,-0.2407,0.1587,15.81,-42,-10.19,282.94,-80.62,2.1
53.05269,-1.77613,254.5,7.99,4,283.83,19 / 21,2836412,2019-11-06 12:33:10:293,-1.529,-2.9911,9.0384,-0.001,0.038,9.8065,-0.0096,-0.5158,0.2882,15.94,-41.62,-10.69,284.3,-80.67,0.09
53.05269,-1.77613,254.5,7.99,4,283.83,20 / 21,2836512,2019-11-06 12:33:10:393,0.9749,5.0582,9.6229,-0.01,-0.0649,9.8064,-0.0061,-0.5615,0.3656,15.88,-42,-11.44,286.15,-80.53,2.12
53.05269,-1.77613,254.5,7.99,4,283.83,20 / 21,2836612,2019-11-06 12:33:10:493,-1.2465,0.7639,10.395,0.0035,0.0867,9.8062,-0.043,-0.3899,0.2298,16,-41.31,-11.56,287.95,-80.45,0.45
53.05269,-1.77613,254.5,7.99,4,283.83,20 / 21,2836712,2019-11-06 12:33:10:593,0.9223,5.0669,10.5757,-0.0118,-0.0171,9.8066,0.0826,-0.6496,0.3642,15.81,-41.12,-10.87,287.26,-80.25,3.25
53.05269,-1.77613,254.5,7.99,4,283.83,20 / 21,2836812,2019-11-06 12:33:10:693,-2.5603,-5.019,8.8857,-0.005,0.1066,9.806,0.0135,-0.1322,0.1399,15.94,-41.81,-11.44,287.93,-80.18,4.5
53.05269,-1.77613,254.5,7.99,4,283.83,20 / 21,2836911,2019-11-06 12:33:10:792,-1.9878,-4.2995,8.5727,-0.0183,0.0312,9.8066,0.078,-0.9056,0.5324,15.19,-41.81,-11.31,289.31,-80.41,4.37
53.05269,-1.77613,254.5,7.99,4,283.83,20 / 21,2837012,2019-11-06 12:33:10:893,-1.2889,-7.3977,8.8362,0.0295,0.1146,9.8059,-0.0704,0.2562,-0.1566,16.44,-41.5,-11.19,286.51,-80.12,2.86
53.05269,-1.77613,254.5,7.99,4,283.83,20 / 21,2837112,2019-11-06 12:33:10:993,-0.2449,-2.2008,8.845,0.0486,0.1326,9.8056,-0.0012,-0.6385,0.4299,15.88,-41.25,-12.06,289.3,-79.85,2.94
53.05269,-1.77613,254.5,7.99,4,283.83,20 / 21,2837212,2019-11-06 12:33:11:093,3.2406,6.9673,8.7225,0.0478,0.1109,9.8058,-0.0471,0.7954,-0.4161,16.31,-41.87,-12.31,284.86,-79.34,0.67
53.05269,-1.77613,254.5,7.99,4,283.83,20 / 21,2837312,2019-11-06 12:33:11:193,-0.1198,-2.073,8.795,0.084,0.1654,9.8048,-0.1946,0.1346,-0.093,16.13,-40.62,-11.94,283.75,-78.9,0.09
53.05269,-1.77613,254.5,7.99,4,283.83,20 / 21,2837413,2019-11-06 12:33:11:294,2.3861,4.5379,9.6629,0.0015,-0.008,9.8066,0.0462,-0.5704,0.3862,15.88,-41.25,-13.25,289.76,-78.56,3.22
53.05269,-1.77613,254.5,7.99,4,283.83,19 / 21,2837513,2019-11-06 12:33:11:394,-0.687,-2.2561,10.4631,0.0259,0.1109,9.806,-0.0812,0.4274,-0.2297,15.81,-40.94,-12.62,288.16,-78.55,1.86
53.05269,-1.77613,254.5,7.99,4,283.83,19 / 21,2837612,2019-11-06 12:33:11:493,-1.2832,1.9697,8.7666,-0.0297,-0.0462,9.8064,-0.017,0.2758,-0.1034,15.94,-41.44,-11.75,287.79,-78.72,4.11
53.05269,-1.77613,254.5,7.99,4,283.83,19 / 21,2837711,2019-11-06 12:33:11:592,-1.2048,-2.5373,10.6197,0.0125,0.0278,9.8066,0.0028,0.4719,-0.2462,16.5,-41.31,-13,288.16,-78.62,2.55
53.05269,-1.77613,254.5,7.99,4,283.83,19 / 21,2837811,2019-11-06 12:33:11:692,-1.5459,-2.1753,10.4569,-0.0285,-0.0633,9.8064,-0.0488,-0.101,0.0191,15.63,-41.62,-12.19,286.41,-78.78,3.35
53.05269,-1.77613,254.5,7.99,4,283.83,19 / 21,2837912,2019-11-06 12:33:11:793,0.5433,-1.6875,9.8684,-0.0341,-0.0417,9.8064,0.034,0.1974,0.0109,15.88,-40.87,-12.37,287.38,-78.82,3.52
53.05269,-1.77613,254.5,7.99,4,283.83,19 / 21,2838012,2019-11-06 12:33:11:893,-0.4604,-3.4781,10.1526,0.0002,-0.0149,9.8066,0.018,-0.2326,0.1498,16.94,-41.31,-12.25,286.41,-78.87,3.28
53.05269,-1.77613,254.5,7.99,4,283.83,19 / 21,2838112,2019-11-06 12:33:11:993,-0.4458,0.6324,10.0669,-0.0178,-0.0475,9.8065,0.0522,-0.1014,0.1576,16.13,-41.25,-12.31,288.79,-78.9,4.57
53.05269,-1.77613,254.5,7.99,4,283.83,19 / 21,2838212,2019-11-06 12:33:12:093,-2.1472,-2.7805,9.6923,0.018,0.0309,9.8065,0.0424,-0.2321,0.2824,16.44,-41.31,-11.44,285.03,-78.73,4.75
53.05269,-1.77613,254.5,7.99,4,283.83,19 / 21,2838312,2019-11-06 12:33:12:193,2.7145,3.7037,10.5471,0.0133,-0.0484,9.8065,0.0004,-0.3853,0.2578,16.88,-41,-11.75,288.03,-78.6,5.3
53.05269,-1.77613,254.5,7.99,4,283.83,19 / 21,2838412,2019-11-06 12:33:12:293,0.1839,-1.0985,10.2949,-0.0326,0.1228,9.8057,0.1376,-0.1156,0.2912,16.19,-41.31,-11.5,283.65,-78.75,3.46
53.05269,-1.77613,254.5,7.99,4,283.83,18 / 21,2838512,2019-11-06 12:33:12:393,-4.3647,-5.7222,9.2076,-0.0033,0.0076,9.8066,0.0466,-0.5591,0.1672,16.63,-41.06,-10.87,284.53,-78.71,4.91
53.05269,-1.77613,254.5,7.99,4,283.83,18 / 21,2838611,2019-11-06 12:33:12:492,-3.051,-4.7065,9.1743,0.0104,0.1254,9.8058,0.0679,0.6998,-0.31,16.44,-41.62,-10.87,287.26,-78.87,6.99
53.05269,-1.77613,254.5,7.99,4,283.83,18 / 21,2838712,2019-11-06 12:33:12:593,0.4224,-7.2902,10.7602,0.0261,0.1341,9.8056,-0.0304,0.1111,-0.0379,17,-40.87,-9.94,281.4,-79.05,4.35
53.05269,-1.77613,254.5,7.99,4,283.83,18 / 21,2838812,2019-11-06 12:33:12:693,0.3475,4.8084,10.5344,0.0093,0.0148,9.8065,-0.0039,-0.5692,0.5017,16.81,-42.06,-10.5,281.15,-79.01,4.81
53.05269,-1.77613,254.5,7.99,4,283.83,18 / 21,2838912,2019-11-06 12:33:12:793,-0.3943,0.7636,10.7973,0.0263,0.1706,9.8051,-0.0973,0.7305,-0.2657,17,-41.06,-9.5,275.24,-79.05,1.67
53.05269,-1.77613,254.5,7.99,4,283.83,18 / 21,2839012,2019-11-06 12:33:12:893,-1.0091,5.582,11.1907,0.0136,-0.0968,9.8061,-0.0801,0.6301,-0.2764,16.56,-41.5,-9.5,278.5,-79.15,4.57
53.05269,-1.77613,254.5,7.99,4,283.83,18 / 21,2839112,2019-11-06 12:33:12:993,0.1783,0.214,9.986,-0.0066,0.0358,9.8065,-0.0081,0.8861,-0.3516,16.44,-41.62,-9.5,276.34,-79.35,2.41
53.05269,-1.77613,254.5,7.99,4,283.83,18 / 21,2839212,2019-11-06 12:33:13:093,1.1272,4.3992,9.9933,-0.0099,-0.1383,9.8056,-0.0131,0.0548,0.0488,16.06,-41.62,-9.25,276.03,-79.5,1.7
53.05269,-1.77613,254.5,7.99,4,283.83,18 / 21,2839312,2019-11-06 12:33:13:193,-0.091,2.0776,11.09,0.0118,-0.0469,9.8065,-0.0393,0.6251,-0.2358,16.56,-42.37,-8.94,277.73,-79.44,3.75
53.05269,-1.77613,254.5,7.99,4,283.83,18 / 21,2839412,2019-11-06 12:33:13:293,0.9047,-7.3927,9.0088,0.0039,-0.0874,9.8062,0.1189,-0.5886,0.3645,16.88,-42.06,-8.5,274.58,-79.31,4.34
53.05269,-1.77613,254.5,7.99,4,283.83,18 / 19,2839512,2019-11-06 12:33:13:393,-1.6117,5.7608,11.3229,0.0026,-0.1307,9.8057,0.0096,-0.1034,0.1779,15.88,-42.44,-8,276.38,-79.44,5.69
53.05269,-1.77613,254.5,7.99,4,283.83,18 / 19,2839612,2019-11-06 12:33:13:493,-1.0147,-1.2037,8.9612,0.0034,0.0081,9.8066,-0.1978,0.7025,-0.2719,16.75,-41.75,-7.75,274.05,-79.4,3.58
53.05269,-1.77613,254.5,7.99,4,283.83,18 / 19,2839712,2019-11-06 12:33:13:593,-1.3814,3.0381,10.3737,0.0212,-0.0768,9.8063,-0.0203,-0.4141,0.3522,16.13,-41.87,-8,276.01,-79.61,4.89
53.05269,-1.77613,254.5,7.99,4,283.83,18 / 19,2839812,2019-11-06 12:33:13:693,-0.9192,-6.5135,9.4056,-0.0193,0.0892,9.8061,0.0159,0.2238,0.0302,16.94,-41.87,-7.5,273.12,-79.74,5.19
53.05269,-1.77613,254.5,7.99,4,283.83,18 / 19,2839912,2019-11-06 12:33:13:793,0.2074,-1.0924,11.0572,-0.0226,-0.0187,9.8066,0.1416,-0.4587,0.3835,16.56,-41.87,-6.81,272.8,-80.24,3.57
53.05269,-1.77613,254.5,7.99,4,283.83,18 / 19,2840012,2019-11-06 12:33:13:893,1.7143,-5.1667,11.0468,-0.0156,0.0983,9.8061,0.0226,0.2539,-0.0426,16.63,-42.5,-6.37,267.17,-80.73,0.03
53.05269,-1.77613,254.5,7.99,4,283.83,18 / 19,2840112,2019-11-06 12:33:13:993,-2.4816,-1.3383,9.3858,-0.034,0.041,9.8064,0.1406,-0.2207,0.2906,16.38,-42,-6.37,269.48,-80.99,1.85
53.05269,-1.77613,254.5,7.99,4,283.83,18 / 19,2840212,2019-11-06 12:33:14:093,-2.3219,2.7202,9.9139,-0.0187,0.0705,9.8063,-0.0569,0.5742,-0.1885,16.88,-42.19,-5.69,269.66,-81.34,1
53.05269,-1.77613,254.5,7.99,4,283.83,18 / 19,2840312,2019-11-06 12:33:14:193,-0.3253,-1.9761,10.2911,-0.0377,0.0792,9.8062,0.0029,0.2042,-0.0675,16.75,-42,-5.19,267.27,-81.48,1.62
53.05269,-1.77613,254.5,7.99,4,283.83,18 / 19,2840412,2019-11-06 12:33:14:293,-0.9404,2.9628,10.1515,-0.013,-0.0412,9.8065,0.0866,-0.2025,0.1721,16.69,-42.44,-5.06,268.99,-81.43,3.53
53.052963,-1.777469,248.7,12.95,4,276.45,17 / 20,2840512,2019-11-06 12:33:14:393,-1.1552,-6.0423,10.6259,-0.0206,0.0331,9.8065,0.0126,-0.2449,0.247,16.75,-42.5,-4.06,267.78,-81.56,5.39
53.052963,-1.777469,248.7,12.95,4,276.45,17 / 20,2840612,2019-11-06 12:33:14:493,-1.1215,2.5492,10.5427,0.0012,-0.0964,9.8061,0.1111,-0.374,0.3514,17.06,-42.75,-3.06,269.31,-81.81,10.29
53.052963,-1.777469,248.7,12.95,4,276.45,17 / 20,2840712,2019-11-06 12:33:14:593,-1.5213,-0.7889,10.7852,-0.0144,-0.0033,9.8066,-0.0342,0.0421,0.1103,17.5,-42.56,-3.31,270.71,-82.2,10.09
53.052963,-1.777469,248.7,12.95,4,276.45,17 / 20,2840812,2019-11-06 12:33:14:693,-2.2085,2.0642,11.0713,0.0443,-0.0708,9.8062,0.138,-0.3104,0.2394,16.75,-42.37,-2.62,274.63,-82.26,13.91
53.052963,-1.777469,248.7,12.95,4,276.45,17 / 20,2840912,2019-11-06 12:33:14:793,1.3819,-1.5268,9.1762,0.0317,-0.012,9.8065,0.0111,0.2271,-0.0227,17.44,-42.44,-2.06,270.61,-82.35,13.15
53.052963,-1.777469,248.7,12.95,4,276.45,17 / 20,2841012,2019-11-06 12:33:14:893,0.9078,-3.4684,9.6049,0.0228,-0.0442,9.8064,0.1129,-0.1921,0.0915,18.13,-42.87,-2.12,270.56,-82.42,12.64
53.052963,-1.777469,248.7,12.95,4,276.45,17 / 20,2841112,2019-11-06 12:33:14:993,0.7867,-4.249,7.804,0.0106,-0.074,9.8063,-0.0489,0.3481,-0.2063,17.81,-42.62,-1.87,273.38,-82.34,15.64
53.052963,-1.777469,248.7,12.95,4,276.45,17 / 20,2841212,2019-11-06 12:33:15:093,-0.617,-2.8869,9.1005,0.0613,-0.0628,9.8062,0.0015,0.015,0.1118,16.94,-42.5,-2.75,276.13,-81.74,16.73
53.052963,-1.777469,248.7,12.95,4,276.45,17 / 20,2841312,2019-11-06 12:33:15:193,0.7442,-0.3492,8.9743,0.0215,-0.0484,9.8064,-0.0008,0.2634,-0.0576,17.94,-42.31,-2.25,272.94,-81.58,16.67
53.052963,-1.777469,248.7,12.95,4,276.45,17 / 20,2841412,2019-11-06 12:33:15:293,-0.2108,-0.7532,10.3951,-0.0021,-0.0033,9.8066,-0.0519,0.2011,-0.1078,18.19,-42.37,-1.69,272.89,-81.39,17.11
53.052963,-1.777469,248.7,12.95,4,276.45,17 / 20,2841512,2019-11-06 12:33:15:393,-1.8659,0.3016,10.234,0.0074,-0.0467,9.8064,-0.0406,0.1637,0.0009,18.19,-42.87,-2.37,274.44,-81.42,19.08
53.052963,-1.777469,248.7,12.95,4,276.45,17 / 20,2841612,2019-11-06 12:33:15:493,-0.5321,1.8938,10.8668,-0.0226,0.0367,9.8065,-0.0463,0.3507,-0.1386,18.06,-42.56,-2.06,274.42,-81.49,18.86
53.052963,-1.777469,248.7,12.95,4,276.45,17 / 20,2841712,2019-11-06 12:33:15:593,-2.3464,0.9277,9.409,0.0016,0.0295,9.8066,-0.0762,0.0383,0.0221,18.44,-42.37,-1.5,271.66,-81.45,18.99
53.052963,-1.777469,248.7,12.95,4,276.45,17 / 20,2841812,2019-11-06 12:33:15:693,-0.1884,0.8612,10.6329,-0.0046,0.0397,9.8065,-0.0035,0.2687,-0.1406,17.63,-42.31,-1.5,272.33,-81.42,19.74
53.052963,-1.777469,248.7,12.95,4,276.45,17 / 20,2841912,2019-11-06 12:33:15:793,-1.2305,-2.3435,9.4329,-0.0008,0.0236,9.8066,-0.0506,0.0681,-0.0397,18.13,-42.37,-0.62,273.65,-81.23,21.53
53.052963,-1.777469,248.7,12.95,4,276.45,17 / 20,2842012,2019-11-06 12:33:15:893,0.1099,0.3765,10.3315,0.0176,-0.0311,9.8065,-0.0226,-0.0241,0.0797,18.31,-42.19,-0.75,275.32,-80.98,23.83
53.052963,-1.777469,248.7,12.95,4,276.45,17 / 20,2842112,2019-11-06 12:33:15:993,-0.5395,-4.5189,8.8517,-0.0038,-0.0034,9.8066,0.0117,-0.1101,0.1534,19.13,-42.75,-0.75,276.09,-81.08,23.79
53.052963,-1.777469,248.7,12.95,4,276.45,17 / 20,2842212,2019-11-06 12:33:16:093,0.256,-2.3684,9.0488,0.0277,-0.0373,9.8065,0.1169,-0.3709,0.2764,18.25,-42.5,-1,276.11,-81.38,23.55
53.052963,-1.777469,248.7,12.95,4,276.45,17 / 20,2842312,2019-11-06 12:33:16:193,-0.6982,-2.7252,9.4673,0.0225,-0.0168,9.8066,-0.0738,0.1767,-0.0204,17.63,-41.94,-1.44,275.45,-81.38,22.91
53.052963,-1.777469,248.7,12.95,4,276.45,17 / 20,2842412,2019-11-06 12:33:16:293,0.1312,1.6539,8.9285,0.0322,-0.0324,9.8065,-0.0993,-0.293,0.2479,17.69,-42.37,-1.06,273.67,-81.16,21.73
53.052963,-1.777469,248.7,12.95,4,276.45,17 / 17,2842512,2019-11-06 12:33:16:393,-1.4978,-0.0852,10.3648,0.0418,-0.0298,9.8064,-0.1571,0.1507,0.1113,17.88,-42.5,-1.25,271.68,-80.94,20.32
53.052963,-1.777469,248.7,12.95,4,276.45,17 / 17,2842612,2019-11-06 12:33:16:493,1.2209,-1.2311,9.5861,0.0304,-0.0182,9.8065,0.0474,-0.1128,0.1334,18.06,-42.75,-0.56,271,-80.89,20.32
53.052963,-1.777469,248.7,12.95,4,276.45,17 / 17,2842712,2019-11-06 12:33:16:593,0.7422,0.3162,9.6191,-0.0024,0.0058,9.8066,0.033,0.1999,-0.0136,17.63,-42.87,-0.37,268.47,-81,20.68
53.052963,-1.777469,248.7,12.95,4,276.45,17 / 17,2842812,2019-11-06 12:33:16:693,-1.0834,-0.6596,10.9822,-0.0005,0.0514,9.8065,0.0969,0.1432,-0.1432,17.94,-42.31,-0.06,270.47,-81.16,21.75
53.052963,-1.777469,248.7,12.95,4,276.45,17 / 17,2842912,2019-11-06 12:33:16:793,-0.199,1.8013,10.3219,-0.0272,-0.0475,9.8065,0.1125,0.3649,-0.2458,17.69,-42.44,0.06,270.79,-81.28,21.75
53.052963,-1.777469,248.7,12.95,4,276.45,17 / 17,2843012,2019-11-06 12:33:16:893,0.9384,-1.5523,10.52,-0.0369,0.0523,9.8064,-0.0861,0.3788,-0.138,17.63,-42.12,0.38,268.96,-81.4,19.61
53.052963,-1.777469,248.7,12.95,4,276.45,17 / 17,2843112,2019-11-06 12:33:16:993,0.0203,0.9626,9.5498,-0.0179,-0.0342,9.8066,0.0071,0.3672,-0.2198,17.19,-43,0,268.63,-81.36,21.22
53.052963,-1.777469,248.7,12.95,4,276.45,17 / 17,2843212,2019-11-06 12:33:17:093,-0.6998,-2.4038,9.4109,-0.002,0.008,9.8066,-0.0842,0.2436,-0.0054,17.13,-42.81,1.19,265.09,-81.54,20.38
53.052963,-1.777469,248.7,12.95,4,276.45,17 / 17,2843312,2019-11-06 12:33:17:193,0.913,-0.125,10.5284,0.0043,0.0071,9.8065,-0.0448,0.0161,0.1756,17.19,-43,0.19,266.74,-81.51,18.83
53.052963,-1.777469,248.7,12.95,4,276.45,17 / 17,2843412,2019-11-06 12:33:17:293,-0.8724,0.8968,8.753,-0.0029,0.0274,9.8066,0.0128,-0.027,0.003,17.19,-42.75,0.44,266.63,-81.58,18.53
53.052963,-1.777469,248.7,12.95,4,276.45,17 / 17,2843512,2019-11-06 12:33:17:393,0.3849,1.6997,11.6614,0.0209,0.0297,9.8065,0.1085,0.014,-0.004,17.44,-42.5,0.63,262.89,-81.59,17.38
53.052963,-1.777469,248.7,12.95,4,276.45,17 / 17,2843612,2019-11-06 12:33:17:493,0.0515,1.267,11.1616,0.0325,-0.0008,9.8066,0.1018,-0.0106,0.0218,17.75,-42.31,1.06,264.01,-81.46,17.48
53.052963,-1.777469,248.7,12.95,4,276.45,17 / 17,2843712,2019-11-06 12:33:17:593,-0.1808,-0.3418,10.8905,-0.003,0.0096,9.8066,0.0827,0.0792,-0.0469,17.5,-42.12,1.56,262.15,-81.57,18.32
53.052963,-1.777469,248.7,12.95,4,276.45,17 / 17,2843811,2019-11-06 12:33:17:692,-0.3126,-1.5141,9.5224,0.015,-0.0412,9.8065,0.065,-0.0964,0.0995,17.63,-42.62,1.31,267.64,-81.65,21.27
53.052963,-1.777469,248.7,12.95,4,276.45,17 / 17,2843912,2019-11-06 12:33:17:793,1.1354,-3.5089,9.6389,0.0148,0.026,9.8065,-0.0968,-0.286,0.1773,17.19,-42.62,1.75,263.44,-81.74,21.32
53.052963,-1.777469,248.7,12.95,4,276.45,17 / 17,2844012,2019-11-06 12:33:17:893,-1.0957,3.2998,10.3595,0.0805,-0.0224,9.8062,0.1301,-0.3428,0.2949,17.19,-42.44,1.69,263.19,-81.89,20.15
53.052963,-1.777469,248.7,12.95,4,276.45,17 / 17,2844112,2019-11-06 12:33:17:993,1.1053,0.4096,10.3817,0.003,0.0216,9.8065,0.0364,-0.0292,-0.1033,17.56,-42.69,1.25,265.97,-81.55,19.79
53.052963,-1.777469,248.7,12.95,4,276.45,17 / 17,2844211,2019-11-06 12:33:18:092,-0.4102,3.1615,10.3533,0.0003,-0.0391,9.8065,0.0335,-0.3205,0.1742,16.94,-43.31,2.06,263.57,-81.62,21.78
53.052963,-1.777469,248.7,12.95,4,276.45,17 / 17,2844312,2019-11-06 12:33:18:193,0.6197,-1.4767,10.1151,0.0121,0.0031,9.8066,0.1606,-0.0524,0.043,17.19,-42.87,2,263.2,-81.78,20.97
53.052963,-1.777469,248.7,12.95,4,276.45,17 / 17,2844412,2019-11-06 12:33:18:293,1.1622,0.951,9.9256,0.0294,-0.0224,9.8065,0.1832,-0.2068,0.125,17.19,-42.56,1.69,264.75,-81.86,22.36
53.052963,-1.777469,248.7,12.95,4,276.45,17 / 19,2844512,2019-11-06 12:33:18:393,0.2699,-0.0882,9.6243,-0.0321,0.0148,9.8065,0.0721,-0.1381,0.1094,17.31,-42.75,1.75,265.46,-82.23,22.1
53.052963,-1.777469,248.7,12.95,4,276.45,17 / 19,2844612,2019-11-06 12:33:18:493,2.895,2.9692,10.3616,0.0143,0.0156,9.8066,-0.0749,-0.1236,-0.0012,17.06,-43.5,2.38,265.26,-82.22,21.92
53.052963,-1.777469,248.7,12.95,4,276.45,17 / 19,2844712,2019-11-06 12:33:18:593,0.2481,1.4147,10.7079,0.0154,0.001,9.8066,-0.0664,-0.0023,0.0187,16.94,-42.75,1.44,266.81,-82.04,20.8
53.052963,-1.777469,248.7,12.95,4,276.45,17 / 19,2844811,2019-11-06 12:33:18:692,0.5543,3.3934,10.4504,0.0067,-0.0392,9.8065,0.0974,-0.2036,0.0622,17,-43,1.63,264.59,-82.19,21.3
53.052963,-1.777469,248.7,12.95,4,276.45,17 / 19,2844912,2019-11-06 12:33:18:793,-0.648,0.8913,9.8272,0.0184,-0.0468,9.8065,0.0124,0.2586,-0.1361,16.38,-43.06,1.38,267.6,-82.36,22.23
53.052963,-1.777469,248.7,12.95,4,276.45,17 / 19,2845012,2019-11-06 12:33:18:893,2.015,-0.436,10.603,0.0182,-0.027,9.8066,0.0326,0.0261,0.0788,16.56,-43.69,2.13,265.93,-82.58,22.11
53.052963,-1.777469,248.7,12.95,4,276.45,17 / 19,2845112,2019-11-06 12:33:18:993,-1.3495,3.5327,9.9458,0.007,-0.0208,9.8066,0.0704,0.1144,-0.1502,17.19,-43.12,2,266.33,-82.69,21.76
53.052963,-1.777469,248.7,12.95,4,276.45,17 / 19,2845212,2019-11-06 12:33:19:093,1.2038,-0.633,10.3482,-0.0291,0.0548,9.8064,-0.0696,0.4949,-0.2391,16.44,-42.62,2.44,264.24,-82.71,21.15
53.052963,-1.777469,248.7,12.95,4,276.45,17 / 19,2845312,2019-11-06 12:33:19:193,-0.2909,-0.988,9.0129,-0.015,0.01,9.8066,0.0398,-0.1888,-0.0177,16.5,-42.87,2.13,264.32,-82.67,19.73
53.052963,-1.777469,248.7,12.95,4,276.45,17 / 19,2845412,2019-11-06 12:33:19:293,-0.4268,-1.8215,9.2155,-0.0255,0.0521,9.8064,-0.0453,0.2987,-0.1843,16.81,-42.81,1.56,261.75,-82.5,17.5
53.052963,-1.777469,248.7,12.95,4,276.45,17 / 18,2845512,2019-11-06 12:33:19:393,1.88,0.1143,8.7388,-0.021,0.0589,9.8064,0.0489,-0.4362,0.1617,16.75,-43.12,2.06,261.73,-82.27,18.07
53.052963,-1.777469,248.7,12.95,4,276.45,17 / 18,2845612,2019-11-06 12:33:19:493,-1.2372,3.5619,10.1341,0.0019,0.0266,9.8066,0.0746,-0.0515,-0.0989,17.25,-42.56,1.06,263.8,-81.94,17.92
53.052963,-1.777469,248.7,12.95,4,276.45,17 / 18,2845711,2019-11-06 12:33:19:592,1.7071,1.743,9.9114,-0.0219,0.0223,9.8066,0.1025,-0.4457,0.0891,17.31,-42.12,1.63,261.93,-81.94,18.69
53.052963,-1.777469,248.7,12.95,4,276.45,17 / 18,2845812,2019-11-06 12:33:19:693,-1.2947,3.3857,8.9546,0.0129,-0.0686,9.8063,0.0165,-0.4424,0.1633,16.88,-42.62,0.19,267.76,-81.89,18.86
53.052963,-1.777469,248.7,12.95,4,276.45,17 / 18,2845912,2019-11-06 12:33:19:793,0.4547,1.8432,10.1013,0.0114,0,9.8066,-0.0529,-0.3589,0.1212,17.19,-42.56,0.63,266.73,-81.84,21.27
53.052963,-1.777469,248.7,12.95,4,276.45,17 / 18,2846012,2019-11-06 12:33:19:893,-2.5607,4.9241,9.5656,0.0659,-0.0846,9.806,0.0276,-0.605,0.2764,17.44,-43,0.69,268.54,-81.37,24.42
53.052963,-1.777469,248.7,12.95,4,276.45,17 / 18,2846112,2019-11-06 12:33:19:993,-1.1009,-0.7525,9.0699,0.0351,-0.0109,9.8065,-0.0351,-0.1223,-0.0197,17.75,-42.44,0.25,271.86,-81.27,22.87
53.052963,-1.777469,248.7,12.95,4,276.45,17 / 18,2846212,2019-11-06 12:33:20:093,-0.7507,-1.6256,9.2571,0.0323,-0.1081,9.8059,0.0098,-0.5781,0.3077,17.69,-42.25,-0.62,272.87,-81.2,20.83
53.052963,-1.777469,248.7,12.95,4,276.45,17 / 18,2846312,2019-11-06 12:33:20:193,-1.3374,6.6033,10.4357,0.0322,-0.0461,9.8065,0.1048,-0.4945,0.2576,18.13,-42.62,-0.81,274.79,-80.91,24.01
53.052963,-1.777469,248.7,12.95,4,276.45,17 / 18,2846412,2019-11-06 12:33:20:293,-1.0713,2.5157,10.4319,0.0249,-0.069,9.8063,0.0774,-0.2245,0.1059,17.69,-42.81,-1.25,276.86,-80.92,25.99
53.052963,-1.777469,248.7,12.95,4,276.45,17 / 17,2846512,2019-11-06 12:33:20:393,-3.3455,3.1032,9.8036,0.017,-0.0534,9.8065,-0.104,0.3398,-0.3237,17.56,-42.81,-0.31,274.66,-81,26.88
53.052963,-1.777469,248.7,12.95,4,276.45,17 / 17,2846612,2019-11-06 12:33:20:493,1.4293,-1.4535,9.7829,0.019,-0.0114,9.8065,0.0146,0.1854,-0.1112,17.81,-41.87,-0.31,275.17,-80.94,26.98
53.052963,-1.777469,248.7,12.95,4,276.45,17 / 17,2846712,2019-11-06 12:33:20:593,-0.5722,2.842,9.7501,0.019,-0.0494,9.8064,-0.0729,0.3272,-0.2227,17.88,-42,-1.19,279.57,-80.89,28.11
53.052963,-1.777469,248.7,12.95,4,276.45,17 / 17,2846812,2019-11-06 12:33:20:693,1.3459,-1.6802,8.8612,0.0006,0.0108,9.8066,-0.0974,0.3469,-0.2441,18.5,-42.31,-1.06,281.31,-80.79,28.97
53.052963,-1.777469,248.7,12.95,4,276.45,17 / 17,2846912,2019-11-06 12:33:20:793,-0.1119,0.539,9.6685,0.0299,-0.0284,9.8065,-0.1103,0.2352,-0.1278,18.31,-41.94,-1.5,281.1,-80.44,30.71
53.052963,-1.777469,248.7,12.95,4,276.45,17 / 17,2847012,2019-11-06 12:33:20:893,2.5085,0.1391,9.8481,-0.0078,0.0096,9.8066,-0.0949,0.1754,-0.1053,18.69,-42.06,-0.37,279.46,-80.26,31.57
53.052963,-1.777469,248.7,12.95,4,276.45,17 / 17,2847112,2019-11-06 12:33:20:993,-0.6162,1.7728,9.8109,0.0175,-0.0381,9.8065,-0.052,0.2675,-0.1074,18.38,-42,-1.44,282.03,-80.07,32.51
53.052963,-1.777469,248.7,12.95,4,276.45,17 / 17,2847211,2019-11-06 12:33:21:092,-0.9337,-0.8412,8.8638,-0.0193,0.0491,9.8064,-0.068,0.3588,-0.103,18.25,-41.69,-1.44,281.5,-80.01,32.18
53.052963,-1.777469,248.7,12.95,4,276.45,17 / 17,2847312,2019-11-06 12:33:21:193,-2.014,3.9878,10.7753,0.0106,0.0069,9.8066,-0.0171,0.0585,0.0455,17.81,-42.31,-1.62,283.53,-80.05,30.66
53.052963,-1.777469,248.7,12.95,4,276.45,17 / 17,2847412,2019-11-06 12:33:21:293,-0.7542,2.2956,9.099,-0.0427,0.0827,9.8061,-0.0759,0.311,-0.0077,17.94,-42.37,-1.69,281.64,-80.18,28.6
53.052963,-1.777469,248.7,12.95,4,276.45,17 / 17,2847512,2019-11-06 12:33:21:393,2.7302,-3.7744,10.5808,-0.0189,0.087,9.8061,0.0229,-0.3216,0.3519,17.88,-41.56,-0.87,277.37,-80.15,27.94
53.052963,-1.777469,248.7,12.95,4,276.45,17 / 17,2847612,2019-11-06 12:33:21:493,0.5967,3.1458,11.3271,-0.0355,0.0538,9.8063,-0.0119,0.1188,0.0432,17.56,-42.31,-1.12,278.52,-80.01,29.4
53.052963,-1.777469,248.7,12.95,4,276.45,17 / 17,2847712,2019-11-06 12:33:21:593,1.6326,-4.8005,9.568,-0.0464,0.0789,9.8061,0.1641,-0.5205,0.4509,17.75,-42.19,-0.37,274.79,-80.37,28.09
53.052963,-1.777469,248.7,12.95,4,276.45,17 / 17,2847812,2019-11-06 12:33:21:693,-3.8694,2.4794,10.419,-0.0082,-0.0114,9.8066,-0.0497,-0.4211,0.3093,18.19,-43.31,-0.62,278.63,-80.5,28.81
53.052963,-1.777469,248.7,12.95,4,276.45,17 / 17,2847912,2019-11-06 12:33:21:793,3.1388,-10.3388,9.5861,-0.0005,-0.0037,9.8065,0.0823,-0.113,0.0221,17.38,-42.25,0,273.73,-80.31,28.69
53.052963,-1.777469,248.7,12.95,4,276.45,17 / 17,2848012,2019-11-06 12:33:21:893,-2.0373,3.223,10.437,0.0572,-0.1901,9.8046,0.1654,-1.1727,0.7594,17.25,-42.5,-0.19,275.36,-80.15,30.72
53.052963,-1.777469,248.7,12.95,4,276.45,17 / 17,2848112,2019-11-06 12:33:21:993,-5.9579,9.6316,10.553,0.0455,-0.1537,9.8053,0.1794,-1.2104,0.834,18.19,-42.62,0.81,273.31,-80.54,29.91
53.052963,-1.777469,248.7,12.95,4,276.45,17 / 17,2848213,2019-11-06 12:33:22:094,2.8271,-8.1227,10.4798,0.0554,-0.119,9.8057,-0.0003,-0.2821,0.22,17.75,-42.06,0.88,271.06,-80.97,25.97
53.052963,-1.777469,248.7,12.95,4,276.45,17 / 17,2848311,2019-11-06 12:33:22:192,-2.5956,2.3015,9.4478,0.1007,-0.2168,9.8037,0.0656,-1.0238,0.8266,17.88,-42.44,1.69,271.55,-80.49,30.75
53.052963,-1.777469,248.7,12.95,4,276.45,17 / 17,2848412,2019-11-06 12:33:22:293,3.5737,-10.053,9.8308,0.0151,-0.0226,9.8066,-0.0054,0.6283,-0.248,17.94,-42.31,2.06,270.11,-80.77,28.58
53.052963,-1.777469,248.7,12.95,4,276.45,17 / 19,2848513,2019-11-06 12:33:22:394,1.0447,0.7547,10.006,-0.0731,0.1059,9.8057,0.0272,0.7234,-0.2631,17.44,-42.94,1.25,273.49,-80.71,31.25
53.052963,-1.777469,248.7,12.95,4,276.45,17 / 19,2848613,2019-11-06 12:33:22:494,-2.1825,3.186,9.2311,-0.047,0.0986,9.806,-0.0376,0.9099,-0.4752,17.81,-42.25,2.75,269.01,-81.2,29.33
53.052963,-1.777469,248.7,12.95,4,276.45,17 / 19,2848712,2019-11-06 12:33:22:593,-4.0477,3.064,9.5994,-0.0135,-0.0062,9.8066,-0.1091,0.2029,0.0901,17.38,-42.56,2.69,268.95,-81.2,31.61
53.052963,-1.777469,248.7,12.95,4,276.45,17 / 19,2848812,2019-11-06 12:33:22:693,3.2352,-0.7559,9.6903,-0.0444,0.0984,9.806,-0.0299,0.5349,-0.383,16.75,-42.5,2.81,271.02,-81.18,33.22
53.052963,-1.777469,248.7,12.95,4,276.45,17 / 19,2848912,2019-11-06 12:33:22:793,2.4162,-2.688,9.9972,0.009,0.0283,9.8065,0.0276,0.0119,0.1036,16.56,-43.37,2.81,268.95,-81.18,31.67
53.052963,-1.777469,248.7,12.95,4,276.45,17 / 19,2849012,2019-11-06 12:33:22:893,3.5308,-3.6011,9.7096,-0.035,0.0424,9.8065,-0.0641,0.4646,-0.2863,17.38,-42.37,3.81,266.26,-81.31,30.99
53.052963,-1.777469,248.7,12.95,4,276.45,17 / 19,2849112,2019-11-06 12:33:22:993,1.7088,-0.4911,8.2907,-0.0202,0.0314,9.8065,0.1377,-0.0442,0.0125,17,-43.25,4,266.53,-81.1,32.35
53.052963,-1.777469,248.7,12.95,4,276.45,17 / 19,2849212,2019-11-06 12:33:23:093,-2.3147,1.1938,11.2455,-0.0262,0.0752,9.8063,0.0384,0.4813,-0.1351,17.06,-43.06,3.44,267.83,-81.16,30.58
53.052963,-1.777469,248.7,12.95,4,276.45,17 / 19,2849312,2019-11-06 12:33:23:193,0.4867,-1.2052,10.1096,-0.0903,0.0441,9.8061,0.1078,-0.3941,0.2527,17.31,-43.56,4.81,262.27,-81.36,30.5
53.052963,-1.777469,248.7,12.95,4,276.45,17 / 19,2849412,2019-11-06 12:33:23:293,-1.0182,1.6379,9.8659,-0.0165,0.0123,9.8065,-0.0034,0.1176,0.1208,16.13,-42.87,4.06,263.38,-81.31,30.67
53.052814,-1.77913,240.81,11.92,4,246.09,18 / 19,2849512,2019-11-06 12:33:23:393,2.1631,-3.1264,9.7903,-0.0575,0.0663,9.8062,0.0181,0.4731,-0.1701,16.31,-42.69,4.38,264.21,-81.35,31.43
53.052814,-1.77913,240.81,11.92,4,246.09,18 / 19,2849612,2019-11-06 12:33:23:493,-2.7887,-0.4358,9.5894,0.0179,-0.0063,9.8066,-0.1128,0.2618,0.0086,15.88,-42.87,4.88,260.05,-81.66,29.03
53.052814,-1.77913,240.81,11.92,4,246.09,18 / 19,2849712,2019-11-06 12:33:23:593,0.1568,-1.3055,10.4759,0.0049,-0.004,9.8065,0.021,0.397,-0.1784,16.25,-43.25,5.06,258.99,-81.64,27.92
53.052814,-1.77913,240.81,11.92,4,246.09,18 / 19,2849812,2019-11-06 12:33:23:693,1.6841,-1.7335,9.1943,0.0339,-0.0458,9.8065,-0.059,0.2986,-0.1204,16.19,-43.31,5.13,258.73,-81.67,27.57
53.052814,-1.77913,240.81,11.92,4,246.09,18 / 19,2849912,2019-11-06 12:33:23:793,0.9659,-0.5074,9.5784,0.0478,-0.0282,9.8065,-0.0116,0.2319,-0.1679,16.44,-42.37,5.81,258.69,-81.63,29.89
53.052814,-1.77913,240.81,11.92,4,246.09,18 / 19,2850012,2019-11-06 12:33:23:893,0.1386,-1.2665,10.4134,0.0244,0.0013,9.8065,-0.0123,-0.0565,0.0346,16.44,-42.37,6.06,260.13,-81.55,31.66
53.052814,-1.77913,240.81,11.92,4,246.09,18 / 19,2850112,2019-11-06 12:33:23:993,-0.7481,0.8655,10.1116,0.0307,-0.0235,9.8065,-0.0807,-0.0324,0.1051,17.25,-42.37,5.94,263.83,-81.41,33.68
53.052814,-1.77913,240.81,11.92,4,246.09,18 / 19,2850212,2019-11-06 12:33:24:093,1.2981,-1.225,10.2948,-0.021,0.0212,9.8065,0.0962,-0.0694,-0.0021,16.75,-42.62,6.44,263.39,-81.48,33.56
53.052814,-1.77913,240.81,11.92,4,246.09,18 / 19,2850312,2019-11-06 12:33:24:193,-2.5635,2.6829,10.4867,0.0153,0.0077,9.8066,-0.0598,-0.3727,0.329,15.75,-42.69,6.25,262.48,-81.35,35.25
53.052814,-1.77913,240.81,11.92,4,246.09,18 / 19,2850412,2019-11-06 12:33:24:293,-2.0216,2.1711,9.8642,-0.0597,0.0623,9.8062,0.0934,0.0354,-0.1018,16.06,-42.75,6.25,263.98,-81.45,36.56
53.052814,-1.77913,240.81,11.92,4,246.09,17 / 19,2850512,2019-11-06 12:33:24:393,-7.0103,3.3,8.5178,-0.0288,0.0423,9.8065,-0.0314,-0.7113,0.5059,16.38,-43.31,6.69,261.86,-81.68,36.28
53.052814,-1.77913,240.81,11.92,4,246.09,17 / 19,2850612,2019-11-06 12:33:24:493,-0.3536,2.8088,11.2308,-0.0798,0.1453,9.8052,-0.1647,0.5552,-0.3037,16.19,-42.5,6.25,262.76,-81.93,33.47
53.052814,-1.77913,240.81,11.92,4,246.09,17 / 19,2850712,2019-11-06 12:33:24:593,1.8223,-5.3218,9.8355,-0.0787,0.0957,9.8058,-0.0569,-0.4007,0.2866,16.63,-43.06,6.69,262.19,-81.66,34.36
53.052814,-1.77913,240.81,11.92,4,246.09,17 / 19,2850812,2019-11-06 12:33:24:693,1.0408,-2.258,9.9277,-0.081,0.0861,9.8059,-0.078,0.7789,-0.4463,16.31,-42.75,6.5,258.5,-81.61,32.86
53.052814,-1.77913,240.81,11.92,4,246.09,17 / 19,2850912,2019-11-06 12:33:24:793,-0.3083,-1.218,9.7373,-0.0974,0.0819,9.8058,0.0322,-0.3707,0.2657,15.94,-43.19,6.56,259.42,-81.54,34.03
53.052814,-1.77913,240.81,11.92,4,246.09,17 / 19,2851012,2019-11-06 12:33:24:893,-6.7042,4.0612,9.6408,-0.0376,0.0427,9.8064,-0.1241,0.7196,-0.5187,16.19,-43.69,7.25,260.91,-81.23,37
53.052814,-1.77913,240.81,11.92,4,246.09,17 / 19,2851112,2019-11-06 12:33:24:993,-2.6547,0.5858,10.0739,-0.0682,0.081,9.806,0.0468,-0.12,0.1091,16.94,-43.31,7.13,262.77,-81.04,36.53
53.052814,-1.77913,240.81,11.92,4,246.09,17 / 19,2851212,2019-11-06 12:33:25:093,-5.8271,1.7725,8.0022,-0.0245,0.0297,9.8065,-0.0464,0.87,-0.5158,16.31,-43,6.13,262.43,-80.84,36.61
53.052814,-1.77913,240.81,11.92,4,246.09,17 / 19,2851312,2019-11-06 12:33:25:193,4.495,-4.9527,9.3979,-0.0836,0.1152,9.8056,-0.1033,0.1692,-0.1598,16.13,-43.37,6.31,261.33,-80.85,35.4
53.052814,-1.77913,240.81,11.92,4,246.09,17 / 19,2851411,2019-11-06 12:33:25:292,-2.4609,2.3442,10.1088,0.0283,0.0167,9.8065,0.0852,-0.3774,0.244,15.94,-42.37,5.94,260.64,-80.35,35.4
53.052814,-1.77913,240.81,11.92,4,246.09,17 / 18,2851511,2019-11-06 12:33:25:392,3.2644,-6.7353,8.8989,-0.0853,0.0851,9.8058,0.0475,-0.5998,0.366,16,-43.25,6.19,259.04,-80.57,33.65
53.052814,-1.77913,240.81,11.92,4,246.09,17 / 18,2851612,2019-11-06 12:33:25:493,-0.1126,1.2179,9.7986,0.0642,-0.0492,9.8062,0.1718,-0.6435,0.4136,15.38,-43,6.5,254.69,-80.8,33.44
53.052814,-1.77913,240.81,11.92,4,246.09,17 / 18,2851712,2019-11-06 12:33:25:593,2.3811,-4.855,8.9481,0.0018,0.0005,9.8066,0.0258,-0.1,-0.0059,15.88,-43.56,6.75,257.71,-80.82,34.6
53.052814,-1.77913,240.81,11.92,4,246.09,17 / 18,2851813,2019-11-06 12:33:25:694,-0.9962,1.0721,10.5181,0.0878,-0.0707,9.8059,0.1101,-0.5505,0.2926,16,-43.37,6.06,261.47,-80.51,36.49
53.052814,-1.77913,240.81,11.92,4,246.09,17 / 18,2851912,2019-11-06 12:33:25:793,-3.1587,2.8836,9.0209,0.0349,-0.061,9.8063,-0.0126,0.407,-0.1112,15.81,-43.19,6,261.36,-80.64,35.99
53.052814,-1.77913,240.81,11.92,4,246.09,17 / 18,2852011,2019-11-06 12:33:25:892,-0.4427,-1.727,10.1308,0.0099,-0.042,9.8065,-0.0723,0.012,-0.0252,15.81,-43.06,6.69,259.76,-80.6,36.89
53.052814,-1.77913,240.81,11.92,4,246.09,17 / 18,2852111,2019-11-06 12:33:25:992,-5.3701,2.1531,10.4005,0.0572,-0.034,9.8064,0.071,-0.4664,0.2423,15.81,-42.94,6.69,259.53,-80.43,37.1
53.052814,-1.77913,240.81,11.92,4,246.09,17 / 18,2852212,2019-11-06 12:33:26:093,0.4593,-3.0762,9.7201,-0.0426,-0.0212,9.8065,-0.1671,0.2591,-0.0582,16.31,-42.87,6.5,258.97,-80.53,36.22
53.052814,-1.77913,240.81,11.92,4,246.09,17 / 18,2852311,2019-11-06 12:33:26:192,-4.8465,0.4814,10.5057,0.0428,-0.0366,9.8064,-0.1891,0.5872,-0.2273,15.38,-42.87,6.06,259.06,-80.63,36.25
53.052814,-1.77913,240.81,11.92,4,246.09,17 / 18,2852412,2019-11-06 12:33:26:293,2.1191,-3.514,8.7653,-0.0693,0.0184,9.8063,-0.1185,0.4782,-0.3731,15.81,-43.31,6.63,258.67,-80.8,35.18
53.052814,-1.77913,240.81,11.92,4,246.09,18 / 18,2852512,2019-11-06 12:33:26:393,-1.9616,1.7635,10.3405,0.0491,-0.038,9.8064,0.0697,-0.1966,0.1092,15.69,-42.75,6.25,262.58,-80.45,37.84
53.052814,-1.77913,240.81,11.92,4,246.09,18 / 18,2852611,2019-11-06 12:33:26:492,-2.7664,0.6375,11.0465,-0.0568,-0.0173,9.8065,-0.0187,0.454,-0.1695,15.94,-43.31,7.38,262.19,-80.95,38.58
53.052814,-1.77913,240.81,11.92,4,246.09,18 / 18,2852712,2019-11-06 12:33:26:593,-2.7357,0.6428,12.1146,-0.0304,-0.0472,9.8064,-0.1512,0.218,-0.052,16.13,-42.62,7,265.27,-81.33,40.82
53.052814,-1.77913,240.81,11.92,4,246.09,18 / 18,2852813,2019-11-06 12:33:26:694,-0.2672,0.3387,8.0847,-0.0477,-0.0006,9.8065,-0.1546,0.2428,-0.0344,15.31,-43.37,6.75,263.04,-81.49,40.66
53.052814,-1.77913,240.81,11.92,4,246.09,18 / 18,2852911,2019-11-06 12:33:26:792,-0.2168,-4.8624,9.9046,0.0277,0.0476,9.8064,0.0512,0.0778,-0.1214,15.69,-43.5,6.44,265.76,-81.54,38.19
53.052814,-1.77913,240.81,11.92,4,246.09,18 / 18,2853012,2019-11-06 12:33:26:893,-0.4706,-1.9795,9.5739,-0.062,0.0287,9.8063,0.0641,0.2886,-0.2422,15.69,-43.69,6.44,264.12,-81.81,36.24
53.052814,-1.77913,240.81,11.92,4,246.09,18 / 18,2853111,2019-11-06 12:33:26:992,-1.3206,-0.3109,9.0431,-0.0227,-0.0335,9.8065,-0.0626,0.0091,-0.0381,15.31,-42.94,6.06,264.96,-81.93,38.8
53.052814,-1.77913,240.81,11.92,4,246.09,18 / 18,2853212,2019-11-06 12:33:27:093,-2.9285,3.0183,10.1147,-0.0753,0.0368,9.8063,-0.0276,0.2778,-0.3064,15.44,-43.25,6.44,266.23,-82.3,39.04
53.052814,-1.77913,240.81,11.92,4,246.09,18 / 18,2853312,2019-11-06 12:33:27:193,-0.6387,0.3678,9.784,0.0271,-0.0158,9.8065,0.0415,0.092,0.0722,14.94,-43.5,6.06,268.88,-82.13,42.24
53.052814,-1.77913,240.81,11.92,4,246.09,18 / 18,2853412,2019-11-06 12:33:27:293,-2.0809,3.0579,10.1729,0.032,0.0048,9.8065,0.0177,0.1317,-0.0467,15.13,-43.25,6.44,269.81,-82.25,42.84
53.052814,-1.77913,240.81,11.92,4,246.09,18 / 18,2853512,2019-11-06 12:33:27:393,-5.2649,3.6069,9.9628,-0.0241,0.0333,9.8065,-0.0012,-0.0253,-0.0278,16.25,-42.62,5.94,271.79,-81.87,43.42
53.052814,-1.77913,240.81,11.92,4,246.09,18 / 18,2853612,2019-11-06 12:33:27:493,-0.328,4.6612,10.0191,-0.0627,0.0707,9.8062,-0.1563,0.4046,-0.1348,16.38,-42.75,5.81,271.24,-81.85,42.92
53.052814,-1.77913,240.81,11.92,4,246.09,18 / 18,2853712,2019-11-06 12:33:27:593,1.4879,-2.1707,10.8087,-0.0451,0.0779,9.8062,-0.1293,-0.2423,0.2482,15.88,-42.94,6.81,267.1,-81.57,42.08
53.052814,-1.77913,240.81,11.92,4,246.09,18 / 18,2853812,2019-11-06 12:33:27:693,0.7935,-0.0758,9.7357,-0.0114,0.0098,9.8065,-0.1197,0.0732,-0.1391,15.44,-42.37,6.94,266.01,-81.19,44.07
53.052814,-1.77913,240.81,11.92,4,246.09,18 / 18,2853912,2019-11-06 12:33:27:793,-0.8872,1.1094,9.7014,0.0281,0.0589,9.8063,0.0932,0.0934,-0.1049,15.94,-43.19,6.25,268.85,-80.88,43.2
53.052814,-1.77913,240.81,11.92,4,246.09,18 / 18,2854012,2019-11-06 12:33:27:893,-1.5986,0.813,10.3671,-0.0004,0.0763,9.8063,0.0619,0.0342,-0.0379,15.38,-42.75,6.13,264.77,-80.79,41.97
53.052814,-1.77913,240.81,11.92,4,246.09,18 / 18,2854111,2019-11-06 12:33:27:992,0.8659,-0.2924,9.4552,-0.0287,0.0367,9.8064,0.0348,-0.3528,0.2392,15.94,-42.81,6.13,263.81,-80.81,38.15
53.052814,-1.77913,240.81,11.92,4,246.09,18 / 18,2854211,2019-11-06 12:33:28:092,-2.026,2.2878,10.1028,0,-0.0155,9.8066,-0.063,-0.1921,0.159,15.63,-42.87,6,262.65,-80.85,36.82
53.052814,-1.77913,240.81,11.92,4,246.09,18 / 18,2854312,2019-11-06 12:33:28:193,0.0019,0.9479,10.5554,-0.0002,0.062,9.8064,-0.1213,0.0367,-0.0149,16.06,-42.75,5.63,260.69,-80.67,35.2
53.052814,-1.77913,240.81,11.92,4,246.09,18 / 18,2854412,2019-11-06 12:33:28:293,0.1603,0.3543,11.2872,0.0194,-0.0033,9.8066,0.1138,0.0435,-0.221,16.31,-43.25,6.25,261.58,-80.38,36.96
53.052814,-1.77913,240.81,11.92,4,246.09,17 / 18,2854512,2019-11-06 12:33:28:393,0.1293,1.2151,11.0751,0.0302,-0.0657,9.8064,0.1021,-0.0563,-0.058,16.44,-43,6.56,261.13,-80.14,39.63
53.052814,-1.77913,240.81,11.92,4,246.09,17 / 18,2854612,2019-11-06 12:33:28:493,-1.109,-1.3286,8.8289,-0.0051,-0.036,9.8066,-0.0613,0.1105,-0.0382,16.81,-42.94,6,264.91,-79.97,39.12
53.052814,-1.77913,240.81,11.92,4,246.09,17 / 18,2854712,2019-11-06 12:33:28:593,-0.1586,0.1974,10.3771,-0.0082,-0.0137,9.8066,-0.0375,0.1063,-0.0613,16.75,-42.25,6.56,265.36,-79.96,41.43
53.052814,-1.77913,240.81,11.92,4,246.09,17 / 18,2854812,2019-11-06 12:33:28:693,1.3722,-0.8568,10.0021,-0.0406,0.021,9.8064,-0.0065,0.2317,-0.2542,16.88,-42.12,6.38,268.63,-80.04,42.2
53.052814,-1.77913,240.81,11.92,4,246.09,17 / 18,2854912,2019-11-06 12:33:28:793,-4.4606,0.3899,9.0273,-0.0021,-0.0446,9.8065,-0.0355,0.187,-0.1965,16.38,-43.12,6.38,267.59,-79.97,44.51
53.052814,-1.77913,240.81,11.92,4,246.09,17 / 18,2855012,2019-11-06 12:33:28:893,0.6078,1.9294,10.1041,-0.0176,0.0182,9.8066,0.0969,0.1961,-0.2003,16.63,-42.75,6.44,272.16,-80.18,45.99
53.052814,-1.77913,240.81,11.92,4,246.09,17 / 18,2855112,2019-11-06 12:33:28:993,-0.5685,1.3776,9.3743,0.025,-0.0116,9.8066,0.1212,-0.0389,0.0087,16.75,-43.5,6,273.16,-80.03,47.39
53.052814,-1.77913,240.81,11.92,4,246.09,17 / 18,2855212,2019-11-06 12:33:29:093,-1.5686,-0.6673,10.1191,-0.008,0.0287,9.8066,0.0599,0.1755,-0.0489,17.13,-42.87,6.81,272.05,-80.15,48.41
53.052814,-1.77913,240.81,11.92,4,246.09,17 / 18,2855312,2019-11-06 12:33:29:193,-0.0306,-2.616,8.5086,-0.0499,0.0015,9.8065,-0.0272,-0.2529,0.0741,16.69,-43.19,6.63,272.39,-80.39,48.1
53.052814,-1.77913,240.81,11.92,4,246.09,17 / 18,2855412,2019-11-06 12:33:29:293,-1.8622,0.447,8.8547,-0.0203,0.0436,9.8065,-0.1349,0.0461,0.1943,15.94,-42.62,6.19,267.92,-80.48,43.38
53.052814,-1.77913,240.81,11.92,4,246.09,19 / 19,2855512,2019-11-06 12:33:29:393,-1.0966,2.0415,9.1785,-0.041,0.0606,9.8063,0.0014,-0.0334,0.0588,16,-42.81,6.19,265.99,-80.57,41.12
53.052814,-1.77913,240.81,11.92,4,246.09,19 / 19,2855612,2019-11-06 12:33:29:493,-0.0536,0.7892,9.9367,0.0049,0.0256,9.8066,0.0278,0.0967,-0.0716,16,-43.12,6.06,264.03,-80.4,39.54
53.052814,-1.77913,240.81,11.92,4,246.09,19 / 19,2855712,2019-11-06 12:33:29:593,-2.7739,-0.4979,10.0137,-0.0332,-0.0085,9.8065,0.0154,-0.0862,0.1876,16.06,-43,5.38,266.67,-80.56,39.19
53.052814,-1.77913,240.81,11.92,4,246.09,19 / 19,2855812,2019-11-06 12:33:29:693,-1.2275,3.5702,9.4192,-0.0262,0.016,9.8066,-0.1035,0.1247,-0.1724,16.25,-43.06,5.88,263.27,-80.2,39.3
53.052814,-1.77913,240.81,11.92,4,246.09,19 / 19,2855912,2019-11-06 12:33:29:793,1.2824,-0.8023,11.6143,-0.0214,0.0609,9.8064,0.0699,-0.3318,0.0465,16,-42.94,5.88,263.39,-80.1,39.7
53.052814,-1.77913,240.81,11.92,4,246.09,19 / 19,2856012,2019-11-06 12:33:29:893,-1.9891,2.182,11.1943,0.0298,-0.0332,9.8065,0.2237,-0.3101,0.2384,16.63,-42.75,5.81,269.18,-80.05,43.35
53.052814,-1.77913,240.81,11.92,4,246.09,19 / 19,2856112,2019-11-06 12:33:29:993,1.424,-4.246,10.2801,-0.0647,-0.0063,9.8064,0.0344,-0.4309,0.356,16.25,-42.87,6.38,268.51,-80.68,43.44
53.052814,-1.77913,240.81,11.92,4,246.09,19 / 19,2856212,2019-11-06 12:33:30:093,-1.4274,1.9093,9.0304,0.0269,0.0067,9.8066,0.1341,-0.4244,0.234,16.19,-43,6.25,270.33,-80.7,45.23
53.052814,-1.77913,240.81,11.92,4,246.09,19 / 19,2856312,2019-11-06 12:33:30:193,2.267,-0.6201,8.4624,-0.038,0.0278,9.8065,0.0501,-0.3684,0.3417,16.25,-43.37,6.63,268.28,-81.07,44.62
53.052814,-1.77913,240.81,11.92,4,246.09,19 / 19,2856412,2019-11-06 12:33:30:293,-3.212,4.2556,10.0478,0.0354,0.0091,9.8065,0.0527,-0.4056,0.2199,16.06,-42.69,6.56,268.23,-81.26,44.06
53.052814,-1.77913,240.81,11.92,4,246.09,18 / 19,2856512,2019-11-06 12:33:30:393,-1.3846,0.5202,10.3091,-0.0015,0.0485,9.8065,-0.0664,-0.1479,0.0629,15.75,-43.56,6.63,264.64,-81.06,41.43
53.052814,-1.77913,240.81,11.92,4,246.09,18 / 19,2856612,2019-11-06 12:33:30:493,2.983,-2.1217,9.6822,0.0588,-0.0432,9.8063,0.123,-0.4399,0.3541,16.13,-42.44,7,265.65,-80.87,41.88
53.052814,-1.77913,240.81,11.92,4,246.09,18 / 19,2856712,2019-11-06 12:33:30:593,0.3509,0.3606,9.4833,-0.006,-0.0069,9.8066,0.0933,0.0785,-0.0572,15.5,-42.87,6,267.37,-81.19,40.84
53.052814,-1.77913,240.81,11.92,4,246.09,18 / 19,2856812,2019-11-06 12:33:30:693,-0.955,-3.3041,10.3584,0.0277,-0.0217,9.8066,0.0185,-0.2004,0.0593,16.13,-43.44,7.38,266.74,-81.16,42.8
53.052814,-1.77913,240.81,11.92,4,246.09,18 / 19,2856912,2019-11-06 12:33:30:793,-1.8993,2.3182,10.6225,0.0288,-0.0547,9.8064,-0.0291,-0.2993,0.1955,15.38,-43.06,7.25,265.08,-81.15,43.81
53.052814,-1.77913,240.81,11.92,4,246.09,18 / 19,2857012,2019-11-06 12:33:30:893,-0.099,-2.8428,10.1309,0.0259,-0.019,9.8066,0.0126,0.0735,-0.0637,15.94,-42.19,7.88,265.03,-81.11,43.01
53.052814,-1.77913,240.81,11.92,4,246.09,18 / 19,2857112,2019-11-06 12:33:30:993,-0.59,-0.8805,9.3109,0.026,-0.0215,9.8066,-0.0806,0.0968,0.081,16.31,-43.87,7,266.37,-80.81,43.96
53.052814,-1.77913,240.81,11.92,4,246.09,18 / 19,2857211,2019-11-06 12:33:31:092,-1.5582,-1.2963,9.9035,-0.0291,-0.0179,9.8066,-0.0573,0.0975,-0.0756,16.38,-42.19,7,267.69,-80.92,43.89
53.052814,-1.77913,240.81,11.92,4,246.09,18 / 19,2857311,2019-11-06 12:33:31:192,-3.6115,-2.6859,10.1368,0.0055,-0.0256,9.8065,-0.1296,0.1188,-0.1467,15.69,-42.75,7.63,266,-80.9,45.11
53.052814,-1.77913,240.81,11.92,4,246.09,18 / 19,2857412,2019-11-06 12:33:31:293,0.5726,-0.9937,9.0073,0.0196,-0.0385,9.8065,-0.0613,-0.1235,0.2418,15.56,-43.06,7.31,269.99,-81.06,46.4
53.052814,-1.77913,240.81,11.92,4,246.09,18 / 20,2857512,2019-11-06 12:33:31:393,-2.9038,-0.0059,9.8178,0.015,0.0159,9.8066,0.0852,0.0063,-0.0109,16.31,-42.69,8.19,266.22,-81.14,44.7
53.052814,-1.77913,240.81,11.92,4,246.09,18 / 20,2857612,2019-11-06 12:33:31:493,-0.8937,-0.8234,10.3711,0.0207,-0.0186,9.8066,0.0904,-0.052,-0.0005,16.31,-42.44,7.88,267.9,-81.1,45.99
53.052814,-1.77913,240.81,11.92,4,246.09,18 / 20,2857712,2019-11-06 12:33:31:593,-0.0989,2.098,9.8177,0.0136,-0.0523,9.8064,0.0508,0.2712,-0.1309,15.88,-42.87,8.13,269.58,-81.11,48.23
53.052814,-1.77913,240.81,11.92,4,246.09,18 / 20,2857813,2019-11-06 12:33:31:694,1.2713,1.2241,9.8383,-0.0042,-0.0254,9.8066,-0.0345,0.148,-0.0444,16.19,-43.06,7.63,271.48,-81.08,50.23
53.052814,-1.77913,240.81,11.92,4,246.09,18 / 20,2857912,2019-11-06 12:33:31:793,0.1989,0.8134,9.3773,0.0058,0.0048,9.8066,0.0778,0.0446,-0.0707,16.06,-42.37,8.31,273.31,-80.9,51.95
53.052814,-1.77913,240.81,11.92,4,246.09,18 / 20,2858012,2019-11-06 12:33:31:893,-0.1983,3.4065,11.5186,-0.0263,0.0135,9.8066,0.0076,0.4241,-0.1829,17,-42.19,7.81,276.41,-80.76,52.87
53.052814,-1.77913,240.81,11.92,4,246.09,18 / 20,2858112,2019-11-06 12:33:31:993,-1.4263,3.4241,12.0509,-0.0433,-0.0263,9.8064,0.1016,0.282,-0.3422,16,-42.56,8.56,272.53,-80.75,54.32
53.052814,-1.77913,240.81,11.92,4,246.09,18 / 20,2858212,2019-11-06 12:33:32:093,4.8411,0.7501,9.8806,-0.0544,-0.0108,9.8065,-0.2063,0.3542,-0.1274,16.19,-42.75,8.19,275.21,-80.71,54.89
53.052814,-1.77913,240.81,11.92,4,246.09,18 / 20,2858312,2019-11-06 12:33:32:193,0.8724,0.3328,10.6645,0.0357,-0.0548,9.8064,-0.0404,0.2172,-0.0424,17.06,-42.44,8.88,276.33,-80.52,55.55
53.052814,-1.77913,240.81,11.92,4,246.09,18 / 20,2858412,2019-11-06 12:33:32:293,-0.6486,3.3862,11.6542,-0.0393,-0.0171,9.8065,-0.1293,0.4439,-0.1282,16.81,-41.87,9.31,278.66,-80.65,57.49
53.052235,-1.780675,233.91,13.24,6,230.84,18 / 18,2858512,2019-11-06 12:33:32:393,2.2449,-0.3857,11.4628,-0.0562,0.0407,9.8064,-0.0963,-0.0756,0.2841,16.94,-41.94,9.31,279.73,-80.62,58.57
53.052235,-1.780675,233.91,13.24,6,230.84,18 / 18,2858612,2019-11-06 12:33:32:493,-0.0517,3.097,10.1003,-0.0523,0.0182,9.8064,0.0566,0.2746,-0.2995,16.5,-42.06,9.25,282.83,-80.36,62.08
53.052235,-1.780675,233.91,13.24,6,230.84,18 / 18,2858712,2019-11-06 12:33:32:593,2.2498,1.6082,9.4304,-0.0147,0.008,9.8066,-0.0006,-0.0027,-0.0761,17.25,-41.81,10.38,282.97,-80.46,64
53.052235,-1.780675,233.91,13.24,6,230.84,18 / 18,2858812,2019-11-06 12:33:32:693,1.8488,2.5531,10.0214,-0.0042,-0.0012,9.8066,0.0438,0.103,-0.0038,16.56,-41.37,10.63,283.3,-80.59,65.43
53.052235,-1.780675,233.91,13.24,6,230.84,18 / 18,2858912,2019-11-06 12:33:32:793,0.3694,2.1187,10.9006,0.0163,-0.0102,9.8066,-0.0512,0.1009,-0.1103,16.25,-42.37,10.5,281.28,-80.52,66.67
53.052235,-1.780675,233.91,13.24,6,230.84,18 / 18,2859013,2019-11-06 12:33:32:894,1.2097,1.3684,10.5004,0.0225,0.0011,9.8065,0.1406,-0.0257,-0.0806,16.88,-41.69,11.19,283.99,-80.32,67.16
53.052235,-1.780675,233.91,13.24,6,230.84,18 / 18,2859112,2019-11-06 12:33:32:993,1.462,2.0977,9.1536,0.0082,-0.0501,9.8065,0.0451,0.368,-0.2552,16.75,-41.75,11.19,286.83,-80.25,69.88
53.052235,-1.780675,233.91,13.24,6,230.84,18 / 18,2859212,2019-11-06 12:33:33:093,3.8182,-2.1212,11.9945,0.0361,-0.048,9.8064,-0.0867,-0.0573,0.0464,16.38,-41.81,11.19,284.57,-80.46,69.85
53.052235,-1.780675,233.91,13.24,6,230.84,18 / 18,2859312,2019-11-06 12:33:33:193,2.6311,-1.0083,11.5328,0.0491,-0.1273,9.8057,-0.113,0.5969,-0.3911,16.19,-42.37,12.13,284.56,-80.03,72.57
53.052235,-1.780675,233.91,13.24,6,230.84,18 / 18,2859411,2019-11-06 12:33:33:292,2.0471,-2.0763,9.1792,0.041,-0.0815,9.8062,0.0568,0.0285,0.2482,16.63,-42.06,12.25,290.4,-80.4,74.51
53.052235,-1.780675,233.91,13.24,6,230.84,17 / 17,2859512,2019-11-06 12:33:33:393,-4.4518,2.6398,9.1111,0.0467,-0.0663,9.8062,-0.2207,0.6985,-0.4523,15.63,-42.75,12.75,287.86,-80.54,76.48
53.052235,-1.780675,233.91,13.24,6,230.84,17 / 17,2859612,2019-11-06 12:33:33:493,0.1526,1.0546,9.4812,0.0512,-0.0248,9.8064,-0.0222,0.0454,0.084,15.69,-42.75,12.75,286.24,-80.54,75.02
53.052235,-1.780675,233.91,13.24,6,230.84,17 / 17,2859712,2019-11-06 12:33:33:593,-3.453,4.1168,8.6767,0.0914,-0.0775,9.8059,-0.0385,0.8655,-0.3775,15.31,-41.81,12.13,285.44,-80.5,74.94
53.052235,-1.780675,233.91,13.24,6,230.84,17 / 17,2859812,2019-11-06 12:33:33:693,3.0385,-1.7971,10.2119,-0.0392,0.0373,9.8065,-0.108,0.456,-0.2332,15.56,-42.56,12.19,286.42,-80.77,73.05
53.052235,-1.780675,233.91,13.24,6,230.84,17 / 17,2859912,2019-11-06 12:33:33:793,-0.8176,0.0577,9.5706,0.0513,-0.0108,9.8064,-0.0528,0.3442,-0.0509,15.06,-42.81,12.38,281.61,-80.97,70.79
53.052235,-1.780675,233.91,13.24,6,230.84,17 / 17,2860011,2019-11-06 12:33:33:892,3.8375,0.0231,9.8223,-0.0275,0.0259,9.8065,-0.0731,0.2084,-0.12,14.75,-42.25,12.5,278.42,-81.38,67.92
53.052235,-1.780675,233.91,13.24,6,230.84,17 / 17,2860113,2019-11-06 12:33:33:994,0.3212,5.1367,10.9523,0.0216,0.005,9.8065,-0.0792,0.4804,-0.0604,14.31,-42.62,12.19,276.1,-81.38,67.35
53.052235,-1.780675,233.91,13.24,6,230.84,17 / 17,2860212,2019-11-06 12:33:34:093,4.6,0.2447,10.6379,-0.0522,0.0258,9.8064,-0.0213,0.4407,-0.2563,14.19,-42.75,12.56,276.63,-81.92,68.08
53.052235,-1.780675,233.91,13.24,6,230.84,17 / 17,2860312,2019-11-06 12:33:34:193,0.3599,4.5118,9.4975,0.0007,0.0022,9.8066,0.087,0.0901,0.0205,14.19,-42.37,13.06,278.2,-81.92,69.14
53.052235,-1.780675,233.91,13.24,6,230.84,17 / 17,2860412,2019-11-06 12:33:34:293,-2.2069,2.4502,10.0426,-0.0667,0.0574,9.8062,-0.0121,0.5032,-0.2416,14,-42.31,13.63,277.91,-82.03,70.08
53.052235,-1.780675,233.91,13.24,6,230.84,17 / 17,2860512,2019-11-06 12:33:34:393,-1.7029,2.1315,9.6714,-0.073,0.026,9.8063,-0.0022,-0.2161,0.0854,13.69,-42.56,13.44,278.14,-82.51,68.11
53.052235,-1.780675,233.91,13.24,6,230.84,17 / 17,2860612,2019-11-06 12:33:34:493,-0.9219,2.6412,10.1879,-0.0417,0.0284,9.8065,-0.0148,0.1926,-0.0127,13.31,-42.81,13.06,273.65,-82.74,65.98
53.052235,-1.780675,233.91,13.24,6,230.84,17 / 17,2860712,2019-11-06 12:33:34:593,2.7669,0.0632,8.796,-0.0474,0.0205,9.8065,0.0775,-0.1847,0.1407,13.56,-43.06,13.31,276.13,-82.81,65.46
53.052235,-1.780675,233.91,13.24,6,230.84,17 / 17,2860812,2019-11-06 12:33:34:693,-0.0669,-0.0317,9.933,-0.0094,-0.0065,9.8066,-0.0961,-0.0789,0.1733,12.88,-43.12,13.06,272.02,-82.82,64.16
53.052235,-1.780675,233.91,13.24,6,230.84,17 / 17,2860912,2019-11-06 12:33:34:793,4.0598,-1.2505,10.4,-0.031,0.0384,9.8064,-0.0645,-0.2935,0.3363,12.94,-43.06,13.56,267.94,-82.96,61.16
53.052235,-1.780675,233.91,13.24,6,230.84,17 / 17,2861012,2019-11-06 12:33:34:893,-0.5961,1.9742,8.6036,0.0333,-0.0013,9.8065,-0.1442,-0.1833,0.1592,12.69,-42.81,13.19,266.8,-82.81,58.91
53.052235,-1.780675,233.91,13.24,6,230.84,17 / 17,2861111,2019-11-06 12:33:34:992,3.4649,1.0228,9.292,0.0023,0.0648,9.8064,-0.1058,-0.1326,0.2391,13.25,-43.12,13.19,263.18,-82.49,55.95
53.052235,-1.780675,233.91,13.24,6,230.84,17 / 17,2861211,2019-11-06 12:33:35:092,-0.9678,2.3331,10.1668,0.051,0,9.8064,0.0563,-0.3125,0.1514,13.06,-42.37,12.88,263.34,-82.16,56.47
53.052235,-1.780675,233.91,13.24,6,230.84,17 / 17,2861311,2019-11-06 12:33:35:192,-0.3797,3.672,9.9327,0.0274,-0.0078,9.8065,-0.0401,0.2513,-0.0428,12.13,-43.12,12.75,259.43,-82.13,55.9
53.052235,-1.780675,233.91,13.24,6,230.84,17 / 17,2861412,2019-11-06 12:33:35:293,-0.7544,1.6824,10.0198,0.0357,-0.0067,9.8065,0.0454,-0.1222,0.1196,12,-43.12,12.25,260.62,-82.09,55.86
53.052235,-1.780675,233.91,13.24,6,230.84,17 / 19,2861512,2019-11-06 12:33:35:393,-0.2567,2.7255,9.6233,0.027,-0.02,9.8065,-0.0188,-0.209,0.1477,12.25,-43.25,13.56,258.22,-82.24,55.64
53.052235,-1.780675,233.91,13.24,6,230.84,17 / 19,2861612,2019-11-06 12:33:35:493,3.8151,1.3802,10.1473,-0.0059,-0.0108,9.8066,-0.0075,0.0409,-0.049,11.69,-42.69,12.75,259.53,-82.4,55.33
53.052235,-1.780675,233.91,13.24,6,230.84,17 / 19,2861712,2019-11-06 12:33:35:593,-0.6795,3.0899,10.6204,0.0543,-0.0209,9.8065,0.0889,-0.2857,0.33,11.56,-43.5,13.06,259.89,-82.45,55.59
53.052235,-1.780675,233.91,13.24,6,230.84,17 / 19,2861812,2019-11-06 12:33:35:693,4.8564,0.9761,9.5485,-0.006,-0.0182,9.8065,-0.1176,0.1976,-0.1563,11.25,-43.06,13.25,257.16,-82.72,55.15
53.052235,-1.780675,233.91,13.24,6,230.84,17 / 19,2861912,2019-11-06 12:33:35:793,-2.3995,2.8682,10.1503,0.0639,-0.019,9.8064,-0.0978,0.7376,-0.2574,11.94,-43.12,13.63,258.46,-82.52,55.21
53.052235,-1.780675,233.91,13.24,6,230.84,17 / 19,2862012,2019-11-06 12:33:35:893,3.8369,2.3484,9.3556,-0.0522,0.0158,9.8064,-0.0963,0.4632,-0.2434,11.13,-42.87,13.88,255.86,-82.66,55.14
53.052235,-1.780675,233.91,13.24,6,230.84,17 / 19,2862111,2019-11-06 12:33:35:992,-3.3822,4.5669,10.5299,0.0767,-0.0364,9.8063,-0.095,0.5139,-0.2453,11.94,-43,13.5,258.21,-82.6,54.74
53.052235,-1.780675,233.91,13.24,6,230.84,17 / 19,2862211,2019-11-06 12:33:36:092,-0.6284,3.1231,9.9193,-0.0757,0.043,9.8062,-0.0263,0.78,-0.3026,11.06,-43.06,13.25,253.75,-83.01,50.69
53.052235,-1.780675,233.91,13.24,6,230.84,17 / 19,2862312,2019-11-06 12:33:36:193,-3.894,3.1261,10.0745,-0.0449,0.0109,9.8065,0.072,-0.0233,0.0553,10.75,-43.94,13.63,252.95,-82.94,51.67
53.052235,-1.780675,233.91,13.24,6,230.84,17 / 19,2862413,2019-11-06 12:33:36:294,-0.1433,0.9824,10.1512,-0.0849,0.0269,9.8062,0.001,0.5164,-0.1761,11.06,-43.31,13.63,253.72,-82.94,52.12
53.052235,-1.780675,233.91,13.24,6,230.84,18 / 19,2862512,2019-11-06 12:33:36:393,3.4235,-2.9475,10.3013,-0.0704,0.0408,9.8062,0.0332,0.6108,-0.3108,10.25,-43.69,13.25,250.43,-83.45,49.6
53.052235,-1.780675,233.91,13.24,6,230.84,18 / 19,2862612,2019-11-06 12:33:36:493,0.0818,-0.9927,9.9516,-0.0671,0.0434,9.8063,0.0411,0.1985,-0.1346,10.69,-44,13.44,253.7,-83.61,49.49
53.052235,-1.780675,233.91,13.24,6,230.84,18 / 19,2862712,2019-11-06 12:33:36:593,-2.8993,0.2503,9.8411,-0.0878,0.0232,9.8062,-0.0249,0.5313,-0.3712,10.38,-43.37,14.19,252.55,-83.09,53.68
53.052235,-1.780675,233.91,13.24,6,230.84,18 / 19,2862812,2019-11-06 12:33:36:693,0.7021,-1.0507,9.9046,-0.0435,0.0079,9.8065,-0.131,0.3713,-0.1964,9.94,-43.31,14,252.8,-83.17,53.75
53.052235,-1.780675,233.91,13.24,6,230.84,18 / 19,2862912,2019-11-06 12:33:36:793,1.897,0.4945,10.3881,-0.0308,0.0265,9.8065,-0.0046,-0.425,0.1672,10.31,-43.62,13.69,250.61,-83.37,51.23
53.052235,-1.780675,233.91,13.24,6,230.84,18 / 19,2863012,2019-11-06 12:33:36:893,-1.3566,2.7393,9.5457,0.0597,-0.0201,9.8064,0.0795,-0.3437,0.3522,10.81,-42.94,13.81,255.52,-83.09,53.7
53.052235,-1.780675,233.91,13.24,6,230.84,18 / 19,2863112,2019-11-06 12:33:36:993,-4.3114,1.7362,9.9466,-0.0414,0.0276,9.8065,-0.0145,-0.0479,-0.0519,10.81,-43,13.75,255.01,-83.39,52.44
53.052235,-1.780675,233.91,13.24,6,230.84,18 / 19,2863212,2019-11-06 12:33:37:093,-3.4276,1.5848,9.2971,0.0751,-0.0412,9.8062,0.0232,-0.5984,0.373,10.25,-43.19,14.13,250.88,-83.29,51.36
53.052235,-1.780675,233.91,13.24,6,230.84,18 / 19,2863312,2019-11-06 12:33:37:193,-2.3003,2.9826,9.438,0.0301,-0.0072,9.8065,0.0921,-0.2636,0.1124,11.06,-43.25,14.44,254.99,-83.13,53.03
53.052235,-1.780675,233.91,13.24,6,230.84,18 / 19,2863412,2019-11-06 12:33:37:293,3.3209,-2.0279,9.1964,0.0597,-0.0348,9.8063,0.0256,-0.3576,0.1097,10.69,-43,13.56,257.23,-82.8,56.29
53.052235,-1.780675,233.91,13.24,6,230.84,18 / 19,2863512,2019-11-06 12:33:37:393,-1.5928,1.6644,11.4919,0.002,0.0129,9.8065,-0.1102,0.101,0.18,10.75,-42.94,13.81,256.14,-82.88,54.89
53.052235,-1.780675,233.91,13.24,6,230.84,18 / 19,2863612,2019-11-06 12:33:37:493,-1.0551,0.839,10.3564,-0.0004,0.0117,9.8066,0.0173,-0.0454,-0.0064,9.75,-42.94,13.75,251.09,-83.16,51.89
