GPS LATITUDE (degrees), GPS LONGITUDE (degrees), GPS ALTITUDE (m), GPS SPEED (Kmh), GPS ACCURACY (m), GPS ORIENTATION (Â°),GPS SATELLITES IN RANGE, TIME SINCE START (ms), DATE (YYYY-MO-DD HH-MI-SS_SSS), ACCELEROMETER X (m/s²) , ACCELEROMETER Y (m/s²), ACCELEROMETER Z (m/s²), GRAVITY X (m/s²), GRAVITY Y (m/s²), GRAVITY Z (m/s²), GYROSCOPE Yaw (rad/s), GYROSCOPE Pitch (rad/s), GYROSCOPE Roll (rad/s), MAGNETIC FIELD X (Î¼T), MAGNETIC FIELD Y (Î¼T), MAGNETIC FIELD Z (Î¼T), ORIENTATION (Yaw) (Â°), ORIENTATION (Pitch) (Â°), ORIENTATION (Roll ) (Â°)
52.90566,-1.765884,157.09,22.77,4,27.17,19 / 21,1253411,2019-11-06 12:06:47:292,-0.4495,-1.7278,9.4216,-0.0116,0.0026,9.8066,-0.0179,0.0308,-0.0159,-21.37,-37.31,-2.31,263.18,-86.97,-176.09
52.90739,-1.764837,159.38,23.61,3,16.8,19 / 21,1253512,2019-11-06 12:06:47:393,-0.5981,1.2735,10.2285,0.0325,-0.0048,9.8065,-0.1153,-0.1093,0.0825,-21.37,-38.06,-2.56,265.43,-87.07,-171.21
52.90739,-1.764837,159.38,23.61,3,16.8,19 / 21,1253612,2019-11-06 12:06:47:493,0.3971,-0.7447,9.1419,0.0029,0.0138,9.8066,0.0031,-0.1477,0.0585,-22,-37.69,-1.94,274.78,-86.8,-164.53
52.90739,-1.764837,159.38,23.61,3,16.8,19 / 21,1253712,2019-11-06 12:06:47:593,0.7811,-1.7735,10.2939,0.0008,-0.0311,9.8066,0.0046,0.0013,-0.0203,-21.94,-37.56,-1.37,284.08,-86.66,-157.69
52.90739,-1.764837,159.38,23.61,3,16.8,19 / 21,1253812,2019-11-06 12:06:47:693,0.4614,-2.8073,9.8189,0.0074,0.0035,9.8066,0.0694,-0.0136,-0.1406,-22.69,-36.87,-1.81,283.28,-86.5,-156.25
52.90739,-1.764837,159.38,23.61,3,16.8,19 / 21,1253912,2019-11-06 12:06:47:793,-1.2803,-0.1435,9.2387,-0.0161,0.0082,9.8066,-0.0966,0.1107,-0.1054,-22.62,-37.56,-1.87,283.21,-86.61,-156.35
52.90739,-1.764837,159.38,23.61,3,16.8,19 / 21,1254012,2019-11-06 12:06:47:893,3.1764,-3.3689,10.9146,-0.0072,0.0216,9.8066,0.0376,-0.0454,-0.0292,-23.75,-38,-1.25,284.83,-86.75,-157.77
52.90739,-1.764837,159.38,23.61,3,16.8,19 / 21,1254112,2019-11-06 12:06:47:993,-1.7824,-2.7067,10.9812,0.0211,-0.0188,9.8066,0.1752,-0.085,-0.1224,-23.12,-37.87,-1.25,282.74,-86.35,-158.85
52.90739,-1.764837,159.38,23.61,3,16.8,19 / 21,1254213,2019-11-06 12:06:48:094,2.705,-0.8669,11.9033,0.0077,0.0505,9.8065,0.1088,-0.1137,0.06,-22.62,-37.75,-0.12,277.85,-86.05,-165.64
52.90739,-1.764837,159.38,23.61,3,16.8,19 / 21,1254312,2019-11-06 12:06:48:193,0.8088,-0.3132,9.4929,-0.0147,0.0204,9.8066,0.0525,0.1009,-0.1971,-22.94,-37.75,-1,270.21,-85.8,-170.34
52.90739,-1.764837,159.38,23.61,3,16.8,19 / 21,1254414,2019-11-06 12:06:48:295,1.1069,-0.8207,9.9615,-0.0303,0.0227,9.8065,0.0218,-0.0324,-0.2087,-22.56,-38,-1.19,261.98,-86,-178.99
52.90739,-1.764837,159.38,23.61,3,16.8,20 / 21,1254512,2019-11-06 12:06:48:393,1.9925,-0.5348,9.1871,-0.0127,0.0379,9.8065,-0.0102,-0.0785,-0.0366,-22.5,-37.5,-1.12,252.35,-85.97,171.38
52.90739,-1.764837,159.38,23.61,3,16.8,20 / 21,1254612,2019-11-06 12:06:48:493,0.8595,-0.0317,8.5306,-0.0166,0.0247,9.8065,-0.0091,-0.0838,0.0931,-22.12,-37.94,-1.94,246.49,-86.17,167.69
52.90739,-1.764837,159.38,23.61,3,16.8,20 / 21,1254715,2019-11-06 12:06:48:596,-1.6206,-1.5842,9.3561,0.0039,-0.0223,9.8066,-0.0234,-0.0089,-0.0336,-22.44,-37.56,-1.44,248.22,-86.4,166.57
52.90739,-1.764837,159.38,23.61,3,16.8,20 / 21,1254812,2019-11-06 12:06:48:693,0.8729,0.2259,10.8325,-0.0011,-0.029,9.8066,0.008,-0.2304,0.133,-21.69,-37.75,-1.25,249.45,-86.51,167.68
52.90739,-1.764837,159.38,23.61,3,16.8,20 / 21,1254912,2019-11-06 12:06:48:793,1.1285,-2.0348,10.6413,0.0051,0.011,9.8066,0.0277,-0.1826,0.0152,-22.56,-37.94,-1.75,249.08,-86.39,169.58
52.90739,-1.764837,159.38,23.61,3,16.8,20 / 21,1255011,2019-11-06 12:06:48:892,1.7029,0.9435,10.4857,-0.0084,0.0002,9.8066,-0.2208,-0.1637,0.0524,-22.25,-37.69,-1.69,246.03,-86.41,166.84
52.90739,-1.764837,159.38,23.61,3,16.8,20 / 21,1255112,2019-11-06 12:06:48:993,0.0807,0.6897,7.6328,-0.0397,0.0269,9.8065,0.0532,-0.4228,0.4697,-22.5,-37.87,-0.94,251.13,-86.92,168.75
52.90739,-1.764837,159.38,23.61,3,16.8,20 / 21,1255212,2019-11-06 12:06:49:093,0.48,-1.4359,8.6973,-0.0127,-0.0485,9.8065,0.1536,-0.1718,0.0916,-23.12,-36.75,-1.75,261.77,-87.01,-178.52
52.90739,-1.764837,159.38,23.61,3,16.8,20 / 21,1255312,2019-11-06 12:06:49:193,0.9805,-2.1373,10.4825,0.0096,-0.0134,9.8066,-0.0066,-0.236,0.0221,-23.19,-37.75,-1.25,265.77,-87.07,-176.91
52.90739,-1.764837,159.38,23.61,3,16.8,20 / 21,1255412,2019-11-06 12:06:49:293,0.6363,-1.2845,10.4037,0.0068,-0.0007,9.8066,-0.078,-0.1385,0.1324,-23.5,-37.75,-1.25,268.27,-87.12,-174.48
52.90739,-1.764837,159.38,23.61,3,16.8,21 / 23,1255512,2019-11-06 12:06:49:393,-0.129,0.3334,9.2088,-0.0154,0.0081,9.8065,0.0291,-0.2687,0.1616,-23.81,-37.62,-1.31,272.38,-87.15,-170.71
52.90739,-1.764837,159.38,23.61,3,16.8,21 / 23,1255612,2019-11-06 12:06:49:493,0.4779,-1.6553,10.184,-0.0167,-0.0166,9.8065,-0.0293,0.0742,-0.0251,-23.94,-37.81,-1.37,276.23,-87.07,-166.76
52.90739,-1.764837,159.38,23.61,3,16.8,21 / 23,1255712,2019-11-06 12:06:49:593,-0.2122,0.4982,10.2121,0.0091,0.0137,9.8066,-0.0201,-0.0887,0.0522,-23.94,-37.12,-1,276.62,-86.9,-166.23
52.90739,-1.764837,159.38,23.61,3,16.8,21 / 23,1255812,2019-11-06 12:06:49:693,-0.3961,-2.2692,10.2233,0.0039,0.0249,9.8065,0.0573,0.0219,-0.0683,-24.5,-37.12,-0.94,278.02,-86.92,-164.88
52.90739,-1.764837,159.38,23.61,3,16.8,21 / 23,1255912,2019-11-06 12:06:49:793,-0.2958,-1.0048,9.6779,0.009,0.0006,9.8066,0.012,-0.0442,-0.0492,-24.62,-37.44,-1.06,279.29,-86.99,-164.01
52.90739,-1.764837,159.38,23.61,3,16.8,21 / 23,1256012,2019-11-06 12:06:49:893,-1.0355,-2.197,10.2495,-0.0129,0.0197,9.8066,0.0677,-0.0898,0.0575,-24.37,-37,-0.81,276.75,-87,-166.26
52.90739,-1.764837,159.38,23.61,3,16.8,21 / 23,1256111,2019-11-06 12:06:49:992,-0.382,-2.4897,9.3493,-0.013,-0.0035,9.8065,0.0033,-0.0477,-0.0445,-24.56,-37.31,-1.25,277.07,-87.03,-166.26
52.90739,-1.764837,159.38,23.61,3,16.8,21 / 23,1256211,2019-11-06 12:06:50:092,0.3162,-2.7493,10.3344,-0.0201,0.0014,9.8066,-0.0653,-0.0548,-0.0914,-25.12,-37.56,-0.87,276.16,-87.18,-167.28
52.90739,-1.764837,159.38,23.61,3,16.8,21 / 23,1256312,2019-11-06 12:06:50:193,-0.8465,0.134,9.8167,0.0028,0.0249,9.8066,-0.0053,0.0856,-0.0129,-24.62,-37.37,-1.5,271.93,-87.28,-171.75
52.90739,-1.764837,159.38,23.61,3,16.8,21 / 23,1256412,2019-11-06 12:06:50:293,-1.7607,2.4419,8.7541,0.0039,0.0606,9.8064,-0.1377,-0.1699,-0.002,-24.75,-37.31,-1.31,266.54,-87.4,-177.33
52.90739,-1.764837,159.38,23.61,3,16.8,23 / 24,1256512,2019-11-06 12:06:50:393,-3.2439,-1.957,9.744,-0.0013,-0.0272,9.8066,-0.0882,0.2465,-0.0866,-24.44,-38.12,-1.19,266.85,-87.73,-177.17
52.90739,-1.764837,159.38,23.61,3,16.8,23 / 24,1256611,2019-11-06 12:06:50:492,0.7731,0.9901,10.1182,-0.029,-0.0144,9.8065,-0.0191,-0.271,0.1268,-24.31,-37.25,-1.19,268.73,-87.98,-175.77
52.90739,-1.764837,159.38,23.61,3,16.8,23 / 24,1256712,2019-11-06 12:06:50:593,2.0225,0.14,9.9672,-0.0159,-0.0229,9.8065,0.0006,-0.024,-0.1211,-24.12,-37.44,-0.75,263.32,-88.08,178.64
52.90739,-1.764837,159.38,23.61,3,16.8,23 / 24,1256812,2019-11-06 12:06:50:693,-3.5736,-0.8533,8.6953,0.0011,-0.026,9.8066,0.0606,-0.0187,0.1261,-23.81,-37.62,-0.81,256.72,-88.1,172.03
52.90739,-1.764837,159.38,23.61,3,16.8,23 / 24,1256912,2019-11-06 12:06:50:793,2.5745,-0.6325,9.8487,0.0087,-0.0136,9.8066,-0.1427,0.1133,-0.1231,-24.06,-37.5,-0.87,239.84,-88.33,154.44
52.90739,-1.764837,159.38,23.61,3,16.8,23 / 24,1257012,2019-11-06 12:06:50:893,1.6083,0.4733,9.6667,-0.0053,-0.0025,9.8066,0.0079,-0.1584,0.1615,-23.31,-37.69,-1.31,230.57,-88.47,145
52.90739,-1.764837,159.38,23.61,3,16.8,23 / 24,1257111,2019-11-06 12:06:50:992,1.0428,-0.6845,10.6182,-0.0034,-0.0117,9.8065,0.0959,-0.0057,-0.0697,-23.81,-37.62,-1.19,223.9,-88.42,138.01
52.90739,-1.764837,159.38,23.61,3,16.8,23 / 24,1257212,2019-11-06 12:06:51:093,-0.1904,2.3597,10.2374,-0.0001,-0.0156,9.8066,0.0748,0.2322,-0.1391,-23.25,-37.5,-1.25,223.59,-88.37,137.87
52.90739,-1.764837,159.38,23.61,3,16.8,23 / 24,1257312,2019-11-06 12:06:51:193,0.46,1.2511,10.0565,-0.0179,0.0074,9.8066,0.0674,0.0454,-0.0703,-23.25,-38.19,-1.37,216.9,-88.14,131.22
52.90739,-1.764837,159.38,23.61,3,16.8,23 / 24,1257412,2019-11-06 12:06:51:293,-0.5254,1.3953,10.2777,-0.005,0.0172,9.8066,-0.0437,0.0437,0.0206,-22.75,-37.25,-1.25,213.22,-87.88,127.55
52.90739,-1.764837,159.38,23.61,3,16.8,22 / 23,1257512,2019-11-06 12:06:51:393,3.2912,3.6913,9.3276,0.0246,0.0359,9.8065,-0.0171,0.1761,0.1299,-22.06,-37.94,-1.81,210.11,-87.67,127.29
52.90739,-1.764837,159.38,23.61,3,16.8,22 / 23,1257612,2019-11-06 12:06:51:493,-3.8998,4.5161,9.0385,0.0126,-0.0328,9.8065,-0.0479,0.0075,0.1161,-22.56,-37.94,-1.56,214.4,-87.84,131.36
52.90739,-1.764837,159.38,23.61,3,16.8,22 / 23,1257712,2019-11-06 12:06:51:593,-0.0659,0.9237,10.7011,0.0063,-0.0401,9.8065,-0.1132,0.0027,0.0693,-22.12,-37.69,-2.44,206.34,-87.89,123.13
52.90739,-1.764837,159.38,23.61,3,16.8,22 / 23,1257812,2019-11-06 12:06:51:693,-0.5839,2.893,10.8786,0.0038,-0.0207,9.8066,0.0862,0.1389,0.1063,-22.44,-37.94,-2,215.09,-88.22,132.03
52.90739,-1.764837,159.38,23.61,3,16.8,22 / 23,1257912,2019-11-06 12:06:51:793,1.4895,3.5218,12.1346,0.0202,-0.0236,9.8065,-0.046,0.1992,-0.1309,-22.25,-38.81,-2.19,226.51,-87.95,144.31
52.90739,-1.764837,159.38,23.61,3,16.8,22 / 23,1258012,2019-11-06 12:06:51:893,1.4722,0.8681,10.5063,0.0016,0.0203,9.8066,-0.0665,-0.0752,0.0541,-21.87,-38.5,-2.06,223.82,-88,141.38
52.90739,-1.764837,159.38,23.61,3,16.8,22 / 23,1258112,2019-11-06 12:06:51:993,-1.2981,0.7761,7.3984,-0.0171,-0.0027,9.8066,-0.1322,0.2407,-0.0165,-21.94,-37.94,-2.44,219.19,-88.45,136.05
52.90739,-1.764837,159.38,23.61,3,16.8,22 / 23,1258212,2019-11-06 12:06:52:093,1.1482,2.5875,8.2899,-0.0408,-0.0089,9.8065,-0.1044,0.0619,-0.1829,-21.56,-38.12,-2.12,205.44,-88.46,121.76
52.90739,-1.764837,159.38,23.61,3,16.8,22 / 23,1258312,2019-11-06 12:06:52:193,-0.0272,2.2382,10.1041,-0.0176,0.0478,9.8064,0.0532,0.0967,0.1002,-21.56,-37.69,-2.87,197.87,-88.35,116.5
52.90739,-1.764837,159.38,23.61,3,16.8,22 / 23,1258412,2019-11-06 12:06:52:293,-0.5472,2.7088,9.8471,0.0056,-0.0118,9.8066,0.0416,0.0836,0.1591,-21.31,-37.69,-2.94,200.27,-88.22,119.5
52.90739,-1.764837,159.38,23.61,3,16.8,24 / 24,1258512,2019-11-06 12:06:52:393,-0.7013,2.1508,10.9773,-0.0165,-0.0562,9.8065,0.1077,-0.0373,-0.0265,-21.62,-37.81,-2.25,215.33,-88.6,131.91
52.90739,-1.764837,159.38,23.61,3,16.8,24 / 24,1258612,2019-11-06 12:06:52:493,-0.6187,2.4655,10.1807,0.0434,-0.0055,9.8065,0.0473,-0.0448,-0.0048,-22.12,-38.06,-2.69,231.65,-88.52,151.39
52.90739,-1.764837,159.38,23.61,3,16.8,24 / 24,1258712,2019-11-06 12:06:52:593,-0.4855,1.2288,8.9896,-0.0076,0.0312,9.8066,-0.0259,-0.0177,0.1148,-22.31,-37.94,-1.81,247.37,-88.65,164.71
52.90739,-1.764837,159.38,23.61,3,16.8,24 / 24,1258812,2019-11-06 12:06:52:693,-0.8421,-1.0642,8.9352,-0.0007,0.0288,9.8066,-0.0311,-0.1756,0.0349,-22.31,-37.69,-2.75,245.16,-88.6,165.09
52.90739,-1.764837,159.38,23.61,3,16.8,24 / 24,1258912,2019-11-06 12:06:52:793,-0.3254,0.2772,8.1444,-0.0063,0.0134,9.8066,-0.1245,0.0319,0.066,-21.44,-37.81,-2.5,245.81,-88.67,163.44
52.90739,-1.764837,159.38,23.61,3,16.8,24 / 24,1259012,2019-11-06 12:06:52:893,-2.4171,-0.2146,9.8861,-0.0106,-0.0091,9.8066,-0.079,0.0635,0.1207,-22.06,-37.31,-3,245.93,-88.95,165.29
52.90739,-1.764837,159.38,23.61,3,16.8,24 / 24,1259112,2019-11-06 12:06:52:993,-0.365,0.3534,10.2031,-0.0074,-0.0237,9.8065,0.1313,-0.0438,-0.1775,-21.94,-37.69,-2.87,247.86,-89.08,167.07
52.90739,-1.764837,159.38,23.61,3,16.8,24 / 24,1259212,2019-11-06 12:06:53:093,-0.6157,0.2795,9.6095,-0.0017,0.0309,9.8066,-0.0395,0.1038,0.0982,-22.62,-38.44,-2.81,237.41,-88.96,156.27
52.90739,-1.764837,159.38,23.61,3,16.8,24 / 24,1259312,2019-11-06 12:06:53:193,-1.2979,-0.0286,8.6063,-0.0017,0.0099,9.8066,-0.0866,0.0507,-0.0136,-21.87,-38.31,-2.56,238.44,-89.06,157.57
52.90739,-1.764837,159.38,23.61,3,16.8,24 / 24,1259412,2019-11-06 12:06:53:293,-0.2218,-0.9263,10.6791,-0.0236,-0.0142,9.8066,-0.0967,-0.106,-0.076,-22.06,-38.31,-2.75,233.5,-89.14,152.44
52.90739,-1.764837,159.38,23.61,3,16.8,23 / 24,1259512,2019-11-06 12:06:53:393,1.1315,-0.4708,8.7733,-0.0032,0.0134,9.8066,-0.0732,0.0361,0.1202,-22.44,-37.5,-2.62,236.43,-89.23,155.26
52.90739,-1.764837,159.38,23.61,3,16.8,23 / 24,1259612,2019-11-06 12:06:53:493,-1.042,-1.4377,10.014,-0.0092,-0.0369,9.8066,-0.0145,-0.1063,-0.1292,-22.37,-37.44,-2.56,230.24,-89.52,148.61
52.90739,-1.764837,159.38,23.61,3,16.8,23 / 24,1259712,2019-11-06 12:06:53:593,-1.3913,-0.2442,10.1244,0.0204,-0.003,9.8065,-0.0176,-0.0075,-0.0412,-22.56,-37.94,-2.62,216.7,-89.39,134.73
52.90739,-1.764837,159.38,23.61,3,16.8,23 / 24,1259812,2019-11-06 12:06:53:693,1.0488,-0.0454,9.9368,-0.0004,0.0288,9.8066,0.0438,-0.0427,0.05,-21.81,-37.62,-2.37,214.54,-89.3,130.42
52.90739,-1.764837,159.38,23.61,3,16.8,23 / 24,1259912,2019-11-06 12:06:53:793,-1.8271,-0.2782,10.1108,0.0163,0.0131,9.8066,-0.0018,0.0236,-0.1211,-21.87,-37.69,-2.87,199.61,-89.32,117.77
52.90739,-1.764837,159.38,23.61,3,16.8,23 / 24,1260012,2019-11-06 12:06:53:893,-0.738,-2.3673,10.0977,0.0109,0.0308,9.8065,0.1253,-0.2169,0.0559,-22.37,-37.69,-2.44,205.86,-88.79,121.96
52.90739,-1.764837,159.38,23.61,3,16.8,23 / 24,1260112,2019-11-06 12:06:53:993,-0.5972,-0.4985,9.1673,0.0268,0.0241,9.8066,-0.0984,0.0404,0.0734,-22.62,-37.62,-1.75,214.27,-88.5,130.61
52.90739,-1.764837,159.38,23.61,3,16.8,23 / 24,1260212,2019-11-06 12:06:54:093,0.4283,-0.6601,9.1527,0.0113,0.0006,9.8066,-0.0933,0.0062,0.0223,-21.44,-37.81,-2.25,215.07,-88.7,131.85
52.90739,-1.764837,159.38,23.61,3,16.8,23 / 24,1260312,2019-11-06 12:06:54:193,-0.0317,0.1858,9.1988,-0.0323,-0.0262,9.8065,0.0608,-0.0519,-0.0381,-22.19,-38,-2.87,206.1,-89.03,124.59
52.90739,-1.764837,159.38,23.61,3,16.8,23 / 24,1260411,2019-11-06 12:06:54:292,-0.361,-2.3513,8.9402,-0.0063,0.0199,9.8066,-0.0555,-0.1547,0.1151,-22.25,-37.62,-2.75,206.64,-89.06,125.12
52.90739,-1.764837,159.38,23.61,3,16.8,22 / 22,1260512,2019-11-06 12:06:54:393,-1.5634,-0.852,9.1319,0.0089,-0.0214,9.8065,-0.0536,0.0519,-0.0502,-22.37,-37.56,-2.25,203.36,-89.24,119.07
52.90739,-1.764837,159.38,23.61,3,16.8,22 / 22,1260612,2019-11-06 12:06:54:493,-0.0016,-0.0206,8.9691,-0.0004,-0.0305,9.8066,0.0492,-0.2808,0.1895,-23.12,-38.06,-2.25,206.26,-89.42,121.65
52.90739,-1.764837,159.38,23.61,3,16.8,22 / 22,1260712,2019-11-06 12:06:54:593,-1.1916,-1.4264,10.7553,-0.009,-0.0244,9.8065,0.0904,-0.116,0.0005,-22.94,-37.87,-2.56,206.96,-89.5,124.75
52.90739,-1.764837,159.38,23.61,3,16.8,22 / 22,1260812,2019-11-06 12:06:54:693,-0.3682,-1.0283,10.4062,0.0229,-0.0244,9.8065,-0.0151,-0.1525,0.0327,-22.75,-37.69,-1.87,228.52,-89.43,144.19
52.90739,-1.764837,159.38,23.61,3,16.8,22 / 22,1260912,2019-11-06 12:06:54:793,-1.8953,-1.4772,8.4403,0.0134,0.004,9.8066,-0.0794,0.0278,0.0402,-22.94,-37.62,-3.25,217.41,-89.53,135.31
52.90739,-1.764837,159.38,23.61,3,16.8,22 / 22,1261012,2019-11-06 12:06:54:893,-0.0578,-1.0605,9.3661,-0.0362,-0.0391,9.8064,-0.066,-0.204,0.0831,-22.81,-38.06,-2.06,235.94,-89.66,151.37
52.90739,-1.764837,159.38,23.61,3,16.8,22 / 22,1261112,2019-11-06 12:06:54:993,-0.8698,-1.6569,10.3792,-0.0178,0.0128,9.8066,0.0996,-0.211,0.0222,-23.37,-37.56,-1.87,220.7,-89.55,136.15
52.90739,-1.764837,159.38,23.61,3,16.8,22 / 22,1261212,2019-11-06 12:06:55:093,1.1138,-1.3157,8.5454,-0.0025,0.0193,9.8066,0.0871,-0.0886,-0.028,-23.62,-37.31,-1.81,217.79,-89.56,132.97
52.90739,-1.764837,159.38,23.61,3,16.8,22 / 22,1261312,2019-11-06 12:06:55:193,-0.6812,-3.8666,9.2914,0.012,0.0371,9.8065,-0.0978,-0.2555,0.1972,-23.81,-37.75,-1.87,185.77,-89.8,100.57
52.90739,-1.764837,159.38,23.61,3,16.8,22 / 22,1261412,2019-11-06 12:06:55:293,0.4938,-2.3981,11.0585,-0.0144,0.0201,9.8066,-0.1434,0.0131,-0.0159,-23.87,-37.75,-2.56,97.05,-89.85,13.93
52.90739,-1.764837,159.38,23.61,3,16.8,22 / 22,1261512,2019-11-06 12:06:55:393,-1.7914,-0.9321,8.7957,-0.0204,0.0109,9.8066,0.0441,-0.2321,0.054,-23,-37.62,-2.06,74.05,-89.76,-11.36
52.90739,-1.764837,159.38,23.61,3,16.8,22 / 22,1261612,2019-11-06 12:06:55:493,-1.3484,-3.8104,9.5817,0.0098,0.0173,9.8066,0.0856,0.0242,-0.1126,-23.81,-37.56,-1.75,76.75,-89.77,-8.84
52.90739,-1.764837,159.38,23.61,3,16.8,22 / 22,1261712,2019-11-06 12:06:55:593,-1.4952,-2.6247,10.1345,0.0077,0.01,9.8066,0.0411,-0.1065,0.0276,-24.12,-36.87,-1.56,31.22,-89.76,-54.21
52.90739,-1.764837,159.38,23.61,3,16.8,22 / 22,1261812,2019-11-06 12:06:55:693,1.36,-2.5101,9.6654,0.0245,0.0272,9.8065,-0.0072,0.0624,-0.12,-24.06,-36.81,-1.94,18.64,-89.8,-66.69
52.90739,-1.764837,159.38,23.61,3,16.8,22 / 22,1261912,2019-11-06 12:06:55:793,-0.7616,-1.9872,10.1791,0.0196,0.0092,9.8066,-0.1461,-0.0142,0.1098,-23.94,-37.31,-1.87,26.27,-89.6,-59.24
52.90739,-1.764837,159.38,23.61,3,16.8,22 / 22,1262012,2019-11-06 12:06:55:893,-0.8688,-3.1208,10.8719,0.0087,-0.006,9.8066,-0.042,0.0625,-0.0054,-25.06,-37.12,-1.75,20.62,-89.52,-65.06
52.90739,-1.764837,159.38,23.61,3,16.8,22 / 22,1262112,2019-11-06 12:06:55:993,-0.5156,-1.1665,9.6151,0.0262,-0.0129,9.8065,0.0087,-0.1382,-0.1175,-24.12,-37.75,-1.37,347.94,-89.66,-99.56
52.90739,-1.764837,159.38,23.61,3,16.8,22 / 22,1262212,2019-11-06 12:06:56:093,0.3134,-2.6256,10.4127,-0.0164,0.0314,9.8065,0.0482,0.0561,-0.0497,-24.69,-37.37,-1.25,300.98,-89.76,-146.43
52.90739,-1.764837,159.38,23.61,3,16.8,22 / 22,1262312,2019-11-06 12:06:56:193,0.1453,-1.6813,10.6456,-0.0017,-0.0071,9.8066,-0.0212,0.0566,-0.1236,-24.81,-37.44,-1.75,262.52,-89.7,177.53
52.90739,-1.764837,159.38,23.61,3,16.8,22 / 22,1262412,2019-11-06 12:06:56:293,0.1403,-2.0547,10.567,0.0191,0.0113,9.8065,-0.0015,-0.0124,-0.0516,-24.5,-37.12,-1.12,237.88,-89.67,150.7
52.90916,-1.763483,161.95,22.93,3,32.87,23 / 23,1262512,2019-11-06 12:06:56:393,0.6066,-2.5388,10.3009,0.015,-0.0237,9.8066,-0.0242,-0.0108,-0.0396,-25.12,-36.62,-1.5,295.79,-89.69,-151.51
52.90916,-1.763483,161.95,22.93,3,32.87,23 / 23,1262612,2019-11-06 12:06:56:493,-0.7767,-3.4377,9.6217,-0.0104,-0.0092,9.8066,-0.0474,-0.1345,0.1312,-25.56,-37.37,-0.87,347.85,-89.56,-99.81
52.90916,-1.763483,161.95,22.93,3,32.87,23 / 23,1262712,2019-11-06 12:06:56:593,1.1044,-1.5037,9.9035,0.0111,0.0028,9.8066,0.0067,0.1856,-0.1761,-25.87,-36.87,-0.44,353.09,-89.3,-96.79
52.90916,-1.763483,161.95,22.93,3,32.87,23 / 23,1262812,2019-11-06 12:06:56:693,-0.725,-2.5499,9.9078,0.0086,0.0261,9.8066,0.0721,-0.06,-0.0974,-26.31,-35.37,-1.12,353.51,-88.84,-94.11
52.90916,-1.763483,161.95,22.93,3,32.87,23 / 23,1262912,2019-11-06 12:06:56:793,-1.8906,-1.1658,9.3556,-0.0101,-0.0156,9.8066,-0.1281,0.0854,-0.0991,-26.69,-36.25,-1.25,347.23,-88.79,-100.29
52.90916,-1.763483,161.95,22.93,3,32.87,23 / 23,1263012,2019-11-06 12:06:56:893,1.0904,-2.0334,11.3103,-0.0303,0.002,9.8066,-0.1905,0.0124,0.1218,-26.44,-36.94,0,341.18,-88.89,-108.31
52.90916,-1.763483,161.95,22.93,3,32.87,23 / 23,1263112,2019-11-06 12:06:56:993,-0.5458,-3.3625,9.0356,0.0252,0.0356,9.8065,0.022,-0.0762,-0.1192,-26.44,-36.94,-0.5,330.28,-88.94,-118.96
52.90916,-1.763483,161.95,22.93,3,32.87,23 / 23,1263212,2019-11-06 12:06:57:093,1.079,-0.2857,11.0102,0.0436,0.0348,9.8065,0.0862,0.0747,-0.1217,-26.81,-37.44,-0.31,324.1,-88.99,-125.08
52.90916,-1.763483,161.95,22.93,3,32.87,23 / 23,1263312,2019-11-06 12:06:57:193,1.6696,-3.0732,10.1831,-0.0167,0.0189,9.8065,-0.01,-0.0155,-0.0553,-26.69,-36.94,0.06,325.04,-88.98,-124.15
52.90916,-1.763483,161.95,22.93,3,32.87,23 / 23,1263412,2019-11-06 12:06:57:293,1.3641,-0.0036,10.5823,-0.0151,-0.0007,9.8066,-0.1038,-0.2621,0.2193,-26.44,-37.69,0,303.97,-88.87,-144.66
52.90916,-1.763483,161.95,22.93,3,32.87,23 / 23,1263512,2019-11-06 12:06:57:393,0.1977,-3.8003,9.8477,0.0074,0.058,9.8064,0.0783,-0.0685,-0.1135,-26.5,-37.19,0.38,294.37,-89.04,-154.38
52.90916,-1.763483,161.95,22.93,3,32.87,23 / 23,1263612,2019-11-06 12:06:57:493,-0.6052,-0.0653,10.2597,-0.0012,0.0056,9.8066,0.1765,-0.3412,0.0322,-26.37,-37.19,0.31,300.17,-88.97,-148.55
52.90916,-1.763483,161.95,22.93,3,32.87,23 / 23,1263712,2019-11-06 12:06:57:593,-1.4805,-3.7459,10.6423,-0.0057,-0.0141,9.8066,-0.0044,-0.235,0.1676,-26.87,-37.12,1.31,300.4,-88.78,-150.27
52.90916,-1.763483,161.95,22.93,3,32.87,23 / 23,1263812,2019-11-06 12:06:57:693,-0.0857,-1.8182,9.9615,0.0067,-0.0326,9.8066,-0.0042,-0.1044,0.0758,-26.87,-36.81,0.88,304.67,-88.58,-145.83
52.90916,-1.763483,161.95,22.93,3,32.87,23 / 23,1263912,2019-11-06 12:06:57:793,0.1903,-1.8419,8.9476,-0.0036,0.0169,9.8066,-0.0379,-0.1872,-0.0374,-27.31,-37,1,299.93,-88.67,-150.61
52.90916,-1.763483,161.95,22.93,3,32.87,23 / 23,1264012,2019-11-06 12:06:57:893,0.9004,-0.1068,9.0631,-0.0087,-0.0185,9.8066,0.0246,-0.0725,0.1324,-27.31,-37.75,0.81,304.4,-88.68,-146.18
52.90916,-1.763483,161.95,22.93,3,32.87,23 / 23,1264113,2019-11-06 12:06:57:994,-0.5212,-0.7988,9.4678,-0.0032,-0.0074,9.8066,0.0224,-0.0957,-0.0522,-27.37,-37.31,0.56,310.68,-88.55,-139.93
52.90916,-1.763483,161.95,22.93,3,32.87,23 / 23,1264212,2019-11-06 12:06:58:093,0.5427,-0.5052,9.696,0.0234,-0.0034,9.8066,0.0031,0.1009,-0.1439,-27.5,-37.19,0.88,313.68,-88.23,-136.67
52.90916,-1.763483,161.95,22.93,3,32.87,23 / 23,1264312,2019-11-06 12:06:58:193,-0.24,1.3781,10.4817,-0.0028,-0.0483,9.8065,-0.013,0.0211,0.0661,-27.75,-36.87,0.63,321.8,-88.15,-128.72
52.90916,-1.763483,161.95,22.93,3,32.87,23 / 23,1264412,2019-11-06 12:06:58:293,-0.1645,-0.405,9.9258,-0.0389,-0.0069,9.8066,-0.045,0.0058,0.0424,-27.81,-36.94,1,323.72,-88.16,-126.88
52.90916,-1.763483,161.95,22.93,3,32.87,23 / 23,1264512,2019-11-06 12:06:58:393,-0.2637,-1.406,9.9414,0.0094,0.0156,9.8066,0.0754,0.1977,-0.127,-27.81,-36.62,1.06,318.39,-87.99,-131.87
52.90916,-1.763483,161.95,22.93,3,32.87,23 / 23,1264612,2019-11-06 12:06:58:493,-0.0218,-2.9578,9.7214,0.0068,0.041,9.8065,0.0791,-0.0998,0.0334,-28.19,-37,1.94,326.21,-87.77,-126.22
52.90916,-1.763483,161.95,22.93,3,32.87,23 / 23,1264712,2019-11-06 12:06:58:593,1.4638,-0.7979,9.5099,-0.0187,0.0095,9.8066,-0.0147,0.1207,-0.0477,-27.69,-37.37,1.19,324.72,-87.74,-125.58
52.90916,-1.763483,161.95,22.93,3,32.87,23 / 23,1264812,2019-11-06 12:06:58:693,0.5004,1.7909,8.9034,-0.0117,0.0378,9.8066,0.0157,-0.0097,0.0713,-28.25,-36.69,2.06,324.35,-87.81,-128.04
52.90916,-1.763483,161.95,22.93,3,32.87,23 / 23,1264912,2019-11-06 12:06:58:793,0.7527,1.1903,9.5997,-0.0207,0.0266,9.8066,0.0043,0.0794,-0.1484,-28,-37.44,1.75,327.39,-87.74,-125.07
52.90916,-1.763483,161.95,22.93,3,32.87,23 / 23,1265012,2019-11-06 12:06:58:893,-0.0915,2.9097,9.2782,-0.0136,0.0124,9.8065,0.0935,-0.5414,0.2678,-27.44,-37.75,1.88,329.16,-87.86,-123.52
52.90916,-1.763483,161.95,22.93,3,32.87,23 / 23,1265112,2019-11-06 12:06:58:993,1.3486,-2.6259,10.5741,-0.0151,0.0846,9.8062,0.0875,-0.0767,0.0779,-28.44,-37.87,1.19,323.26,-88.15,-127.27
52.90916,-1.763483,161.95,22.93,3,32.87,23 / 23,1265212,2019-11-06 12:06:59:093,1.7975,1.9462,9.6968,-0.0016,0.0339,9.8066,0.0116,-0.3928,0.071,-27.06,-37.5,1.56,322.17,-88.22,-130.57
52.90916,-1.763483,161.95,22.93,3,32.87,23 / 23,1265312,2019-11-06 12:06:59:193,0.7319,-2.1196,9.2572,-0.0031,0.0151,9.8066,-0.0227,-0.1207,0.2666,-27.94,-37.31,1.69,322.62,-88.2,-130.01
52.90916,-1.763483,161.95,22.93,3,32.87,23 / 23,1265412,2019-11-06 12:06:59:293,1.0486,1.8048,10.4511,0.0091,-0.0336,9.8065,0.0689,0.1852,-0.177,-28.31,-37.06,1.88,326.14,-87.98,-126.45
52.90916,-1.763483,161.95,22.93,3,32.87,24 / 24,1265512,2019-11-06 12:06:59:393,1.788,-2.418,11.0653,0.0193,0.0383,9.8066,0.1975,-0.3619,0.0582,-27.87,-37.25,1.94,322.69,-87.97,-129.75
52.90916,-1.763483,161.95,22.93,3,32.87,24 / 24,1265612,2019-11-06 12:06:59:493,0.4338,2.3599,9.4107,0.0164,-0.0287,9.8066,0.0206,-0.1252,0.0055,-27.44,-37.62,1.81,318.11,-88.1,-134.33
52.90916,-1.763483,161.95,22.93,3,32.87,24 / 24,1265712,2019-11-06 12:06:59:593,0.9808,1.7057,9.9567,0.0034,0.0247,9.8065,0.0193,-0.2347,0.0768,-27.56,-37.31,1.56,307.97,-88.33,-144.37
52.90916,-1.763483,161.95,22.93,3,32.87,24 / 24,1265812,2019-11-06 12:06:59:693,0.7992,1.7756,10.2902,0.0003,-0.0085,9.8066,0.0282,0.2464,-0.1865,-27.19,-37.69,1.56,300.18,-88.29,-151.98
52.90916,-1.763483,161.95,22.93,3,32.87,24 / 24,1265912,2019-11-06 12:06:59:793,-1.4377,2.5783,8.5733,-0.0021,-0.048,9.8065,-0.0321,0.1309,0.245,-27.37,-37.94,1.25,299.75,-88.21,-150.17
52.90916,-1.763483,161.95,22.93,3,32.87,24 / 24,1266012,2019-11-06 12:06:59:893,1.7571,1.6087,8.4744,0.0017,-0.021,9.8065,0.1751,0.2835,0.049,-27.06,-37.37,1.19,294.83,-88.35,-155.23
52.90916,-1.763483,161.95,22.93,3,32.87,24 / 24,1266112,2019-11-06 12:06:59:993,1.5217,0.7883,9.5323,-0.0394,-0.0298,9.8064,-0.0174,-0.0582,-0.1721,-27.12,-37.44,1.94,315.17,-88.29,-137.41
52.90916,-1.763483,161.95,22.93,3,32.87,24 / 24,1266212,2019-11-06 12:07:00:093,1.4494,-0.674,10.081,-0.0226,-0.0203,9.8066,-0.0977,-0.1634,0.3222,-27.12,-37.37,1.44,305.88,-88.27,-144.31
52.90916,-1.763483,161.95,22.93,3,32.87,24 / 24,1266312,2019-11-06 12:07:00:193,-0.8763,3.1961,9.0624,0.0073,-0.0385,9.8065,-0.0363,0.0964,-0.031,-27.25,-38.06,1.81,307.19,-88.31,-145.14
52.90916,-1.763483,161.95,22.93,3,32.87,24 / 24,1266412,2019-11-06 12:07:00:293,1.0284,0.9963,10.3413,-0.0006,-0.0036,9.8066,-0.0837,0.3788,-0.1732,-27.31,-37.37,0.56,305.45,-88.46,-144.93
52.90916,-1.763483,161.95,22.93,3,32.87,24 / 24,1266512,2019-11-06 12:07:00:393,0.9998,2.9629,9.4287,0.0175,-0.025,9.8065,-0.008,0.2059,-0.0771,-26.69,-37.81,0.81,305.13,-88.37,-145.1
52.90916,-1.763483,161.95,22.93,3,32.87,24 / 24,1266611,2019-11-06 12:07:00:492,3.0675,3.2194,9.802,-0.0362,0.0007,9.8066,-0.0016,0.0816,0.1338,-26.87,-38.06,1.13,306.56,-88.34,-143.68
52.90916,-1.763483,161.95,22.93,3,32.87,24 / 24,1266712,2019-11-06 12:07:00:593,0.7043,3.4279,9.2831,0.0251,0.0459,9.8065,-0.1107,0.2305,-0.1619,-26.87,-37.31,1.25,302.8,-88.3,-147.35
52.90916,-1.763483,161.95,22.93,3,32.87,24 / 24,1266812,2019-11-06 12:07:00:693,-0.6292,1.8153,10.0963,-0.0033,0.0153,9.8066,-0.0534,0.1414,0.0449,-27.06,-37.81,1.25,297.6,-88.36,-152.46
52.90916,-1.763483,161.95,22.93,3,32.87,24 / 24,1266912,2019-11-06 12:07:00:793,-0.0499,0.2765,9.3568,-0.0336,-0.0004,9.8065,-0.0158,0.1405,-0.0022,-26.31,-38.12,1.31,306.52,-88.43,-143.82
52.90916,-1.763483,161.95,22.93,3,32.87,24 / 24,1267012,2019-11-06 12:07:00:893,0.5617,3.3172,9.2036,0.0129,-0.0088,9.8066,0.0768,0.1214,0.0326,-26.56,-37.62,1.06,315.79,-88.48,-134.83
52.90916,-1.763483,161.95,22.93,3,32.87,24 / 24,1267112,2019-11-06 12:07:00:993,2.7761,3.8774,9.5521,-0.0183,-0.0325,9.8065,0.0361,0.0379,0.0784,-26.75,-37.56,-0.06,321.66,-88.25,-126.8
52.90916,-1.763483,161.95,22.93,3,32.87,24 / 24,1267212,2019-11-06 12:07:01:093,1.0264,0.4801,9.8701,-0.0062,-0.0029,9.8066,-0.0173,0.3776,-0.1744,-26.37,-37.94,0.31,311.49,-88.19,-136.52
52.90916,-1.763483,161.95,22.93,3,32.87,24 / 24,1267312,2019-11-06 12:07:01:193,-0.0543,2.1045,9.8066,0.0271,-0.0488,9.8064,-0.0643,0.0567,0.0494,-26.06,-38.06,1.25,312.98,-87.78,-136.82
52.90916,-1.763483,161.95,22.93,3,32.87,24 / 24,1267412,2019-11-06 12:07:01:293,0.1028,-2.1754,10.488,-0.0126,-0.0273,9.8065,-0.1678,0.501,-0.1127,-26.75,-37.56,0,320.09,-87.69,-127.8
52.90916,-1.763483,161.95,22.93,3,32.87,23 / 23,1267512,2019-11-06 12:07:01:393,0.1941,0.9627,9.5449,-0.0124,-0.0377,9.8065,-0.0844,0.4226,-0.2711,-26.31,-37.31,-0.25,329.97,-87.67,-118.34
52.90916,-1.763483,161.95,22.93,3,32.87,23 / 23,1267612,2019-11-06 12:07:01:493,0.011,3.3804,7.8336,-0.0198,0.0524,9.8065,0.0056,-0.0709,-0.0226,-26.81,-37.5,0,333.82,-87.73,-114.79
52.90916,-1.763483,161.95,22.93,3,32.87,23 / 23,1267711,2019-11-06 12:07:01:592,2.3845,3.0668,9.3976,0.0133,-0.0017,9.8065,0.1061,0.3511,-0.1698,-26.19,-36.94,0.06,328.37,-87.99,-120.11
52.90916,-1.763483,161.95,22.93,3,32.87,23 / 23,1267811,2019-11-06 12:07:01:692,-0.7221,0.5654,9.4256,-0.0187,0.0335,9.8065,0.0598,0.0658,0.0098,-26,-37.56,-0.62,321.46,-88.3,-124.79
52.90916,-1.763483,161.95,22.93,3,32.87,23 / 23,1267912,2019-11-06 12:07:01:793,-0.0906,-0.4223,10.2794,-0.0039,0.025,9.8065,-0.0544,0.2872,-0.2176,-25.81,-37.94,0.31,322.17,-88.27,-126.27
52.90916,-1.763483,161.95,22.93,3,32.87,23 / 23,1268012,2019-11-06 12:07:01:893,-1.1627,0.2673,9.0134,0.0001,0.0425,9.8065,0.0077,0.3843,-0.1314,-26.31,-37.56,0,319.45,-88.4,-129.02
52.90916,-1.763483,161.95,22.93,3,32.87,23 / 23,1268112,2019-11-06 12:07:01:993,-1.2815,-0.9826,10.7254,-0.0002,0.0349,9.8065,0.0374,0.0125,0.0204,-26.75,-37.56,-0.56,322.89,-88.39,-123.61
52.90916,-1.763483,161.95,22.93,3,32.87,23 / 23,1268212,2019-11-06 12:07:02:093,-1.3204,0.8227,9.9623,0.0169,0.0055,9.8065,-0.0196,-0.0342,-0.0858,-26.37,-37.5,-0.31,327.61,-88.28,-121.07
52.90916,-1.763483,161.95,22.93,3,32.87,23 / 23,1268312,2019-11-06 12:07:02:193,-1.9924,1.7164,9.9332,0.0082,-0.0191,9.8065,0.0788,0.0797,0.0053,-26.56,-37.5,0.19,323.9,-88.23,-124.66
52.90916,-1.763483,161.95,22.93,3,32.87,23 / 23,1268411,2019-11-06 12:07:02:292,-1.0806,1.7539,11.0722,-0.0077,-0.0055,9.8066,0.0727,0.1208,0.009,-26.19,-37.69,-0.19,320.97,-88.24,-127.4
52.90916,-1.763483,161.95,22.93,3,32.87,24 / 24,1268512,2019-11-06 12:07:02:393,-1.3029,1.4829,8.303,-0.0259,-0.0253,9.8065,-0.1407,0.0293,0.0815,-25.69,-37.87,-0.37,322.77,-88.1,-125.54
52.90916,-1.763483,161.95,22.93,3,32.87,24 / 24,1268612,2019-11-06 12:07:02:493,-1.9454,2.6833,9.2009,-0.0217,-0.0031,9.8065,0.0057,-0.0159,0.0939,-25.56,-38.06,-0.25,323.99,-88.29,-124.53
52.90916,-1.763483,161.95,22.93,3,32.87,24 / 24,1268712,2019-11-06 12:07:02:593,-1.0504,2.2853,9.653,-0.0068,0.0311,9.8066,-0.0382,0.016,-0.0653,-25.56,-38.06,-0.69,318.78,-88.51,-127.57
52.90916,-1.763483,161.95,22.93,3,32.87,24 / 24,1268812,2019-11-06 12:07:02:693,-1.9076,3.3575,8.6584,0.0052,-0.0257,9.8066,-0.1066,0.2676,-0.0826,-25.62,-37.37,-0.56,323.42,-88.39,-122.99
52.90916,-1.763483,161.95,22.93,3,32.87,24 / 24,1268912,2019-11-06 12:07:02:793,-2.5053,2.3081,9.83,0.0153,-0.0741,9.8063,0.025,-0.0067,0.1323,-26.19,-37.12,-0.81,336.6,-87.94,-110.02
52.90916,-1.763483,161.95,22.93,3,32.87,24 / 24,1269011,2019-11-06 12:07:02:892,-2.2642,-0.4387,8.9684,-0.0184,-0.0131,9.8066,0.029,0.29,-0.1367,-25.69,-37.75,-1.37,349.21,-87.66,-97.94
52.90916,-1.763483,161.95,22.93,3,32.87,24 / 24,1269111,2019-11-06 12:07:02:992,-2.0301,3.3115,9.5261,-0.0051,-0.04,9.8065,-0.0376,0.304,-0.1292,-26.12,-37.62,-0.5,351.94,-87.45,-97.53
52.90916,-1.763483,161.95,22.93,3,32.87,24 / 24,1269212,2019-11-06 12:07:03:093,-1.8399,-1.247,9.8946,0.0016,0.0228,9.8066,0.0056,0.0542,0.035,-26.19,-37.81,-1.12,344.43,-87.56,-102.4
52.90916,-1.763483,161.95,22.93,3,32.87,24 / 24,1269312,2019-11-06 12:07:03:193,-1.0894,2.0681,10.4671,-0.0169,0.0079,9.8066,-0.0857,0.2996,-0.1428,-25.81,-37.87,-1,342.64,-87.58,-104.09
52.90916,-1.763483,161.95,22.93,3,32.87,24 / 24,1269412,2019-11-06 12:07:03:293,0.4552,0.8436,10.5663,-0.038,0.0389,9.8065,-0.0527,0.2304,-0.1466,-25.81,-37.62,-1,337.88,-87.62,-108.6
52.90916,-1.763483,161.95,22.93,3,32.87,23 / 23,1269512,2019-11-06 12:07:03:393,-2.2525,4.4186,7.3482,-0.0089,-0.0138,9.8066,-0.1797,0.3557,-0.1409,-24.94,-37.94,-1.31,342.76,-87.83,-103.96
52.90916,-1.763483,161.95,22.93,3,32.87,23 / 23,1269612,2019-11-06 12:07:03:493,-0.9421,1.942,9.7427,-0.0297,0.0167,9.8066,-0.0762,0.1056,0.1294,-24.75,-37.31,-1.69,347.05,-88.04,-97.72
52.90916,-1.763483,161.95,22.93,3,32.87,23 / 23,1269712,2019-11-06 12:07:03:593,-0.6169,0.1004,10.4308,0.0004,0.0369,9.8065,0.0371,0.2521,-0.1883,-25.37,-37.12,-1.62,346.85,-88.1,-97.93
52.90916,-1.763483,161.95,22.93,3,32.87,23 / 23,1269811,2019-11-06 12:07:03:692,-2.6999,1.527,10.5921,0.0055,0.0315,9.8065,0.0767,-0.0382,-0.123,-24.94,-37.37,-1.87,345.09,-88.08,-99.6
52.90916,-1.763483,161.95,22.93,3,32.87,23 / 23,1269912,2019-11-06 12:07:03:793,-2.3532,0.2088,9.0713,-0.0104,-0.0012,9.8066,-0.084,0.0137,0.2058,-24.94,-37.37,-1.94,343.66,-88.14,-100.99
52.90916,-1.763483,161.95,22.93,3,32.87,23 / 23,1270012,2019-11-06 12:07:03:893,-3.8268,2.7133,8.7938,-0.0406,-0.0095,9.8065,-0.1157,0.0102,0.0536,-24.06,-37.19,-1.81,338.88,-88.28,-105.39
52.90916,-1.763483,161.95,22.93,3,32.87,23 / 23,1270112,2019-11-06 12:07:03:993,-3.8341,2.1783,8.9709,0.002,-0.0239,9.8066,-0.0402,0.1337,0.0863,-24.75,-37.25,-2.81,348.69,-88.21,-93.95
52.90916,-1.763483,161.95,22.93,3,32.87,23 / 23,1270212,2019-11-06 12:07:04:093,-3.3286,3.0809,10.547,-0.0043,0.0029,9.8066,-0.0677,0.0443,0.0941,-24.5,-37.19,-2.37,358.92,-88.22,-86.26
52.90916,-1.763483,161.95,22.93,3,32.87,23 / 23,1270312,2019-11-06 12:07:04:193,-2.0442,4.1259,9.234,0.0184,0.0221,9.8066,-0.0577,-0.0921,0.0018,-23.75,-37.56,-2.31,355.39,-88.29,-89.63
52.90916,-1.763483,161.95,22.93,3,32.87,23 / 23,1270412,2019-11-06 12:07:04:293,-4.0456,4.2196,9.237,0.0087,-0.0558,9.8064,-0.1779,0.1592,0.1011,-24.37,-37.37,-2.75,350.57,-88.14,-91.84
52.90916,-1.763483,161.95,22.93,3,32.87,23 / 23,1270512,2019-11-06 12:07:04:393,-2.196,2.1611,10.0679,0.0556,0.0204,9.8064,0.1536,-0.1336,0.0421,-24.56,-37.37,-2,343.3,-88.45,-101.46
52.90916,-1.763483,161.95,22.93,3,32.87,23 / 23,1270612,2019-11-06 12:07:04:493,-0.2172,1.3856,10.7976,0.038,-0.0098,9.8065,-0.05,0.1734,-0.0815,-23.81,-37.31,-3,338.18,-88.34,-103.74
52.90916,-1.763483,161.95,22.93,3,32.87,23 / 23,1270712,2019-11-06 12:07:04:593,0.0389,0.4181,10.1336,0.027,-0.0337,9.8065,0.0567,-0.1424,0.1302,-23.87,-37.81,-3,336.21,-88.27,-105.56
52.90916,-1.763483,161.95,22.93,3,32.87,23 / 23,1270812,2019-11-06 12:07:04:693,-1.6755,2.0976,9.4947,0.0031,-0.0518,9.8065,-0.051,0.164,0.0168,-23.69,-37.37,-2.31,344.42,-88.13,-100.03
52.90916,-1.763483,161.95,22.93,3,32.87,23 / 23,1270912,2019-11-06 12:07:04:793,-2.0533,3.2754,8.9903,0.0047,-0.0063,9.8066,0.062,0.0344,0.0672,-23.69,-37,-2.94,344.22,-88.21,-97.91
52.90916,-1.763483,161.95,22.93,3,32.87,23 / 23,1271013,2019-11-06 12:07:04:894,-0.6801,1.6472,9.9336,0.0121,-0.0281,9.8066,0.0165,0.0848,0.1436,-23.44,-37.44,-2.81,347.63,-88.09,-94.27
52.90916,-1.763483,161.95,22.93,3,32.87,23 / 23,1271112,2019-11-06 12:07:04:993,-2.1008,2.9139,9.7818,-0.0001,-0.033,9.8065,0.0448,0.1957,0.0674,-23.31,-36.37,-3.19,350.46,-87.73,-91.52
52.90916,-1.763483,161.95,22.93,3,32.87,23 / 23,1271212,2019-11-06 12:07:05:093,-2.1046,1.7768,9.9509,0.038,0.001,9.8065,0.1715,0.1004,-0.119,-23.81,-37.06,-3.44,348.12,-87.49,-93.95
52.90916,-1.763483,161.95,22.93,3,32.87,23 / 23,1271312,2019-11-06 12:07:05:193,0.7218,4.0455,11.0171,-0.0138,-0.0252,9.8065,-0.0363,0.0277,0.0857,-23.19,-37.25,-2.75,347.49,-87.44,-94.18
52.90916,-1.763483,161.95,22.93,3,32.87,23 / 23,1271412,2019-11-06 12:07:05:293,0.0551,4.3617,10.235,-0.0353,-0.0249,9.8065,-0.0472,0.1204,0.0164,-23.12,-37.31,-3.12,346.71,-87.83,-95.05
52.910686,-1.761592,163.93,21.04,3,21.52,22 / 22,1271513,2019-11-06 12:07:05:394,-1.1536,1.7696,8.9369,-0.0076,0.0249,9.8066,-0.0667,-0.1557,0.1322,-22.44,-37.31,-3.06,345.78,-88.2,-95.71
52.910686,-1.761592,163.93,21.04,3,21.52,22 / 22,1271611,2019-11-06 12:07:05:492,0.088,1.8652,11.0718,0.0226,-0.0322,9.8065,0.208,0.1833,0.0404,-22.12,-37.56,-3.19,351.01,-88.46,-90.81
52.910686,-1.761592,163.93,21.04,3,21.52,22 / 22,1271713,2019-11-06 12:07:05:594,-0.8645,0.4291,11.4108,0.0232,0.0012,9.8066,0.1631,-0.2225,0.0608,-21.62,-37.12,-3.87,349.21,-88.45,-90
52.910686,-1.761592,163.93,21.04,3,21.52,22 / 22,1271812,2019-11-06 12:07:05:693,-2.3276,2.5202,10.5331,0.0393,-0.0413,9.8065,-0.0591,0.2755,-0.1092,-21,-35.62,-4.19,345.87,-88.32,-92.65
52.910686,-1.761592,163.93,21.04,3,21.52,22 / 22,1271912,2019-11-06 12:07:05:793,-2.5107,6.2819,9.8063,0.0364,-0.0378,9.8064,0.1446,-0.0619,0.107,-19.81,-34.69,-2.87,349.29,-88.43,-91.67
52.910686,-1.761592,163.93,21.04,3,21.52,22 / 22,1272012,2019-11-06 12:07:05:893,-0.6796,4.3313,9.2588,0.0016,-0.0172,9.8066,-0.0196,0.38,-0.309,-23.44,-36.5,-1.94,351.61,-88.37,-93.05
52.910686,-1.761592,163.93,21.04,3,21.52,22 / 22,1272112,2019-11-06 12:07:05:993,-0.4345,3.8046,9.676,0.0084,-0.062,9.8064,0.0411,0.0905,0.178,-22.62,-36.81,-4.75,347.63,-88.46,-89.59
52.910686,-1.761592,163.93,21.04,3,21.52,22 / 22,1272212,2019-11-06 12:07:06:093,-0.9605,-0.6604,9.98,0.0216,0.0073,9.8065,-0.0231,0.6276,-0.3209,-21.62,-37.5,-4.94,355.08,-88.72,-81.94
52.910686,-1.761592,163.93,21.04,3,21.52,22 / 22,1272311,2019-11-06 12:07:06:192,0.4363,4.0716,10.8651,0.0196,-0.0642,9.8063,0.1431,0.2084,-0.2096,-21.31,-37.31,-4.37,353.06,-88.35,-85.81
52.910686,-1.761592,163.93,21.04,3,21.52,22 / 22,1272412,2019-11-06 12:07:06:293,0.6772,-2.8294,9.7104,0.0319,-0.0098,9.8066,0.0104,-0.2962,0.4243,-20.94,-37.44,-4,343.88,-88.24,-94.48
52.910686,-1.761592,163.93,21.04,3,21.52,23 / 23,1272512,2019-11-06 12:07:06:393,1.9575,4.945,11.5172,0.016,-0.0583,9.8064,-0.0615,0.5369,-0.3692,-20.44,-36.75,-4,336.88,-88.09,-100.44
52.910686,-1.761592,163.93,21.04,3,21.52,23 / 23,1272612,2019-11-06 12:07:06:493,1.4675,1.3549,9.5803,-0.0244,0.0435,9.8064,-0.0471,0.2997,-0.2004,-20.56,-36.94,-4.06,334.03,-88.04,-103.69
52.910686,-1.761592,163.93,21.04,3,21.52,23 / 23,1272712,2019-11-06 12:07:06:593,0.5665,4.4714,8.9233,-0.0397,-0.0343,9.8065,0.0139,0.4184,-0.2116,-20.19,-37.44,-2.94,348.6,-88.13,-92.18
52.910686,-1.761592,163.93,21.04,3,21.52,23 / 23,1272812,2019-11-06 12:07:06:693,-1.5868,-0.601,8.8612,-0.0363,0.0417,9.8064,-0.1568,0.2276,-0.0471,-21.19,-37.12,-3.56,355.96,-88.21,-83.04
52.910686,-1.761592,163.93,21.04,3,21.52,23 / 23,1272912,2019-11-06 12:07:06:793,3.4722,-0.7493,10.4952,-0.0498,0.0112,9.8065,-0.155,0.1045,0.1569,-21.06,-37.06,-3.62,356.84,-88.11,-82.19
52.910686,-1.761592,163.93,21.04,3,21.52,23 / 23,1273012,2019-11-06 12:07:06:893,2.6577,1.6099,10.3133,-0.0147,-0.0057,9.8066,0.0144,-0.3654,0.2771,-20.19,-37.94,-4.06,352.55,-88.07,-85.67
52.910686,-1.761592,163.93,21.04,3,21.52,23 / 23,1273112,2019-11-06 12:07:06:993,1.7298,-3.1054,11.2801,-0.0451,0.0438,9.8064,0.0133,-0.2637,0.0846,-20.5,-37.81,-4,359.26,-88.09,-79.38
52.910686,-1.761592,163.93,21.04,3,21.52,23 / 23,1273211,2019-11-06 12:07:07:092,-0.5487,2.2654,9.2892,0.0175,-0.0453,9.8065,-0.0771,0.2852,0.0539,-20.37,-37.81,-3.87,353.59,-87.85,-84.65
52.910686,-1.761592,163.93,21.04,3,21.52,23 / 23,1273312,2019-11-06 12:07:07:193,0.4863,-3.1084,10.3273,-0.0318,0.043,9.8065,0.0581,-0.5225,0.4373,-20.12,-37.25,-3.37,356.32,-88.33,-84.95
52.910686,-1.761592,163.93,21.04,3,21.52,23 / 23,1273411,2019-11-06 12:07:07:292,0.0036,5.6952,10.2467,0.051,-0.0541,9.8063,-0.0582,-0.3411,0.2752,-20.31,-37.37,-3.62,343.8,-88.04,-93.89
52.910686,-1.761592,163.93,21.04,3,21.52,23 / 24,1273511,2019-11-06 12:07:07:392,-0.6084,0.9055,9.2767,0.0246,0.0409,9.8065,0.1629,-0.5221,0.2905,-20.06,-37.87,-3.81,341.91,-88.43,-95.86
52.910686,-1.761592,163.93,21.04,3,21.52,23 / 24,1273612,2019-11-06 12:07:07:493,0.638,4.8094,10.1298,0.0385,-0.045,9.8065,-0.1225,0.1429,-0.0307,-19.62,-37.19,-3.56,339.18,-88.65,-98.63
52.910686,-1.761592,163.93,21.04,3,21.52,23 / 24,1273712,2019-11-06 12:07:07:593,2.046,0.2962,7.7427,0.0182,-0.0078,9.8065,-0.2029,-0.2477,0.2462,-20.25,-37.56,-3.56,331.8,-88.64,-105.69
52.910686,-1.761592,163.93,21.04,3,21.52,23 / 24,1273812,2019-11-06 12:07:07:693,0.2772,-2.573,10.0343,-0.0359,-0.0766,9.8062,-0.1883,0.3671,-0.0386,-20.12,-37.56,-3.81,349.35,-88.54,-88.83
52.910686,-1.761592,163.93,21.04,3,21.52,23 / 24,1273912,2019-11-06 12:07:07:793,-0.142,3.2314,10.3612,0.0439,-0.0393,9.8064,-0.0311,0.2484,-0.1545,-20.31,-37.44,-3.87,338.11,-88.43,-99.51
52.910686,-1.761592,163.93,21.04,3,21.52,23 / 24,1274012,2019-11-06 12:07:07:893,2.9591,-2.5555,10.736,0.0211,0.028,9.8065,-0.0582,0.3128,-0.2396,-20.25,-38.12,-3.12,335.46,-88.2,-104.59
52.910686,-1.761592,163.93,21.04,3,21.52,23 / 24,1274112,2019-11-06 12:07:07:993,0.2462,1.9998,9.9599,0.0396,-0.0383,9.8065,0.0831,0.0972,-0.1455,-19.69,-37.81,-3.19,331.2,-87.96,-108.4
52.910686,-1.761592,163.93,21.04,3,21.52,23 / 24,1274212,2019-11-06 12:07:08:093,0.7403,-1.2522,9.0951,0.0196,0.0394,9.8065,0.0051,0.3266,-0.3272,-19.75,-37.37,-2.87,337.62,-88.07,-102.49
52.910686,-1.761592,163.93,21.04,3,21.52,23 / 24,1274311,2019-11-06 12:07:08:192,0.3056,1.8556,9.3434,0.0068,-0.0168,9.8066,-0.0205,0.0725,-0.1128,-19.87,-37.19,-3.62,329.06,-88.42,-108.15
52.910686,-1.761592,163.93,21.04,3,21.52,23 / 24,1274411,2019-11-06 12:07:08:292,2.6965,-0.7789,10.3868,-0.0064,0.0081,9.8066,-0.1024,0.2176,-0.1444,-19.75,-37.69,-3.37,327.57,-88.87,-112.76
52.910686,-1.761592,163.93,21.04,3,21.52,22 / 23,1274512,2019-11-06 12:07:08:393,1.4563,1.2768,11.1467,0.015,0.0074,9.8066,0.1558,-0.0244,-0.1006,-19.69,-38.19,-3.06,318.4,-89.22,-122.09
52.910686,-1.761592,163.93,21.04,3,21.52,22 / 23,1274614,2019-11-06 12:07:08:495,-0.0903,0.3442,9.2203,0.0155,0.0158,9.8066,0.0923,0.0586,-0.1779,-19.37,-38,-3.06,297.45,-89.4,-142.53
52.910686,-1.761592,163.93,21.04,3,21.52,22 / 23,1274712,2019-11-06 12:07:08:593,0.3634,2.3748,10.1427,-0.0122,-0.0159,9.8066,0.0065,-0.1664,0.1429,-18.94,-37.81,-3.19,282.92,-89.53,-157.2
52.910686,-1.761592,163.93,21.04,3,21.52,22 / 23,1274811,2019-11-06 12:07:08:692,-0.2582,-0.9295,10.6524,0.002,-0.0063,9.8066,0.0001,-0.2986,0.1097,-18.69,-37.94,-2.87,259.8,-89.57,179.61
52.910686,-1.761592,163.93,21.04,3,21.52,22 / 23,1274911,2019-11-06 12:07:08:792,-0.0488,2.7347,9.5777,0.0102,-0.0254,9.8066,-0.0172,0.0236,-0.1163,-19.44,-38.25,-2.87,255.52,-89.49,175.47
52.910686,-1.761592,163.93,21.04,3,21.52,22 / 23,1275012,2019-11-06 12:07:08:893,0.3909,-0.6792,10.3054,-0.0053,0.0103,9.8066,-0.0391,0.3101,-0.0669,-19,-37.69,-2.81,215.32,-89.38,135
52.910686,-1.761592,163.93,21.04,3,21.52,22 / 23,1275112,2019-11-06 12:07:08:993,0.2098,1.1603,9.7414,0.0305,-0.0027,9.8065,0.1255,0.1433,-0.1066,-18.94,-37.37,-2.69,217.42,-89.23,137.29
52.910686,-1.761592,163.93,21.04,3,21.52,22 / 23,1275212,2019-11-06 12:07:09:093,0.0447,-3.5314,12.3532,0.022,0.0424,9.8065,0.1282,-0.1817,0.0639,-18.56,-37.44,-2.69,230.71,-88.77,151.52
52.910686,-1.761592,163.93,21.04,3,21.52,22 / 23,1275313,2019-11-06 12:07:09:194,1.0937,0.2412,11.1037,0.0386,-0.0168,9.8065,0.1045,0.3383,-0.2494,-18.69,-37.56,-3.12,245.03,-88.62,166.46
52.910686,-1.761592,163.93,21.04,3,21.52,22 / 23,1275414,2019-11-06 12:07:09:295,-0.5172,1.3199,10.5941,0.0016,0.0478,9.8064,-0.0346,0.0158,0.0027,-18.81,-38.06,-2.25,244.65,-88.42,163.5
52.910686,-1.761592,163.93,21.04,3,21.52,23 / 24,1275512,2019-11-06 12:07:09:393,1.407,2.7654,8.5294,0.0076,-0.0064,9.8066,-0.0588,0.2458,-0.2524,-19,-38.44,-2,239.79,-88.23,158.83
52.910686,-1.761592,163.93,21.04,3,21.52,23 / 24,1275612,2019-11-06 12:07:09:493,0.1049,0.1525,9.0245,-0.0111,0.0291,9.8065,0.0277,0.0073,0.0684,-19.25,-38.25,-2.37,230.37,-88.14,149.21
52.910686,-1.761592,163.93,21.04,3,21.52,23 / 24,1275711,2019-11-06 12:07:09:592,2.8276,-0.7439,9.9061,-0.0317,-0.0098,9.8066,-0.0749,0.2157,-0.0005,-18.56,-38.25,-2.31,228.15,-88.38,146.54
52.910686,-1.761592,163.93,21.04,3,21.52,23 / 24,1275812,2019-11-06 12:07:09:693,1.0485,-3.8509,12.3426,-0.0171,0.0176,9.8066,0.0676,-0.0113,-0.009,-19.12,-37.94,-1.75,233.22,-88.42,151.74
52.910686,-1.761592,163.93,21.04,3,21.52,23 / 24,1275912,2019-11-06 12:07:09:793,-0.1334,-0.8103,11.4205,0.0304,0.0072,9.8065,0.038,0.2628,-0.1234,-19,-37.81,-1.69,244.85,-87.97,164.51
52.910686,-1.761592,163.93,21.04,3,21.52,23 / 24,1276012,2019-11-06 12:07:09:893,-0.9079,1.0705,11.4746,0.0155,0.035,9.8065,0.1573,-0.1722,0.1253,-19,-38.25,-2,249.57,-87.64,169.97
52.910686,-1.761592,163.93,21.04,3,21.52,23 / 24,1276112,2019-11-06 12:07:09:993,-0.0748,-1.648,9.955,0.0045,0.0304,9.8066,-0.0818,-0.0343,0.0222,-18.94,-37.87,-1.31,249.86,-87.14,168.23
52.910686,-1.761592,163.93,21.04,3,21.52,23 / 24,1276212,2019-11-06 12:07:10:093,-0.1415,-2.0011,9.1826,0.0098,0.0105,9.8066,0.099,-0.1035,-0.0162,-19.5,-38.31,-1.5,254.14,-87,172.91
52.910686,-1.761592,163.93,21.04,3,21.52,23 / 24,1276312,2019-11-06 12:07:10:193,3.4536,-0.6443,11.2818,-0.02,-0.0087,9.8065,0.0199,-0.0639,-0.0501,-19.69,-38.44,-0.81,258.69,-87.16,176.84
52.910686,-1.761592,163.93,21.04,3,21.52,23 / 24,1276416,2019-11-06 12:07:10:297,-0.1742,-2.7052,10.0879,-0.0033,-0.0272,9.8065,-0.0592,-0.0298,0.1006,-19.62,-38.75,-1.06,259.87,-86.97,178.55
52.910686,-1.761592,163.93,21.04,3,21.52,23 / 23,1276512,2019-11-06 12:07:10:393,-0.477,-0.8494,10.4718,0.0176,-0.0046,9.8066,-0.0475,-0.1392,-0.0878,-19.87,-38.81,-0.69,257.75,-86.74,176.83
52.910686,-1.761592,163.93,21.04,3,21.52,23 / 23,1276612,2019-11-06 12:07:10:493,1.3375,-1.4137,11.1256,0.0091,-0.0039,9.8066,-0.0753,0.1129,-0.0864,-19.87,-38.06,-0.5,261.38,-86.61,177.76
52.910686,-1.761592,163.93,21.04,3,21.52,23 / 23,1276712,2019-11-06 12:07:10:593,1.016,1.8388,7.8072,0.0409,-0.0164,9.8065,-0.0453,0.0472,0.0528,-20.12,-38.75,-0.87,257.98,-86.37,177.76
52.910686,-1.761592,163.93,21.04,3,21.52,23 / 23,1276812,2019-11-06 12:07:10:693,0.3976,-1.9625,7.926,0.0356,0.0309,9.8065,-0.1179,0.339,-0.1362,-19.81,-38.44,-0.56,255.41,-86.3,175.06
52.910686,-1.761592,163.93,21.04,3,21.52,23 / 23,1276912,2019-11-06 12:07:10:793,2.1706,5.2202,11.7181,0.0002,-0.0414,9.8065,0.2202,0.0127,-0.2952,-20.19,-38.5,-0.44,264.31,-86.73,-179.5
52.910686,-1.761592,163.93,21.04,3,21.52,23 / 23,1277012,2019-11-06 12:07:10:893,0.7247,-1.7393,6.9352,-0.0498,-0.0284,9.8064,-0.0887,-0.028,-0.092,-20.31,-38.75,-1.25,259.19,-86.79,178.18
52.910686,-1.761592,163.93,21.04,3,21.52,23 / 23,1277112,2019-11-06 12:07:10:993,0.2413,-0.0282,7.8462,-0.0219,-0.0306,9.8065,-0.0597,0.1065,0.2062,-19.81,-38.44,-1.25,259.75,-87.16,177.91
52.910686,-1.761592,163.93,21.04,3,21.52,23 / 23,1277212,2019-11-06 12:07:11:093,-0.7574,-0.3841,8.0983,0.0109,0.0668,9.8064,0.1327,0.112,-0.3569,-20.06,-38.25,-1.19,254.97,-87.38,172.62
52.910686,-1.761592,163.93,21.04,3,21.52,23 / 23,1277312,2019-11-06 12:07:11:193,2.8787,-0.983,10.8283,-0.0028,0.027,9.8066,0.1486,0.208,-0.2082,-19.81,-37.81,-1.37,256.91,-87.56,174.28
52.910686,-1.761592,163.93,21.04,3,21.52,23 / 23,1277411,2019-11-06 12:07:11:292,2.2432,-0.3258,10.3342,0.0152,0.0379,9.8065,-0.0896,0.4175,-0.1646,-19.87,-38.12,-1.12,251.02,-87.43,168.48
52.910686,-1.761592,163.93,21.04,3,21.52,23 / 24,1277512,2019-11-06 12:07:11:393,1.9198,-3.5391,9.0669,-0.0272,0.0599,9.8064,-0.0437,-0.1741,0.0284,-19.62,-37.56,-0.69,248.16,-87.43,165.53
52.910686,-1.761592,163.93,21.04,3,21.52,23 / 24,1277612,2019-11-06 12:07:11:493,0.8989,1.8918,7.7554,-0.0299,-0.021,9.8065,-0.1395,-0.3327,0.1817,-19.69,-38.25,-1.25,246.89,-87.81,163.56
52.910686,-1.761592,163.93,21.04,3,21.52,23 / 24,1277712,2019-11-06 12:07:11:593,0.7197,-1.3261,8.2762,-0.0346,0.0311,9.8065,-0.0953,-0.2071,0.2744,-19.56,-37.62,-2.81,229.21,-88.34,150.1
52.910686,-1.761592,163.93,21.04,3,21.52,23 / 24,1277812,2019-11-06 12:07:11:693,-0.3069,2.6805,8.9783,0.0219,-0.026,9.8066,-0.0106,-0.1569,0.132,-19.69,-38.25,-2.25,234.66,-88.75,152.28
52.910686,-1.761592,163.93,21.04,3,21.52,23 / 24,1277911,2019-11-06 12:07:11:792,0.6168,1.2171,9.4724,0.0188,-0.002,9.8066,0.1417,-0.4402,0.2369,-19.75,-37.56,-2.25,239.42,-88.85,157.01
52.910686,-1.761592,163.93,21.04,3,21.52,23 / 24,1278012,2019-11-06 12:07:11:893,1.2633,3.67,9.8012,0.0424,-0.081,9.8062,-0.0571,0.0856,0.0831,-19.19,-37,-2.06,266.61,-88.67,-174.82
52.910686,-1.761592,163.93,21.04,3,21.52,23 / 24,1278112,2019-11-06 12:07:11:993,1.8553,1.3023,10.3864,0.0216,-0.0372,9.8065,0.1064,-0.0988,0.0868,-20.37,-36,-2.94,269.42,-88.8,-169.91
52.910686,-1.761592,163.93,21.04,3,21.52,23 / 24,1278212,2019-11-06 12:07:12:093,-0.4312,-4.1008,9.3351,0.0028,-0.009,9.8066,-0.0264,0.2639,-0.3613,-20.5,-35.62,-2.75,271.33,-88.99,-168.34
52.910686,-1.761592,163.93,21.04,3,21.52,23 / 24,1278312,2019-11-06 12:07:12:193,0.3441,-2.0534,9.5442,0.0046,-0.0895,9.8062,-0.016,-0.175,0.2324,-20.94,-36.19,-2.06,289.14,-89.05,-153.89
52.910686,-1.761592,163.93,21.04,3,21.52,23 / 24,1278412,2019-11-06 12:07:12:293,1.0318,-2.0754,10.1416,0.0087,-0.0295,9.8065,-0.0179,0.4538,-0.1,-20.56,-36.87,-2.06,280.65,-89.11,-162.37
52.910686,-1.761592,163.93,21.04,3,21.52,24 / 24,1278512,2019-11-06 12:07:12:393,1.6994,2.7422,10.8122,0.0024,-0.047,9.8065,-0.0753,0.0707,-0.121,-19.87,-37.31,-2.19,288.8,-89.01,-153.75
52.910686,-1.761592,163.93,21.04,3,21.52,24 / 24,1278612,2019-11-06 12:07:12:493,1.7387,-0.75,10.612,-0.0036,-0.0152,9.8066,-0.0309,0.4179,-0.28,-20.06,-37.75,-2.31,287.2,-89.01,-155.29
52.910686,-1.761592,163.93,21.04,3,21.52,24 / 24,1278712,2019-11-06 12:07:12:593,-0.517,0.4147,8.148,0.0019,-0.0584,9.8064,-0.2629,0.2104,0.0362,-20.19,-37.75,-2.62,294.76,-88.98,-144.96
52.910686,-1.761592,163.93,21.04,3,21.52,24 / 24,1278812,2019-11-06 12:07:12:693,2.2905,2.1165,10.1769,-0.0211,0.0314,9.8066,-0.2503,0.0611,0.1542,-20.06,-37.75,-2.75,270.21,-89.35,-170.04
52.910686,-1.761592,163.93,21.04,3,21.52,24 / 24,1278912,2019-11-06 12:07:12:793,0.4357,1.5688,10.5844,0.02,0.0678,9.8064,0.1336,0.1253,-0.356,-20,-37.87,-3.06,259.48,-89.47,178.98
52.910686,-1.761592,163.93,21.04,3,21.52,24 / 24,1279012,2019-11-06 12:07:12:893,-0.3782,-1.3212,9.6328,0.0091,0.0659,9.8064,0.1328,-0.1051,-0.1191,-19.69,-38,-3.25,211.83,-89.27,131.08
52.910686,-1.761592,163.93,21.04,3,21.52,24 / 24,1279112,2019-11-06 12:07:12:993,2.1697,-1.5041,11.7676,-0.03,0.027,9.8065,0.0529,0.1932,-0.0122,-19.62,-37.37,-2.69,200.07,-89.11,119.16
52.910686,-1.761592,163.93,21.04,3,21.52,24 / 24,1279212,2019-11-06 12:07:13:093,0.3095,1.1373,8.9757,-0.0361,0.0211,9.8065,-0.1529,0.2291,-0.1846,-19.75,-37.75,-3.31,208.83,-88.79,128.45
52.910686,-1.761592,163.93,21.04,3,21.52,24 / 24,1279312,2019-11-06 12:07:13:193,2.1756,-2.2354,8.8799,-0.0223,0.0009,9.8066,-0.0685,-0.2279,0.1938,-20.06,-37.81,-3.12,202.2,-88.79,121.58
52.910686,-1.761592,163.93,21.04,3,21.52,24 / 24,1279412,2019-11-06 12:07:13:293,0.591,0.3962,9.7677,-0.0249,-0.0586,9.8064,-0.1618,-0.0921,0.1818,-19.19,-38.25,-3.37,191.78,-89.01,111.15
52.910686,-1.761592,163.93,21.04,3,21.52,23 / 23,1279512,2019-11-06 12:07:13:393,2.2905,-1.3961,10.5498,0.0326,0.0147,9.8066,0.1086,-0.2976,0.1151,-19.5,-37.75,-2.69,193.75,-88.86,113.25
52.910686,-1.761592,163.93,21.04,3,21.52,23 / 23,1279612,2019-11-06 12:07:13:493,2.0054,-1.6051,8.6246,0.0362,-0.0448,9.8064,-0.0084,-0.4291,0.2719,-19.12,-37.62,-3.31,199.34,-89.33,118.75
52.910686,-1.761592,163.93,21.04,3,21.52,23 / 23,1279712,2019-11-06 12:07:13:593,0.9435,2.2911,11.6816,-0.0237,-0.0887,9.8061,0.0147,-0.0193,0.1525,-19.75,-37.81,-3.12,183.03,-89.57,101.6
52.910686,-1.761592,163.93,21.04,3,21.52,23 / 23,1279812,2019-11-06 12:07:13:693,1.1935,1.0937,10.7414,-0.0308,-0.0382,9.8065,-0.0858,0.0041,0.1678,-19.44,-37.87,-3.12,202.44,-89.3,121.93
52.910686,-1.761592,163.93,21.04,3,21.52,23 / 23,1279912,2019-11-06 12:07:13:793,0.0868,1.499,8.9415,0.016,0.0155,9.8066,-0.0103,0.0166,-0.1343,-20.12,-37.31,-3.06,202.44,-89.42,121.38
52.910686,-1.761592,163.93,21.04,3,21.52,23 / 23,1280011,2019-11-06 12:07:13:892,0.461,-1.3865,9.6061,-0.0044,0.0227,9.8066,-0.0057,-0.0848,0.0875,-20.19,-37.69,-3.62,178.22,-89.47,99.5
52.910686,-1.761592,163.93,21.04,3,21.52,23 / 23,1280111,2019-11-06 12:07:13:992,-0.5291,2.6603,9.3486,-0.0037,-0.0254,9.8066,-0.0852,0.3653,-0.1229,-20.25,-37.87,-3.62,167.7,-89.52,88.82
52.910686,-1.761592,163.93,21.04,3,21.52,23 / 23,1280212,2019-11-06 12:07:14:093,1.4928,-2.1871,10.6687,-0.0093,0.0466,9.8064,-0.0409,0.1171,-0.1163,-20.06,-37.62,-3.62,177.49,-89.39,98.75
52.910686,-1.761592,163.93,21.04,3,21.52,23 / 23,1280312,2019-11-06 12:07:14:193,-0.5724,0.7401,9.9779,0.0019,-0.0171,9.8066,-0.0559,0.3421,-0.2514,-20.06,-37.44,-3.56,199.23,-89.63,120.76
52.910686,-1.761592,163.93,21.04,3,21.52,23 / 23,1280412,2019-11-06 12:07:14:293,1.1296,-1.1882,9.2143,-0.0077,0.0262,9.8065,-0.0295,-0.0501,0.0469,-20.37,-37.56,-3.25,231.94,-89.59,151.09
52.912415,-1.760959,166.35,24.14,3,12.41,23 / 24,1280512,2019-11-06 12:07:14:393,0.0729,-1.8943,9.2306,-0.0165,-0.0113,9.8066,0.0208,0.2159,-0.0653,-20.56,-37.19,-3.37,236.54,-89.75,155.02
52.912415,-1.760959,166.35,24.14,3,12.41,23 / 24,1280612,2019-11-06 12:07:14:493,-0.4574,2.4758,9.115,0.0035,-0.0593,9.8064,0.0768,-0.1274,0.1179,-20.69,-37.62,-3.12,344.91,-89.62,-96.79
52.912415,-1.760959,166.35,24.14,3,12.41,23 / 24,1280712,2019-11-06 12:07:14:593,0.3496,-1.1716,10.2708,0.0166,-0.0409,9.8065,0.0257,0.0334,0.0254,-21.06,-36.81,-3.5,342.34,-89.25,-99.13
52.912415,-1.760959,166.35,24.14,3,12.41,23 / 24,1280812,2019-11-06 12:07:14:693,1.7011,1.0425,9.184,-0.0178,-0.0221,9.8066,-0.0085,-0.1566,0.1094,-20.75,-36.69,-4.19,338.57,-89.27,-100.18
52.912415,-1.760959,166.35,24.14,3,12.41,23 / 24,1280912,2019-11-06 12:07:14:793,1.4641,-1.5236,9.9637,-0.0328,-0.0262,9.8065,0.1718,0.0832,-0.1841,-21.06,-37.5,-3.94,310.31,-89.46,-128.19
52.912415,-1.760959,166.35,24.14,3,12.41,23 / 24,1281012,2019-11-06 12:07:14:893,0.3289,-0.1156,9.9624,0.032,-0.0063,9.8066,0.1772,-0.1568,-0.0101,-20.62,-37.56,-3.31,293.67,-89.54,-147.44
52.912415,-1.760959,166.35,24.14,3,12.41,23 / 24,1281112,2019-11-06 12:07:14:993,1.6186,-2.2461,10.4351,0.0117,0.0196,9.8066,0.0336,-0.2199,0.1826,-20,-37.12,-2.87,256.76,-89.48,176.22
52.912415,-1.760959,166.35,24.14,3,12.41,23 / 24,1281211,2019-11-06 12:07:15:092,-0.4532,0.9993,9.5568,0.0262,-0.0073,9.8065,-0.1009,0.0993,-0.053,-19.94,-37.62,-4,271.8,-89.39,-165.75
52.912415,-1.760959,166.35,24.14,3,12.41,23 / 24,1281312,2019-11-06 12:07:15:193,0.6554,-1.3074,10.2816,-0.0147,0.0076,9.8065,0.0649,-0.2769,0.0153,-20.19,-37.81,-3.44,257.14,-89.44,176.69
52.912415,-1.760959,166.35,24.14,3,12.41,23 / 24,1281412,2019-11-06 12:07:15:293,-0.114,1.2496,9.4666,0.0128,0.0119,9.8066,0.1056,-0.1103,-0.0038,-20.12,-38,-3.44,257.15,-89.25,177.06
52.912415,-1.760959,166.35,24.14,3,12.41,22 / 23,1281512,2019-11-06 12:07:15:393,0.5124,1.4646,10.6128,0.0055,0.0524,9.8065,-0.0171,-0.2984,0.2295,-20.44,-36.75,-3.75,272.1,-89.09,-164.94
52.912415,-1.760959,166.35,24.14,3,12.41,22 / 23,1281612,2019-11-06 12:07:15:493,-0.371,-2.4188,9.159,-0.0017,0.0256,9.8065,-0.1033,-0.2216,0.1278,-20,-37.44,-3.75,257.69,-89.08,-179.38
52.912415,-1.760959,166.35,24.14,3,12.41,22 / 23,1281712,2019-11-06 12:07:15:593,-0.007,1.4122,8.6413,-0.0011,0.0192,9.8066,-0.0809,-0.0435,-0.0248,-19.62,-37.62,-3.19,254.37,-89.3,174.17
52.912415,-1.760959,166.35,24.14,3,12.41,22 / 23,1281812,2019-11-06 12:07:15:693,1.4135,-0.3944,7.8584,-0.0331,0.0309,9.8065,-0.0192,0.1788,-0.0656,-19.87,-37.44,-3.75,237.39,-89.52,159.44
52.912415,-1.760959,166.35,24.14,3,12.41,22 / 23,1281912,2019-11-06 12:07:15:793,-0.651,0.6816,8.2151,-0.0252,-0.006,9.8066,-0.0727,0.0796,0.0729,-19.75,-37.19,-4.44,297.03,-89.91,-141.51
52.912415,-1.760959,166.35,24.14,3,12.41,22 / 23,1282012,2019-11-06 12:07:15:893,-1.118,0.4007,9.5046,-0.0084,-0.0378,9.8066,-0.0571,-0.0389,0.0964,-19.5,-37.25,-4.37,6.58,-89.69,-71.6
52.912415,-1.760959,166.35,24.14,3,12.41,22 / 23,1282112,2019-11-06 12:07:15:993,0.4676,-0.8036,10.2877,0.0115,-0.0146,9.8065,0.0609,0.016,-0.08,-19.81,-36.87,-4.12,44.23,-89.85,-34.65
52.912415,-1.760959,166.35,24.14,3,12.41,22 / 23,1282212,2019-11-06 12:07:16:093,1.6641,0.8408,10.5427,0.0143,-0.0009,9.8065,0.0855,-0.2365,0.1244,-19.87,-37.12,-3.94,279.19,-89.81,-159.17
52.912415,-1.760959,166.35,24.14,3,12.41,22 / 23,1282312,2019-11-06 12:07:16:193,2.3872,-0.5419,9.9155,-0.0198,0.0057,9.8066,0.0433,-0.1465,0.0721,-19.44,-37.81,-4.44,198.66,-89.83,120.66
52.912415,-1.760959,166.35,24.14,3,12.41,22 / 23,1282412,2019-11-06 12:07:16:293,1.041,0.6267,7.5961,0.0004,-0.0201,9.8066,-0.035,-0.126,0.0486,-19.5,-37.06,-4,117.32,-89.97,39.17
52.912415,-1.760959,166.35,24.14,3,12.41,23 / 23,1282512,2019-11-06 12:07:16:393,-0.5693,1.316,9.291,-0.0027,0.0117,9.8066,-0.067,-0.2266,0.164,-19.56,-37.12,-5.12,57.57,-89.51,-19.13
52.912415,-1.760959,166.35,24.14,3,12.41,23 / 23,1282612,2019-11-06 12:07:16:493,1.0897,0.0946,9.5596,-0.0025,0.0079,9.8066,0.0893,0.1071,0.03,-20.25,-37,-4.94,51.17,-89.44,-25.58
52.912415,-1.760959,166.35,24.14,3,12.41,23 / 23,1282712,2019-11-06 12:07:16:593,0.4705,0.8823,10.1024,0.0316,0.03,9.8065,-0.165,0.0373,0.0199,-20.12,-37.5,-4.19,45.89,-89.81,-33.04
52.912415,-1.760959,166.35,24.14,3,12.41,23 / 23,1282812,2019-11-06 12:07:16:693,-0.1587,0.2671,9.152,-0.0066,0.009,9.8066,0.0541,-0.116,-0.0611,-19.81,-37.5,-4.87,59.34,-89.75,-17.02
52.912415,-1.760959,166.35,24.14,3,12.41,23 / 23,1282912,2019-11-06 12:07:16:793,1.0398,-1.495,10.8933,-0.0412,0.0351,9.8064,0.1033,-0.2532,0.0912,-19.87,-37.12,-5.37,127.1,-89.57,50.53
52.912415,-1.760959,166.35,24.14,3,12.41,23 / 23,1283012,2019-11-06 12:07:16:893,2.0755,-1.0184,9.2131,-0.0135,0.0425,9.8065,-0.1091,0.0672,-0.12,-19.44,-36.94,-4.37,132.7,-89.31,53.63
52.912415,-1.760959,166.35,24.14,3,12.41,23 / 23,1283112,2019-11-06 12:07:16:993,1.1873,0.2589,10.0337,-0.034,0.07,9.8063,0.0422,-0.1295,0.0021,-19.44,-37.5,-4.94,131.62,-89.11,55.11
52.912415,-1.760959,166.35,24.14,3,12.41,23 / 23,1283212,2019-11-06 12:07:17:093,1.6219,0.63,8.8984,-0.0449,0.0443,9.8064,-0.0648,0.1316,-0.0214,-18.56,-37.12,-5.56,138.51,-88.46,64.16
52.912415,-1.760959,166.35,24.14,3,12.41,23 / 23,1283312,2019-11-06 12:07:17:193,0.2093,2.1415,8.7879,-0.0395,-0.0418,9.8065,0.0922,0.1139,-0.1525,-18.56,-36.94,-5.25,137.84,-88.44,60.63
52.912415,-1.760959,166.35,24.14,3,12.41,23 / 23,1283412,2019-11-06 12:07:17:293,-0.6885,1.6566,10.0483,-0.01,-0.0106,9.8065,-0.0197,0.1113,0.0188,-18.81,-36.81,-4.56,135.89,-88.52,58.71
52.912415,-1.760959,166.35,24.14,3,12.41,23 / 24,1283512,2019-11-06 12:07:17:393,0.4819,0.5556,9.7678,-0.0071,-0.0111,9.8066,0.0086,-0.0323,-0.004,-19.12,-37.12,-5.44,131.49,-88.63,54.31
52.912415,-1.760959,166.35,24.14,3,12.41,23 / 24,1283612,2019-11-06 12:07:17:493,0.1,1.0972,9.7328,-0.0056,0.0058,9.8066,0.0068,0.1016,-0.0237,-18.37,-37,-4.69,127.57,-88.62,50.94
52.912415,-1.760959,166.35,24.14,3,12.41,23 / 24,1283712,2019-11-06 12:07:17:593,0.9979,0.2408,10.1217,0.0137,0.0214,9.8065,0.0217,0.0023,0.0867,-18.62,-36.94,-5.37,137.21,-88.59,60.16
52.912415,-1.760959,166.35,24.14,3,12.41,23 / 24,1283813,2019-11-06 12:07:17:694,0.7063,1.515,10.2643,0.0145,-0.0169,9.8066,-0.0573,0.0105,-0.0364,-18.56,-37,-4.81,137.38,-88.62,60.37
52.912415,-1.760959,166.35,24.14,3,12.41,23 / 24,1283913,2019-11-06 12:07:17:794,-0.8327,1.7679,8.5021,0.0029,0.0031,9.8066,-0.0363,-0.0227,0.0375,-18.56,-37.19,-4.44,137.21,-88.5,57.16
52.912415,-1.760959,166.35,24.14,3,12.41,23 / 24,1284012,2019-11-06 12:07:17:893,-0.743,0.1575,8.6024,-0.0121,0.0045,9.8066,-0.127,0.0527,0.1095,-18.19,-36.62,-5.81,131.25,-88.61,57.66
52.912415,-1.760959,166.35,24.14,3,12.41,23 / 24,1284112,2019-11-06 12:07:17:993,0.7535,1.1682,7.5885,0.0148,0.0367,9.8065,-0.174,-0.1417,0.1009,-18.5,-37.06,-4.69,118.62,-88.65,41.8
52.912415,-1.760959,166.35,24.14,3,12.41,23 / 24,1284213,2019-11-06 12:07:18:094,0.8539,-2.1032,9.6006,-0.0365,0.0213,9.8065,0.0598,-0.2294,0.1971,-18.5,-36.87,-5.5,120.44,-88.45,43.33
52.912415,-1.760959,166.35,24.14,3,12.41,23 / 24,1284312,2019-11-06 12:07:18:193,1.0589,0.9343,10.0199,-0.0025,0.0274,9.8066,-0.0974,0.0712,0.0464,-18.5,-37.06,-5.75,119.28,-88.46,45.11
52.912415,-1.760959,166.35,24.14,3,12.41,23 / 24,1284412,2019-11-06 12:07:18:293,1.9685,1.9795,10.8335,-0.0405,0.0116,9.8065,0.0854,-0.1855,0.0937,-18.69,-36.75,-5.87,114.59,-88.11,38.94
52.912415,-1.760959,166.35,24.14,3,12.41,23 / 23,1284512,2019-11-06 12:07:18:393,1.0068,2.3447,10.0814,-0.0222,0.0015,9.8066,0.1333,-0.2084,0.2124,-18.69,-37.56,-6.12,105.58,-88.28,29.95
52.912415,-1.760959,166.35,24.14,3,12.41,23 / 23,1284612,2019-11-06 12:07:18:493,1.3968,-0.1497,10.6971,0.0137,-0.0167,9.8065,0.0542,-0.0684,0.0739,-18.87,-36.44,-5.69,100.63,-88.26,25.06
52.912415,-1.760959,166.35,24.14,3,12.41,23 / 23,1284712,2019-11-06 12:07:18:593,0.0297,2.3898,9.067,-0.0008,-0.0548,9.8065,-0.0227,0.1192,-0.1773,-18.62,-36.69,-6,93.14,-88.4,17.7
52.912415,-1.760959,166.35,24.14,3,12.41,23 / 23,1284812,2019-11-06 12:07:18:693,1.2366,-2.8086,8.7024,-0.0326,-0.0197,9.8065,0.092,-0.0763,0.0735,-18.5,-36.44,-6.19,87.32,-88.04,12.04
52.912415,-1.760959,166.35,24.14,3,12.41,23 / 23,1284911,2019-11-06 12:07:18:792,0.6398,2.5334,8.9294,0.0103,-0.0563,9.8065,-0.0344,-0.3932,0.2515,-18.69,-36.56,-6.06,84.7,-88.08,8.67
52.912415,-1.760959,166.35,24.14,3,12.41,23 / 23,1285012,2019-11-06 12:07:18:893,1.8438,-3.7444,7.7338,-0.0427,0.063,9.8063,0.0099,-0.513,0.3064,-18.81,-36.75,-6,96.28,-87.75,19.65
