GPS LATITUDE (degrees), GPS LONGITUDE (degrees), GPS ALTITUDE (m), GPS SPEED (Kmh), GPS ACCURACY (m), GPS ORIENTATION (Â°),GPS SATELLITES IN RANGE, TIME SINCE START (ms), DATE (YYYY-MO-DD HH-MI-SS_SSS), ACCELEROMETER X (m/s²) , ACCELEROMETER Y (m/s²), ACCELEROMETER Z (m/s²), GRAVITY X (m/s²), GRAVITY Y (m/s²), GRAVITY Z (m/s²), GYROSCOPE Yaw (rad/s), GYROSCOPE Pitch (rad/s), GYROSCOPE Roll (rad/s), MAGNETIC FIELD X (Î¼T), MAGNETIC FIELD Y (Î¼T), MAGNETIC FIELD Z (Î¼T), ORIENTATION (Yaw) (Â°), ORIENTATION (Pitch) (Â°), ORIENTATION (Roll ) (Â°)
52.862984,-1.682804,117.99,9.97,4,8.62,24 / 24,551412,2019-11-06 11:55:05:293,-1.0765,0.3961,9.9887,0.0028,-0.0111,9.8066,0.023,0.1053,-0.1126,-19.94,-36.37,-8.44,92.17,-82.5,11.28
52.862984,-1.682804,117.99,9.97,4,8.62,25 / 25,551512,2019-11-06 11:55:05:393,1.0824,-1.6625,9.9446,0.0035,0.039,9.8065,-0.0096,0.1903,-0.1794,-19.62,-36.94,-8.25,93.83,-82.54,12.7
52.862984,-1.682804,117.99,9.97,4,8.62,25 / 25,551612,2019-11-06 11:55:05:493,-0.1935,1.5037,9.8698,-0.0124,-0.0197,9.8066,-0.0367,0.2407,-0.1087,-19.5,-37.94,-7.31,95.33,-82.44,11.25
52.862984,-1.682804,117.99,9.97,4,8.62,25 / 25,551712,2019-11-06 11:55:05:593,-0.9777,0.1256,9.9612,-0.017,0.0108,9.8066,0.0032,0.0571,-0.0378,-20.06,-37.44,-6.62,95.29,-82.18,10.81
52.862984,-1.682804,117.99,9.97,4,8.62,25 / 25,551812,2019-11-06 11:55:05:693,-1.3878,1.3069,9.2738,0.0041,-0.0472,9.8065,-0.0899,0.2621,-0.1499,-19.31,-37.19,-7.56,91.04,-82.07,9.41
52.862984,-1.682804,117.99,9.97,4,8.62,25 / 25,551911,2019-11-06 11:55:05:792,-0.4669,-0.2833,10.3901,-0.0016,-0.0272,9.8066,-0.0457,-0.1274,0.0797,-19.87,-37.5,-7.25,94.58,-81.88,9.54
52.862984,-1.682804,117.99,9.97,4,8.62,25 / 25,552012,2019-11-06 11:55:05:893,0.3448,-2.0073,9.8978,0.0075,-0.0204,9.8066,-0.0477,0.1096,-0.0803,-19.37,-37.37,-7.12,94.2,-81.78,9.2
52.862984,-1.682804,117.99,9.97,4,8.62,25 / 25,552112,2019-11-06 11:55:05:993,-0.4412,-1.5078,9.8869,0.003,-0.0259,9.8065,0.0078,-0.1129,0.0404,-20.5,-37.62,-6.56,95.25,-81.72,9.54
52.862984,-1.682804,117.99,9.97,4,8.62,25 / 25,552212,2019-11-06 11:55:06:093,-0.1859,-1.1551,9.928,0.0086,-0.0269,9.8065,-0.0087,0.1125,-0.0925,-19.94,-36.56,-6.56,96.09,-81.67,10.72
52.862984,-1.682804,117.99,9.97,4,8.62,25 / 25,552312,2019-11-06 11:55:06:193,0.1454,0.4217,9.6605,0.0147,-0.0335,9.8065,-0.0456,-0.0602,0.073,-20.06,-36,-6.31,97.52,-81.76,9.97
52.862984,-1.682804,117.99,9.97,4,8.62,25 / 25,552412,2019-11-06 11:55:06:293,-0.4403,0.2191,10.5061,0.0044,-0.0522,9.8065,-0.0395,0.1235,-0.0345,-20.5,-36.31,-6.69,94.32,-81.66,9.26
52.862984,-1.682804,117.99,9.97,4,8.62,23 / 23,552512,2019-11-06 11:55:06:393,-0.9408,2.4623,10.544,0.0074,-0.0765,9.8063,-0.0113,0.3909,-0.3134,-19.94,-36.37,-7.06,93.9,-81.59,8.71
52.862984,-1.682804,117.99,9.97,4,8.62,23 / 23,552612,2019-11-06 11:55:06:493,0.7481,-4.2533,10.3127,0.014,-0.0261,9.8065,0.0457,-0.1931,0.0244,-20.31,-37.25,-7.62,92.32,-81.63,9.53
52.862984,-1.682804,117.99,9.97,4,8.62,23 / 23,552711,2019-11-06 11:55:06:592,-1.464,-0.0645,8.6035,0.0153,-0.023,9.8066,-0.0597,0.306,-0.1878,-19.87,-37.06,-7,95.8,-81.72,10.51
52.862984,-1.682804,117.99,9.97,4,8.62,23 / 23,552812,2019-11-06 11:55:06:693,0.4589,-4.5929,8.9092,0.0121,0.04,9.8065,-0.0442,-0.4527,0.2413,-20.25,-37.94,-7.19,96.23,-81.89,10.86
52.862984,-1.682804,117.99,9.97,4,8.62,23 / 23,552912,2019-11-06 11:55:06:793,0.3841,-0.6627,9.8427,-0.0227,-0.014,9.8066,0.0049,-0.0264,0.018,-21.5,-38.69,-7.37,97.04,-81.79,10.94
52.862984,-1.682804,117.99,9.97,4,8.62,23 / 23,553012,2019-11-06 11:55:06:893,-1.2882,3.2211,9.9352,-0.047,0.0927,9.8061,0.0248,-0.4745,0.2177,-20.94,-37.69,-6.81,99.99,-81.34,13.61
52.862984,-1.682804,117.99,9.97,4,8.62,23 / 23,553112,2019-11-06 11:55:06:993,-0.2168,-1.6721,10.6233,-0.0387,0.0657,9.8063,-0.1535,0.3602,-0.2157,-20.12,-38.31,-6.62,100.59,-81.1,13.98
52.862984,-1.682804,117.99,9.97,4,8.62,23 / 23,553212,2019-11-06 11:55:07:093,-2.3226,2.8004,9.7181,-0.0109,0.043,9.8065,0.0086,-0.0336,0.0674,-20.56,-38.56,-7.19,101.03,-81.02,13.74
52.862984,-1.682804,117.99,9.97,4,8.62,23 / 23,553312,2019-11-06 11:55:07:193,-0.7185,-0.1596,10.0579,-0.0042,0.067,9.8064,0.0058,0.2634,-0.1205,-20.69,-38.5,-6.5,105.09,-80.95,15.72
52.862984,-1.682804,117.99,9.97,4,8.62,23 / 23,553412,2019-11-06 11:55:07:293,-0.6853,1.432,10.1783,0.0049,0.0029,9.8066,-0.0162,0.07,-0.0655,-19.44,-38.25,-6.56,101.29,-81.18,15.07
52.862984,-1.682804,117.99,9.97,4,8.62,24 / 25,553512,2019-11-06 11:55:07:393,-0.2649,-1.7794,9.8017,-0.0083,0.0508,9.8064,-0.035,0.2145,-0.1284,-20.5,-38,-6.56,102.47,-81.12,16.04
52.862984,-1.682804,117.99,9.97,4,8.62,24 / 25,553612,2019-11-06 11:55:07:493,-0.8338,0.9718,10.2565,-0.0036,-0.0106,9.8066,-0.0088,0.1931,-0.1075,-20.62,-38.12,-6.31,104.27,-81.05,14.99
52.862984,-1.682804,117.99,9.97,4,8.62,24 / 25,553711,2019-11-06 11:55:07:592,-0.2865,-2.2825,9.9484,0.0067,0.0287,9.8065,-0.0084,0.1524,-0.0864,-20.12,-37.37,-5.5,107.68,-81.04,16.29
52.862984,-1.682804,117.99,9.97,4,8.62,24 / 25,553812,2019-11-06 11:55:07:693,-0.7387,-1.2501,10.2854,0.0195,-0.0485,9.8064,-0.0013,0.2282,-0.1592,-20.19,-37.06,-5.81,105.94,-81.04,17.26
52.862984,-1.682804,117.99,9.97,4,8.62,24 / 25,553912,2019-11-06 11:55:07:793,-1.1733,-2.062,10.2481,0.001,-0.0017,9.8066,-0.0014,0.0435,-0.0118,-20.56,-37.5,-4.62,107.67,-81.19,16.61
52.862984,-1.682804,117.99,9.97,4,8.62,24 / 25,554012,2019-11-06 11:55:07:893,-1.5952,-0.4231,10.1317,0.0065,-0.0412,9.8065,-0.0447,0.1894,-0.1176,-20.19,-37.37,-5.62,103.8,-81.32,15.42
52.862984,-1.682804,117.99,9.97,4,8.62,24 / 25,554111,2019-11-06 11:55:07:992,-0.7705,0.285,10.1695,0.0057,-0.0136,9.8066,-0.0161,0.1261,-0.0747,-19.94,-36.94,-6,104.54,-81.27,16.14
52.862984,-1.682804,117.99,9.97,4,8.62,24 / 25,554213,2019-11-06 11:55:08:094,-0.6782,0.5559,9.7383,0.0058,-0.0237,9.8066,-0.0543,0.13,-0.0707,-19.75,-37.12,-5.87,104.42,-81.26,15.99
52.862984,-1.682804,117.99,9.97,4,8.62,24 / 25,554312,2019-11-06 11:55:08:193,-1.1514,0.6711,9.6935,-0.0044,-0.0257,9.8066,-0.0069,-0.1485,0.1058,-20.19,-37.44,-6.37,104.71,-81.13,16.07
52.862984,-1.682804,117.99,9.97,4,8.62,24 / 25,554412,2019-11-06 11:55:08:293,-1.0916,-2.1761,10.2799,0.0018,-0.0188,9.8065,-0.0094,0.0308,0.0017,-20.5,-37.12,-6.06,105.05,-81.01,16.24
52.862984,-1.682804,117.99,9.97,4,8.62,23 / 23,554513,2019-11-06 11:55:08:394,-1.6069,-0.3094,10.2848,-0.0079,-0.0331,9.8066,-0.0294,0.1443,-0.0831,-20.25,-37,-5.31,106.7,-81,15.14
52.862984,-1.682804,117.99,9.97,4,8.62,23 / 23,554612,2019-11-06 11:55:08:493,-1.2997,-2.1194,10.3042,0.0015,-0.0059,9.8066,0.0076,-0.0846,0.0654,-20,-36.81,-5.37,106.53,-80.96,14.9
52.862984,-1.682804,117.99,9.97,4,8.62,23 / 23,554711,2019-11-06 11:55:08:592,-1.271,0.2749,9.8906,0.0071,-0.0203,9.8065,0.0224,-0.1369,0.0735,-19.87,-36.87,-6.19,103.44,-81.04,14.54
52.862984,-1.682804,117.99,9.97,4,8.62,23 / 23,554812,2019-11-06 11:55:08:693,-1.021,-1.6615,10.0755,-0.0048,0.0155,9.8066,0.0073,-0.1443,0.0607,-20.44,-37.75,-6,104.74,-81.01,15.47
52.862984,-1.682804,117.99,9.97,4,8.62,23 / 23,554912,2019-11-06 11:55:08:793,-1.4461,0.5879,10.1101,-0.0114,-0.0034,9.8066,-0.0245,-0.0705,0.0432,-20.94,-37.25,-6.62,101.66,-80.93,15.09
52.862984,-1.682804,117.99,9.97,4,8.62,23 / 23,555012,2019-11-06 11:55:08:893,-1.2309,-0.0139,10.1737,-0.0077,0.0236,9.8065,0.0438,-0.1421,0.0853,-20.25,-37.31,-6.37,103.74,-80.89,14.6
52.862984,-1.682804,117.99,9.97,4,8.62,23 / 23,555112,2019-11-06 11:55:08:993,-1.3445,0.2502,10.0776,-0.0054,0.0099,9.8066,0.0058,0.034,-0.0287,-20.37,-38,-6.81,102.13,-80.84,15.15
52.862984,-1.682804,117.99,9.97,4,8.62,23 / 23,555212,2019-11-06 11:55:09:093,-0.9562,-1.1754,10.1666,-0.012,0.0151,9.8065,0.0373,-0.0854,0.0344,-20.19,-37.19,-6.5,104.7,-80.77,15.42
52.862984,-1.682804,117.99,9.97,4,8.62,23 / 23,555312,2019-11-06 11:55:09:193,-0.2763,-0.9908,10.0602,-0.005,0.0194,9.8065,-0.0301,0.1299,-0.0511,-19.94,-37.19,-5.94,104.67,-80.77,15.39
52.862984,-1.682804,117.99,9.97,4,8.62,23 / 23,555412,2019-11-06 11:55:09:293,0.173,0.6448,9.8738,0.0046,0.0063,9.8065,0.0076,-0.0081,-0.0049,-19.62,-37.75,-6.12,104.99,-80.86,15.46
52.862984,-1.682804,117.99,9.97,4,8.62,23 / 23,555512,2019-11-06 11:55:09:393,0.294,-0.8195,9.9912,-0.0017,0.023,9.8066,-0.0169,0.1198,-0.0751,-20.25,-37.56,-6.44,105.09,-80.87,15.59
52.862984,-1.682804,117.99,9.97,4,8.62,23 / 23,555612,2019-11-06 11:55:09:493,-0.0381,0.2989,9.966,-0.0027,-0.0012,9.8066,-0.0261,0.0693,-0.0369,-20.19,-37.44,-5.44,107.28,-80.83,15.5
52.862984,-1.682804,117.99,9.97,4,8.62,23 / 23,555712,2019-11-06 11:55:09:593,0.3927,-0.8424,9.8592,-0.0039,0.0152,9.8066,-0.0231,0.0776,-0.0507,-20.44,-38.06,-5.69,105.46,-80.74,15.76
52.862984,-1.682804,117.99,9.97,4,8.62,23 / 23,555812,2019-11-06 11:55:09:693,0.5603,0.4319,9.8735,-0.0032,-0.0143,9.8066,-0.0049,0.1016,-0.0687,-20.44,-38,-5.69,105.16,-80.68,15.32
52.862984,-1.682804,117.99,9.97,4,8.62,23 / 23,555912,2019-11-06 11:55:09:793,0.7285,-0.8107,9.8509,-0.0025,-0.001,9.8065,-0.0256,0.0486,-0.0436,-20.56,-38.12,-6.25,105.47,-80.63,15.57
52.862984,-1.682804,117.99,9.97,4,8.62,23 / 23,556012,2019-11-06 11:55:09:893,0.6829,-1.1351,9.886,-0.0034,-0.0163,9.8066,-0.0016,0.1037,-0.0538,-20.81,-37.5,-6.19,104.78,-80.56,15.13
52.862984,-1.682804,117.99,9.97,4,8.62,23 / 23,556112,2019-11-06 11:55:09:993,1.1547,-1.007,9.7934,0.0001,-0.0133,9.8066,0.0042,-0.0587,0.0369,-20.62,-37.75,-6.62,102.86,-80.53,15.26
52.862984,-1.682804,117.99,9.97,4,8.62,23 / 23,556211,2019-11-06 11:55:10:092,1.1528,-0.8655,9.9025,-0.0031,-0.0134,9.8066,0.0068,0.0386,-0.0316,-20.56,-38.12,-5.69,105.57,-80.46,15.38
52.862984,-1.682804,117.99,9.97,4,8.62,23 / 23,556312,2019-11-06 11:55:10:193,0.9504,0.3714,9.6975,0.003,-0.0165,9.8066,0.0172,-0.0784,0.0479,-21.5,-37.44,-5.75,104.73,-80.46,14.91
52.862984,-1.682804,117.99,9.97,4,8.62,23 / 23,556412,2019-11-06 11:55:10:293,1.5212,-0.8267,9.7812,0.0014,-0.006,9.8066,-0.0005,0.0142,-0.0036,-20.87,-37.94,-6.25,105.16,-80.46,14.94
52.862984,-1.682804,117.99,9.97,4,8.62,24 / 24,556512,2019-11-06 11:55:10:393,1.5625,-0.6925,9.7386,0.0005,-0.0176,9.8066,0.0267,-0.0992,0.0514,-20.75,-37.56,-5.5,107.52,-80.46,14.78
52.862984,-1.682804,117.99,9.97,4,8.62,24 / 24,556612,2019-11-06 11:55:10:493,1.1529,-1.4081,9.7868,-0.0008,-0.0037,9.8066,-0.0145,-0.0092,0.0154,-20.31,-37.81,-5.12,107.75,-80.44,14.85
52.862984,-1.682804,117.99,9.97,4,8.62,24 / 24,556712,2019-11-06 11:55:10:593,1.1129,0.1216,9.6977,-0.0008,-0.0193,9.8065,0.0038,-0.0849,0.0501,-20.81,-37.69,-5.69,104.87,-80.41,14.52
52.862984,-1.682804,117.99,9.97,4,8.62,24 / 24,556812,2019-11-06 11:55:10:693,1.1623,-0.9822,9.8138,-0.0057,0.0055,9.8066,-0.0058,-0.0484,0.0319,-20.62,-37.56,-5.25,107.51,-80.36,14.59
52.862984,-1.682804,117.99,9.97,4,8.62,24 / 24,556912,2019-11-06 11:55:10:793,0.5678,0.1844,9.8572,-0.0045,-0.0144,9.8066,0.005,-0.0686,0.0328,-20.31,-37.62,-5.25,107.53,-80.28,14.31
52.862984,-1.682804,117.99,9.97,4,8.62,24 / 24,557012,2019-11-06 11:55:10:893,0.615,-0.6342,9.9045,-0.0037,0.0123,9.8066,-0.0061,-0.0725,0.0298,-20.56,-37.75,-5.25,107.88,-80.17,14.68
52.862984,-1.682804,117.99,9.97,4,8.62,24 / 24,557112,2019-11-06 11:55:10:993,0.7159,0.0839,9.8446,-0.0029,-0.0004,9.8066,-0.0121,-0.003,0.0152,-21,-37.19,-5.12,107.34,-80.14,14.47
52.862984,-1.682804,117.99,9.97,4,8.62,24 / 24,557212,2019-11-06 11:55:11:093,0.6724,-0.762,9.9625,-0.0024,0.0112,9.8066,0.0054,-0.0357,0.028,-20.81,-37.81,-5.5,108.05,-80.09,14.72
52.862984,-1.682804,117.99,9.97,4,8.62,24 / 24,557312,2019-11-06 11:55:11:193,0.4824,-0.8719,9.8182,-0.0016,0.0053,9.8066,-0.004,0.0148,-0.0304,-20.37,-37.12,-5.5,107.73,-80.07,14.63
52.862984,-1.682804,117.99,9.97,4,8.62,24 / 24,557412,2019-11-06 11:55:11:293,1.0126,-0.7691,9.8297,-0.0003,0.0099,9.8066,-0.0039,-0.0204,0.0094,-20.44,-37.12,-5.62,104.94,-80.05,14.39
52.862984,-1.682804,117.99,9.97,4,8.62,23 / 23,557512,2019-11-06 11:55:11:393,1.0555,-0.7264,9.7488,0.0002,0.009,9.8066,0.0032,-0.0309,0.0175,-20.12,-36.62,-5.75,105.36,-80.03,14.82
52.862984,-1.682804,117.99,9.97,4,8.62,23 / 23,557611,2019-11-06 11:55:11:492,1.5231,-0.2176,9.7005,-0.0004,0.0057,9.8066,0.0014,-0.0098,-0.0035,-19.87,-37.37,-5.12,108.12,-80.01,14.96
52.862984,-1.682804,117.99,9.97,4,8.62,23 / 23,557712,2019-11-06 11:55:11:593,1.2638,-0.6078,9.7677,-0.0008,0.0073,9.8066,0.014,0.0347,-0.0278,-20,-36.94,-4.87,108.2,-80,15.03
52.862984,-1.682804,117.99,9.97,4,8.62,23 / 23,557812,2019-11-06 11:55:11:693,1.4497,-0.4169,9.71,0.0004,0.0027,9.8066,-0.0008,0.017,-0.0043,-20.25,-36.81,-4.87,108.2,-80,15.02
52.862984,-1.682804,117.99,9.97,4,8.62,23 / 23,557912,2019-11-06 11:55:11:793,1.6602,-0.7528,9.7734,-0.0015,0.0031,9.8066,-0.0007,0.0318,-0.0134,-20.37,-37.12,-5.37,108.21,-80,15.04
52.862984,-1.682804,117.99,9.97,4,8.62,23 / 23,558012,2019-11-06 11:55:11:893,1.4092,-0.5297,9.7671,-0.0024,-0.0014,9.8065,0.0084,0.0174,-0.0145,-20.31,-37,-4.81,108.17,-80.01,15.01
52.862984,-1.682804,117.99,9.97,4,8.62,23 / 23,558111,2019-11-06 11:55:11:992,1.6451,-0.6612,9.7279,-0.0019,0.002,9.8066,-0.0013,-0.0035,0.0007,-20.25,-36.62,-5.37,108.13,-79.99,14.93
52.862984,-1.682804,117.99,9.97,4,8.62,23 / 23,558212,2019-11-06 11:55:12:093,1.5747,-0.6306,9.6805,-0.0012,-0.0013,9.8066,0.006,0.0159,-0.0035,-20.31,-36.75,-5.5,107.95,-80.03,14.8
52.862984,-1.682804,117.99,9.97,4,8.62,23 / 23,558312,2019-11-06 11:55:12:193,1.2992,-0.642,9.8062,-0.001,0.0008,9.8066,0.0036,-0.0207,0.0069,-20.5,-36.94,-4.44,110.55,-80.03,14.81
52.862984,-1.682804,117.99,9.97,4,8.62,23 / 23,558412,2019-11-06 11:55:12:293,1.5632,-0.6694,9.7726,-0.0001,-0.0012,9.8066,0.0055,-0.0021,-0.0201,-21,-36.69,-5.75,105.3,-80.01,14.76
52.862984,-1.682804,117.99,9.97,4,8.62,23 / 23,558513,2019-11-06 11:55:12:394,1.5737,-0.3511,9.7815,0.0015,-0.0027,9.8066,0.0001,0.0291,-0.0099,-20.87,-37,-4.87,107.87,-80.02,14.86
52.862984,-1.682804,117.99,9.97,4,8.62,23 / 23,558612,2019-11-06 11:55:12:493,1.3692,-0.8356,9.8849,-0.0034,-0.0001,9.8066,0.0198,-0.0051,0.03,-20.94,-37.12,-5.06,107.87,-80.01,14.84
52.862984,-1.682804,117.99,9.97,4,8.62,23 / 23,558711,2019-11-06 11:55:12:592,1.4424,-0.2141,9.6833,0.0003,-0.0113,9.8065,0.0113,-0.0442,0.0122,-20.75,-36.94,-4.94,107.67,-80.03,14.66
52.862984,-1.682804,117.99,9.97,4,8.62,23 / 23,558811,2019-11-06 11:55:12:692,1.333,-0.7078,9.6492,0,0.0033,9.8066,0.0161,-0.0385,0.0262,-21.06,-36.62,-5.06,107.87,-80.01,14.84
52.862984,-1.682804,117.99,9.97,4,8.62,23 / 23,558912,2019-11-06 11:55:12:793,1.2765,-0.1541,9.6711,-0.0019,-0.0067,9.8066,0.0019,-0.0332,0.0343,-20.87,-36.44,-5.12,107.09,-80.04,14.5
52.862984,-1.682804,117.99,9.97,4,8.62,23 / 23,559012,2019-11-06 11:55:12:893,1.3806,-0.9592,9.8039,-0.0016,0.0054,9.8066,-0.0022,-0.031,0.027,-21.06,-36.62,-4.94,107.5,-80.05,14.5
52.862984,-1.682804,117.99,9.97,4,8.62,23 / 23,559112,2019-11-06 11:55:12:993,1.4617,-0.5965,9.7999,-0.0003,-0.0033,9.8066,-0.001,-0.0296,0.016,-20.44,-35.87,-4.69,107.13,-80.04,14.4
52.862984,-1.682804,117.99,9.97,4,8.62,23 / 23,559212,2019-11-06 11:55:13:093,1.289,-0.8898,9.7378,-0.0006,0.007,9.8066,0.0152,-0.049,0.0153,-21,-36.19,-5.25,107.13,-80.04,14.54
52.862984,-1.682804,117.99,9.97,4,8.62,23 / 23,559312,2019-11-06 11:55:13:193,0.9758,-0.2912,9.8038,0.0016,-0.0005,9.8066,-0.0077,-0.0033,0.0003,-20.12,-36.25,-4.75,107.16,-80.06,14.47
52.862984,-1.682804,117.99,9.97,4,8.62,23 / 23,559413,2019-11-06 11:55:13:294,0.8774,-0.2254,9.8091,-0.0028,0.0094,9.8066,-0.0002,-0.0597,0.035,-20.19,-36.5,-6,104.64,-80.04,14.54
52.863297,-1.682723,117.77,0.93,3,12.09,21 / 23,559512,2019-11-06 11:55:13:393,1.0579,-0.2248,9.8475,-0.0017,0.005,9.8066,-0.0141,0.0384,-0.0058,-20.37,-36.12,-5.5,107.1,-80.03,14.35
52.863297,-1.682723,117.77,0.93,3,12.09,21 / 23,559612,2019-11-06 11:55:13:493,0.7052,-0.4034,9.6852,0.0011,0.0072,9.8066,-0.0225,-0.0145,0.0206,-19.87,-36.5,-5.06,107.14,-80.04,14.41
52.863297,-1.682723,117.77,0.93,3,12.09,21 / 23,559712,2019-11-06 11:55:13:593,0.9466,-1.1184,9.9197,-0.0033,0.01,9.8065,0.0144,-0.0705,0.0388,-20.62,-36.69,-5.12,107.37,-80.03,14.32
52.863297,-1.682723,117.77,0.93,3,12.09,21 / 23,559812,2019-11-06 11:55:13:693,0.7316,-0.5268,9.8457,0.0018,0.0022,9.8066,-0.0071,0.0295,-0.0162,-20.12,-36,-5.37,106.84,-80.06,14.11
52.863297,-1.682723,117.77,0.93,3,12.09,21 / 23,559912,2019-11-06 11:55:13:793,0.9599,-0.7357,9.9086,-0.0014,0.0091,9.8066,-0.0107,0.0384,-0.03,-20.44,-36.44,-5.56,104.4,-80.05,14.3
52.863297,-1.682723,117.77,0.93,3,12.09,21 / 23,560012,2019-11-06 11:55:13:893,0.9026,-0.1574,9.8189,0.0007,-0.0012,9.8065,-0.004,0.0461,-0.0155,-20.62,-36.81,-4.94,107.13,-80.07,14.12
52.863297,-1.682723,117.77,0.93,3,12.09,21 / 23,560112,2019-11-06 11:55:13:993,0.844,-0.5354,9.7954,0.0037,0.0018,9.8065,-0.013,0.0367,-0.0183,-20.25,-35.56,-5.44,106.82,-80.09,14.13
52.863297,-1.682723,117.77,0.93,3,12.09,21 / 23,560212,2019-11-06 11:55:14:093,0.7637,-0.2766,9.8468,0.0016,-0.0072,9.8066,-0.0072,0.0428,-0.0232,-20,-36.69,-5.69,104.48,-80.1,13.98
52.863297,-1.682723,117.77,0.93,3,12.09,21 / 23,560312,2019-11-06 11:55:14:193,0.8281,-0.6851,9.8304,0.0022,0.0001,9.8066,-0.0008,-0.0002,-0.0044,-20.12,-36,-5.31,106.77,-80.11,14.11
52.863297,-1.682723,117.77,0.93,3,12.09,21 / 23,560412,2019-11-06 11:55:14:293,0.725,-0.8541,9.8163,0.0017,-0.0054,9.8066,-0.0215,0.0496,-0.0161,-20.25,-36.25,-5,106.81,-80.12,14.18
52.863297,-1.682723,117.77,0.93,3,12.09,23 / 24,560514,2019-11-06 11:55:14:395,1.0144,-0.2085,9.8936,0.0006,-0.0059,9.8065,0.0003,0.0547,-0.0294,-20.37,-36.5,-5.62,104.06,-80.13,14.07
52.863297,-1.682723,117.77,0.93,3,12.09,23 / 24,560612,2019-11-06 11:55:14:493,0.7232,-0.7337,9.8652,0.0012,-0.0043,9.8066,-0.0006,0.011,-0.0126,-20.56,-35.62,-5.56,104.11,-80.15,14.15
52.863297,-1.682723,117.77,0.93,3,12.09,23 / 24,560712,2019-11-06 11:55:14:593,0.747,-0.2514,9.7817,0.0021,-0.0078,9.8066,0.0023,-0.0253,0.0091,-19.5,-36.31,-6.06,104.09,-80.16,14.15
52.863297,-1.682723,117.77,0.93,3,12.09,23 / 24,560812,2019-11-06 11:55:14:693,1.0358,-0.5398,9.9089,0.0027,0.0017,9.8066,-0.0165,-0.0129,0.0017,-20.44,-36.19,-5.87,104.16,-80.18,14.26
52.863297,-1.682723,117.77,0.93,3,12.09,23 / 24,560912,2019-11-06 11:55:14:793,0.8763,-0.4034,9.8461,0.0017,-0.0028,9.8066,0.0029,-0.0132,0.0024,-19.62,-35.87,-5.19,106.75,-80.2,14.25
52.863297,-1.682723,117.77,0.93,3,12.09,23 / 24,561012,2019-11-06 11:55:14:893,1.4072,-0.696,9.7575,0.0026,0.002,9.8066,-0.0056,0.002,0.0084,-19.75,-35.94,-5.37,106.78,-80.22,14.31
52.863297,-1.682723,117.77,0.93,3,12.09,23 / 24,561112,2019-11-06 11:55:14:993,1.7933,-0.648,9.7531,0.0027,-0.0025,9.8066,0.0218,0.0212,-0.0033,-20.56,-35.56,-5.75,104.16,-80.26,14.4
52.863297,-1.682723,117.77,0.93,3,12.09,23 / 24,561212,2019-11-06 11:55:15:093,1.2577,-0.6359,9.7532,0.0014,0.0051,9.8066,-0.001,-0.0004,0.015,-20,-36.12,-6.12,104.35,-80.3,14.68
52.863297,-1.682723,117.77,0.93,3,12.09,23 / 24,561312,2019-11-06 11:55:15:193,1.1292,-0.7544,9.8889,0.0023,0.0009,9.8066,-0.0071,0.0111,-0.0201,-20.44,-36.5,-5.25,106.93,-80.32,14.67
52.863297,-1.682723,117.77,0.93,3,12.09,23 / 24,561412,2019-11-06 11:55:15:293,1.1478,-0.8158,9.6874,0.0027,0.0057,9.8066,-0.0034,-0.0149,0.0122,-20.31,-36.12,-5.44,107.09,-80.37,14.93
52.863297,-1.682723,117.77,0.93,3,12.09,23 / 23,561518,2019-11-06 11:55:15:399,1.2582,-0.6131,9.7229,0.0026,0.0002,9.8066,-0.0056,0.0122,-0.0148,-20.75,-36.87,-4.87,107.3,-80.43,14.93
52.863297,-1.682723,117.77,0.93,3,12.09,23 / 23,561612,2019-11-06 11:55:15:493,1.3083,-0.3746,9.8209,0.0022,0.0018,9.8066,0.0029,-0.0234,-0.009,-20,-36.19,-5.44,107.05,-80.47,15.06
52.863297,-1.682723,117.77,0.93,3,12.09,23 / 23,561711,2019-11-06 11:55:15:592,1.42,-0.5401,9.8158,0.0036,0.003,9.8066,-0.0121,0.0029,-0.0225,-20.62,-35.94,-5.87,104.43,-80.51,15.11
52.863297,-1.682723,117.77,0.93,3,12.09,23 / 23,561812,2019-11-06 11:55:15:693,1.1529,-0.4086,9.7175,0.0024,0.0023,9.8066,0.0019,-0.0158,-0.0094,-20.19,-36.37,-5.81,104.4,-80.55,15.17
52.863297,-1.682723,117.77,0.93,3,12.09,23 / 23,561912,2019-11-06 11:55:15:793,1.1709,-0.7361,9.7964,0.0024,0.0031,9.8066,-0.0148,0.0111,-0.0282,-20.06,-36.69,-6,104.88,-80.59,15.29
52.863297,-1.682723,117.77,0.93,3,12.09,23 / 23,562012,2019-11-06 11:55:15:893,1.1721,-0.4111,9.7832,0.0033,-0.0018,9.8066,-0.0062,-0.0078,-0.0234,-20.5,-36.19,-5.62,104.42,-80.61,15.29
52.863297,-1.682723,117.77,0.93,3,12.09,23 / 23,562112,2019-11-06 11:55:15:993,1.2941,-0.6404,9.7394,0.0021,0.0028,9.8066,-0.0033,-0.0075,-0.0146,-20.06,-36,-5.62,104.43,-80.67,15.41
52.863297,-1.682723,117.77,0.93,3,12.09,23 / 23,562212,2019-11-06 11:55:16:093,1.3269,-0.499,9.754,0.0031,-0.0022,9.8066,-0.0079,0.0039,-0.017,-20.12,-36.69,-5.62,104.72,-80.75,15.41
52.863297,-1.682723,117.77,0.93,3,12.09,23 / 23,562312,2019-11-06 11:55:16:193,1.2084,-0.544,9.716,0.0017,-0.0002,9.8066,-0.0098,0.0014,0.0002,-19.75,-36.06,-5.94,104.33,-80.78,15.5
52.863297,-1.682723,117.77,0.93,3,12.09,23 / 23,562412,2019-11-06 11:55:16:293,1.1138,-0.5742,9.7639,0.0024,-0.0018,9.8066,-0.0113,0.0236,-0.0036,-20.5,-37,-5.5,107.28,-80.84,15.5
52.863297,-1.682723,117.77,0.93,3,12.09,22 / 22,562512,2019-11-06 11:55:16:393,1.4157,-0.3476,9.8258,0.0038,-0.0036,9.8066,-0.0072,0.0094,0.0045,-20.37,-36.87,-5.62,104.6,-80.88,15.52
52.863297,-1.682723,117.77,0.93,3,12.09,22 / 22,562612,2019-11-06 11:55:16:493,1.0489,-0.7365,9.8415,0.0032,-0.0019,9.8066,-0.0044,0.0397,0.0005,-20.56,-36.69,-5.19,107.17,-80.94,15.64
52.863297,-1.682723,117.77,0.93,3,12.09,22 / 22,562712,2019-11-06 11:55:16:593,1.1432,-0.5072,9.8029,0.0073,-0.004,9.8066,-0.0067,0.0197,0.0038,-20.5,-36,-5.44,106.71,-81.02,15.63
52.863297,-1.682723,117.77,0.93,3,12.09,22 / 22,562812,2019-11-06 11:55:16:693,1.3635,-0.6647,9.8423,0.0034,0.0009,9.8066,0.0075,0.0248,0.0206,-20.12,-36.5,-5.25,106.73,-81.08,15.76
52.863297,-1.682723,117.77,0.93,3,12.09,22 / 22,562912,2019-11-06 11:55:16:793,1.1521,-0.3602,9.6818,0.0059,-0.0029,9.8066,-0.0082,0.0307,-0.022,-20.37,-36.5,-5.94,103.94,-81.15,15.7
52.863297,-1.682723,117.77,0.93,3,12.09,22 / 22,563012,2019-11-06 11:55:16:893,1.1718,-0.5514,9.7007,0.0028,-0.0007,9.8066,0.0124,0.004,0.002,-20.25,-35.69,-5.44,106.62,-81.21,15.86
52.863297,-1.682723,117.77,0.93,3,12.09,22 / 22,563112,2019-11-06 11:55:16:993,1.1853,-0.476,9.8288,0.0076,0.002,9.8066,-0.0088,0.0001,-0.0036,-20.31,-36.25,-5.5,106.66,-81.27,16.01
52.863297,-1.682723,117.77,0.93,3,12.09,22 / 22,563212,2019-11-06 11:55:17:093,1.0997,-0.4318,9.8299,0.0044,0.0016,9.8066,0.0024,-0.0151,-0.0059,-20.31,-36.44,-5.5,106.58,-81.32,16.01
52.863297,-1.682723,117.77,0.93,3,12.09,22 / 22,563312,2019-11-06 11:55:17:193,1.2539,-0.5365,9.8981,0.0075,0.0031,9.8066,-0.0107,0.0057,-0.0202,-20.06,-36.81,-5.56,104.38,-81.41,16.23
52.863297,-1.682723,117.77,0.93,3,12.09,22 / 22,563412,2019-11-06 11:55:17:293,0.9046,-0.383,9.7703,0.0066,0.0015,9.8066,-0.006,0.0058,-0.0098,-20.12,-36.75,-5.25,107.02,-81.5,16.38
52.863297,-1.682723,117.77,0.93,3,12.09,22 / 22,563513,2019-11-06 11:55:17:394,1.125,-0.5182,9.7854,0.0045,0.0024,9.8065,-0.0139,0.0242,-0.002,-20.5,-36.37,-5.25,106.67,-81.56,16.52
52.863297,-1.682723,117.77,0.93,3,12.09,22 / 22,563612,2019-11-06 11:55:17:493,1.2134,-0.4546,9.8357,0.0052,-0.0016,9.8066,-0.0079,0.032,-0.0013,-20.31,-36.5,-5.69,103.9,-81.63,16.5
52.863297,-1.682723,117.77,0.93,3,12.09,22 / 22,563712,2019-11-06 11:55:17:593,0.899,-0.5449,9.7633,0.0036,-0.0008,9.8066,0.0077,0.0272,0.0108,-19.94,-36.69,-5.5,106.89,-81.68,16.57
52.863297,-1.682723,117.77,0.93,3,12.09,22 / 22,563812,2019-11-06 11:55:17:693,0.9424,-0.5126,9.7571,0.0072,-0.0011,9.8066,0.0057,0.025,-0.0087,-19.81,-35.87,-5.62,103.94,-81.74,16.73
52.863297,-1.682723,117.77,0.93,3,12.09,22 / 22,563912,2019-11-06 11:55:17:793,1.1397,-0.4934,9.7433,0.0042,-0.0004,9.8066,0.011,0.0052,-0.011,-20,-36.06,-5.56,103.97,-81.84,16.93
52.863297,-1.682723,117.77,0.93,3,12.09,22 / 22,564012,2019-11-06 11:55:17:893,0.997,-0.5523,9.815,0.0053,-0.0005,9.8066,-0.0006,0.0104,-0.001,-20.12,-35.69,-5.75,103.94,-81.93,17.05
52.863297,-1.682723,117.77,0.93,3,12.09,22 / 22,564112,2019-11-06 11:55:17:993,0.9273,-0.4379,9.8121,0.0025,-0.0032,9.8066,0.0035,-0.0192,-0.0057,-20,-36.62,-4.81,106.86,-81.98,17.07
52.863297,-1.682723,117.77,0.93,3,12.09,22 / 22,564212,2019-11-06 11:55:18:093,0.7766,-0.526,9.7682,0.0052,-0.0013,9.8066,0.0005,-0.0235,-0.0105,-20.06,-36.31,-5.37,106.5,-82.07,17.21
52.863297,-1.682723,117.77,0.93,3,12.09,22 / 22,564312,2019-11-06 11:55:18:193,1.1234,-0.4173,9.7195,0.0057,-0.0027,9.8066,0.0036,-0.0252,-0.0195,-19.81,-36.12,-5.62,103.84,-82.14,17.3
52.863297,-1.682723,117.77,0.93,3,12.09,22 / 22,564412,2019-11-06 11:55:18:293,1.0963,-0.5192,9.9186,0.0034,-0.0011,9.8066,-0.0059,-0.0056,-0.0139,-19.75,-36.12,-5.87,103.95,-82.2,17.53
52.863297,-1.682723,117.77,0.93,3,12.09,22 / 22,564513,2019-11-06 11:55:18:394,0.7174,-0.4935,9.8106,0.0053,-0.0003,9.8066,-0.0089,0.0057,-0.0109,-19.62,-36.37,-5.37,106.58,-82.27,17.65
52.863297,-1.682723,117.77,0.93,3,12.09,22 / 22,564611,2019-11-06 11:55:18:492,1.0492,-0.4604,9.8286,0.0043,0.0008,9.8066,-0.004,0.0128,0.0047,-20.56,-36,-5.81,104.2,-82.35,17.87
52.863297,-1.682723,117.77,0.93,3,12.09,22 / 22,564711,2019-11-06 11:55:18:592,0.9895,-0.5297,9.8294,0.0068,-0.0008,9.8066,-0.0177,0.0243,-0.0017,-20,-36.12,-5.31,106.61,-82.4,17.89
52.863297,-1.682723,117.77,0.93,3,12.09,22 / 22,564812,2019-11-06 11:55:18:693,1.1117,-0.5972,9.8969,0.0016,0.0014,9.8066,0.0088,0.0223,0.0126,-20.44,-36.25,-5.75,104.03,-82.44,18.03
52.863297,-1.682723,117.77,0.93,3,12.09,22 / 22,564912,2019-11-06 11:55:18:793,0.9149,-0.4143,9.8404,0.0048,0.0019,9.8066,-0.0073,0.0345,0.0079,-20.56,-36.06,-5.56,104.17,-82.49,18.08
52.863297,-1.682723,117.77,0.93,3,12.09,22 / 22,565012,2019-11-06 11:55:18:893,0.9139,-0.3516,9.7369,0.0036,0.0008,9.8065,0.0079,0.0115,0.0061,-20,-36.44,-5.37,106.72,-82.52,18.21
52.863297,-1.682723,117.77,0.93,3,12.09,22 / 22,565112,2019-11-06 11:55:18:993,1.2298,-0.3049,9.9193,0.0044,0.0013,9.8066,-0.0106,0.0067,-0.0001,-20.06,-36.44,-5.75,104.08,-82.59,18.33
52.863297,-1.682723,117.77,0.93,3,12.09,22 / 22,565212,2019-11-06 11:55:19:093,0.7826,-0.5298,9.7741,0.0028,0.0035,9.8066,-0.0003,-0.0248,-0.0017,-20.19,-36.56,-5.25,107.22,-82.63,18.59
52.863297,-1.682723,117.77,0.93,3,12.09,22 / 22,565311,2019-11-06 11:55:19:192,0.6988,-0.6153,9.7516,0.0034,0.0031,9.8066,-0.0061,0.007,-0.0129,-20.12,-36.56,-4.87,107.23,-82.68,18.69
52.863297,-1.682723,117.77,0.93,3,12.09,22 / 22,565411,2019-11-06 11:55:19:292,0.9455,-0.3782,9.8906,0.0036,0.0001,9.8066,-0.0075,-0.0128,-0.0189,-20.12,-36.19,-5.75,104.29,-82.74,18.81
52.863297,-1.682723,117.77,0.93,3,12.09,22 / 22,565512,2019-11-06 11:55:19:393,0.8547,-0.5538,9.8183,0.0023,-0.0014,9.8066,-0.0002,-0.0059,-0.0001,-20.37,-36.5,-5.5,106.84,-82.8,18.81
52.863297,-1.682723,117.77,0.93,3,12.09,22 / 22,565611,2019-11-06 11:55:19:492,0.663,-0.5711,9.6932,0.0037,-0.0023,9.8065,-0.0051,0.0045,-0.0038,-20.19,-36.25,-5.06,106.64,-82.86,18.7
52.863297,-1.682723,117.77,0.93,3,12.09,22 / 22,565712,2019-11-06 11:55:19:593,0.7163,-0.4119,9.7788,0.0022,-0.0011,9.8066,0.0057,0.0196,0.0014,-20,-36.19,-5.62,103.87,-82.93,18.7
52.863297,-1.682723,117.77,0.93,3,12.09,22 / 22,565812,2019-11-06 11:55:19:693,0.9544,-0.3723,9.7872,0.0055,-0.0015,9.8066,0.0013,0.0288,0.0013,-20.06,-35.94,-5.75,103.67,-83.01,18.62
52.863297,-1.682723,117.77,0.93,3,12.09,22 / 22,565912,2019-11-06 11:55:19:793,0.8248,-0.4546,9.8189,0.0041,-0.003,9.8066,0.0223,0.0011,0.0038,-20.12,-36.44,-5.44,106.22,-83.06,18.6
52.863297,-1.682723,117.77,0.93,3,12.09,22 / 22,566012,2019-11-06 11:55:19:893,0.7097,-0.3796,9.7774,0.0048,-0.0043,9.8066,-0.0014,0.0083,-0.005,-20.25,-36.62,-5.31,106.22,-83.16,18.43
52.863297,-1.682723,117.77,0.93,3,12.09,22 / 22,566112,2019-11-06 11:55:19:993,0.8889,-0.333,9.8147,0.0048,-0.0034,9.8066,0.0019,-0.0301,-0.0081,-19.81,-35.87,-5.69,103.13,-83.21,18.39
52.863297,-1.682723,117.77,0.93,3,12.09,22 / 22,566211,2019-11-06 11:55:20:092,0.9067,-0.5515,9.9077,0.0055,-0.0007,9.8066,-0.0085,-0.0191,0.006,-20,-36.25,-5.44,105.52,-83.27,18.21
52.863297,-1.682723,117.77,0.93,3,12.09,22 / 22,566312,2019-11-06 11:55:20:193,0.726,-0.4321,9.8348,0.0056,-0.0019,9.8066,-0.0085,-0.0095,-0.0119,-19.75,-36.19,-5.5,105.36,-83.36,18.19
52.863297,-1.682723,117.77,0.93,3,12.09,22 / 22,566412,2019-11-06 11:55:20:293,0.7012,-0.4941,9.8074,0.0053,0.0005,9.8066,-0.0153,0.0078,0.0127,-20.25,-35.56,-5.5,105.21,-83.44,18.17
52.863297,-1.682723,117.77,0.93,3,12.09,22 / 23,566512,2019-11-06 11:55:20:393,0.9853,-0.3812,9.8887,0.0046,-0.0037,9.8065,0.0031,0.0157,0.0084,-20.19,-36.06,-5.37,104.95,-83.49,17.98
52.863297,-1.682723,117.77,0.93,3,12.09,22 / 23,566612,2019-11-06 11:55:20:493,0.6825,-0.4478,9.7995,0.0051,-0.0025,9.8066,-0.0064,0.0178,0.0106,-20.25,-36.19,-5.56,102,-83.58,17.84
52.863297,-1.682723,117.77,0.93,3,12.09,22 / 23,566712,2019-11-06 11:55:20:593,0.6589,-0.3509,9.7954,0.0043,-0.0044,9.8066,0.0057,-0.0017,0.0041,-20.19,-36.06,-5.25,104.38,-83.63,17.63
52.863297,-1.682723,117.77,0.93,3,12.09,22 / 23,566811,2019-11-06 11:55:20:692,0.9691,-0.3468,9.9101,0.005,-0.0005,9.8066,0.0056,-0.002,0.0072,-20.31,-36.5,-5.25,104.24,-83.7,17.6
52.863297,-1.682723,117.77,0.93,3,12.09,22 / 23,566911,2019-11-06 11:55:20:792,0.9005,-0.4343,9.8051,0.0045,-0.0011,9.8066,-0.0092,-0.0153,-0.0084,-20.25,-36.31,-5.37,104.05,-83.78,17.53
52.863297,-1.682723,117.77,0.93,3,12.09,22 / 23,567012,2019-11-06 11:55:20:893,0.7637,-0.3958,9.9049,0.0009,-0.0032,9.8066,0.0075,-0.0195,-0.0085,-20.81,-36.25,-5,103.82,-83.86,17.26
52.863297,-1.682723,117.77,0.93,3,12.09,22 / 23,567112,2019-11-06 11:55:20:993,0.6612,-0.281,9.8504,0.0055,-0.0025,9.8066,-0.0206,-0.0182,-0.0116,-20.56,-36.31,-5.37,103.66,-83.91,17.18
52.863297,-1.682723,117.77,0.93,3,12.09,22 / 23,567212,2019-11-06 11:55:21:093,0.8824,-0.4314,9.8497,0.0033,-0.0012,9.8066,0.0019,-0.0107,0.0064,-20.06,-36.44,-5.25,103.38,-83.97,17.15
52.863297,-1.682723,117.77,0.93,3,12.09,22 / 23,567311,2019-11-06 11:55:21:192,0.7761,-0.3475,9.8931,0.0047,-0.003,9.8066,-0.008,0.0085,0.006,-19.75,-36.25,-6.12,100.34,-84.05,16.91
52.863297,-1.682723,117.77,0.93,3,12.09,22 / 23,567412,2019-11-06 11:55:21:293,0.4704,-0.3166,9.7911,0.0038,-0.0027,9.8066,0.0124,0.0146,-0.0009,-20.25,-36.06,-5.25,102.84,-84.1,16.82
52.863297,-1.682723,117.77,0.93,3,12.09,22 / 23,567511,2019-11-06 11:55:21:392,0.7235,-0.3398,9.7935,0.0036,-0.0004,9.8066,0.0063,0.0213,0.0162,-20.19,-36.06,-5.37,102.64,-84.15,16.7
52.863297,-1.682723,117.77,0.93,3,12.09,22 / 23,567612,2019-11-06 11:55:21:493,0.7719,-0.3057,9.8907,0.004,-0.0054,9.8066,0.0111,0.0158,-0.0107,-20.12,-36.81,-5.56,99.8,-84.23,16.39
52.863297,-1.682723,117.77,0.93,3,12.09,22 / 23,567712,2019-11-06 11:55:21:593,0.4388,-0.3734,9.8191,0.0056,0.0005,9.8066,-0.0021,-0.012,-0.0008,-20.12,-36.5,-5.62,99.51,-84.29,16.47
52.863297,-1.682723,117.77,0.93,3,12.09,22 / 23,567812,2019-11-06 11:55:21:693,0.6641,-0.2827,9.8205,0.0025,-0.0018,9.8066,0.0042,-0.0305,-0.0067,-20,-36.75,-5.62,99.54,-84.34,16.31
52.863297,-1.682723,117.77,0.93,3,12.09,22 / 23,567912,2019-11-06 11:55:21:793,0.7071,-0.3014,9.8487,0.0049,-0.002,9.8066,-0.0094,-0.0071,0.0025,-20.31,-36,-5.12,101.65,-84.41,16.11
52.863297,-1.682723,117.77,0.93,3,12.09,22 / 23,568012,2019-11-06 11:55:21:893,0.4905,-0.3927,9.8342,0.003,-0.0036,9.8066,0.002,-0.0065,-0.016,-20,-36.75,-5.25,101.58,-84.46,15.86
52.863297,-1.682723,117.77,0.93,3,12.09,22 / 23,568112,2019-11-06 11:55:21:993,0.5772,-0.2431,9.8288,0.0037,-0.0004,9.8066,-0.0008,0.0064,0.008,-20.25,-36.56,-5.81,98.84,-84.52,15.9
52.863297,-1.682723,117.77,0.93,3,12.09,22 / 23,568212,2019-11-06 11:55:22:093,0.7236,-0.3762,9.8481,0.0032,-0.0007,9.8066,0.0123,0.008,0.0062,-19.94,-36.5,-5.25,100.9,-84.59,15.64
52.863297,-1.682723,117.77,0.93,3,12.09,22 / 23,568312,2019-11-06 11:55:22:193,0.525,-0.3847,9.8038,0.0037,-0.0028,9.8066,0.0111,0.0088,0.0118,-20.19,-36.44,-5.37,100.71,-84.65,15.54
52.863297,-1.682723,117.77,0.93,3,12.09,22 / 23,568412,2019-11-06 11:55:22:293,0.5302,-0.3099,9.8548,0.0063,0.0009,9.8066,0.0048,-0.0065,0.001,-19.94,-35.94,-5.62,97.7,-84.7,15.31
52.863297,-1.682723,117.77,0.93,3,12.09,20 / 21,568512,2019-11-06 11:55:22:393,0.6265,-0.3213,9.8013,0.0044,0.0008,9.8066,0.0084,0.0005,-0.0109,-20.12,-36.31,-5.5,100.34,-84.78,15.39
52.863297,-1.682723,117.77,0.93,3,12.09,20 / 21,568612,2019-11-06 11:55:22:493,0.7899,-0.3956,9.954,0.0046,0.0002,9.8066,-0.0117,-0.0163,0.0042,-19.87,-36.19,-5.75,97.11,-84.87,15.01
52.863297,-1.682723,117.77,0.93,3,12.09,20 / 21,568712,2019-11-06 11:55:22:593,0.5298,-0.2607,9.8787,0.0028,0.001,9.8066,-0.0193,-0.0014,-0.0242,-19.94,-35.87,-5.37,99.8,-84.9,15.04
52.863297,-1.682723,117.77,0.93,3,12.09,20 / 21,568812,2019-11-06 11:55:22:693,0.5586,-0.3554,9.8395,0.0046,-0.0003,9.8066,0.0005,0.0176,0.0221,-19.75,-36.25,-5.87,96.82,-84.98,14.9
52.863297,-1.682723,117.77,0.93,3,12.09,20 / 21,568912,2019-11-06 11:55:22:793,0.617,-0.2238,9.8551,0.0037,-0.0025,9.8066,0.0012,0.0122,0.003,-20.31,-35.94,-6,96.59,-85.04,14.76
52.863297,-1.682723,117.77,0.93,3,12.09,20 / 21,569012,2019-11-06 11:55:22:893,0.5889,-0.3291,9.9377,0.0032,-0.0014,9.8066,0.0036,0.0245,0.0072,-20.12,-36.31,-5.12,99.17,-85.08,14.71
52.863297,-1.682723,117.77,0.93,3,12.09,20 / 21,569112,2019-11-06 11:55:22:993,0.3271,-0.3012,9.7413,0.0045,-0.003,9.8066,0.0211,-0.0019,0.0022,-20.06,-36,-5.56,96.28,-85.15,14.64
52.863297,-1.682723,117.77,0.93,3,12.09,20 / 21,569212,2019-11-06 11:55:23:093,0.6363,-0.2632,9.8501,0.0046,-0.0012,9.8066,-0.0009,-0.0076,-0.0031,-20.56,-35.81,-6.12,96.53,-85.22,14.63
52.863297,-1.682723,117.77,0.93,3,12.09,20 / 21,569312,2019-11-06 11:55:23:193,0.5325,-0.1836,9.8756,0.0035,-0.0029,9.8066,0.0038,-0.0287,-0.0005,-20.06,-35.94,-5.87,95.97,-85.27,14.52
52.863297,-1.682723,117.77,0.93,3,12.09,20 / 21,569412,2019-11-06 11:55:23:293,0.4726,-0.3456,9.8248,0.0051,-0.0009,9.8066,-0.009,-0.0184,-0.0046,-20.12,-36.5,-5.81,95.79,-85.33,14.45
52.863297,-1.682723,117.77,0.93,3,12.09,20 / 21,569512,2019-11-06 11:55:23:393,0.5585,-0.263,9.8198,0.0033,-0.0017,9.8066,-0.009,-0.0001,0.0051,-20.25,-36.06,-5.31,98.36,-85.37,14.37
52.863297,-1.682723,117.77,0.93,3,12.09,20 / 21,569612,2019-11-06 11:55:23:493,0.3176,-0.3056,9.8442,0.0036,0.0005,9.8066,-0.0095,0.0068,0.0153,-20.06,-36.31,-5.5,97.95,-85.41,14.03
52.863297,-1.682723,117.77,0.93,3,12.09,20 / 21,569712,2019-11-06 11:55:23:593,0.3483,-0.3041,9.7866,0.0025,-0.0035,9.8066,0.003,0.0105,-0.0028,-19.69,-36.31,-5.37,97.57,-85.47,13.74
52.863297,-1.682723,117.77,0.93,3,12.09,20 / 21,569811,2019-11-06 11:55:23:692,0.5083,-0.2707,9.8119,0.0041,-0.0012,9.8066,-0.0024,0.0097,0.014,-20.31,-36.37,-4.94,97.34,-85.53,13.62
52.863297,-1.682723,117.77,0.93,3,12.09,20 / 21,569912,2019-11-06 11:55:23:793,0.4579,-0.2569,9.9141,0.004,-0.0027,9.8066,0.0179,-0.0019,-0.0021,-20.12,-36,-5.81,94.06,-85.58,13.14
52.863297,-1.682723,117.77,0.93,3,12.09,20 / 21,570011,2019-11-06 11:55:23:892,0.2823,-0.3442,9.7779,0.0049,-0.0008,9.8066,-0.0045,-0.0173,0.0007,-20.44,-36.06,-5.37,96.38,-85.68,12.91
52.863297,-1.682723,117.77,0.93,3,12.09,20 / 21,570111,2019-11-06 11:55:23:992,0.5102,-0.173,9.8449,0.0053,-0.0009,9.8066,-0.0078,-0.0164,-0.007,-20.25,-36.62,-5.44,96.19,-85.74,12.6
52.863297,-1.682723,117.77,0.93,3,12.09,20 / 21,570212,2019-11-06 11:55:24:093,0.4118,-0.1862,9.9089,0.0015,-0.0004,9.8066,-0.0003,-0.011,0.0019,-20.37,-36.12,-5.12,95.37,-85.81,12.1
52.863297,-1.682723,117.77,0.93,3,12.09,20 / 21,570312,2019-11-06 11:55:24:193,0.2974,-0.1697,9.8059,0.0042,-0.0015,9.8066,-0.0119,0.0125,-0.0062,-19.75,-36.25,-5.12,94.93,-85.87,11.76
52.863297,-1.682723,117.77,0.93,3,12.09,20 / 21,570412,2019-11-06 11:55:24:293,0.5277,-0.2729,9.8701,0.0013,0.0005,9.8066,0.0075,0.008,0.0224,-19.87,-35.94,-5.37,94.42,-85.94,11.36
52.863297,-1.682723,117.77,0.93,3,12.09,21 / 22,570512,2019-11-06 11:55:24:393,0.4126,-0.2215,9.8676,0.0035,-0.0037,9.8066,0.0095,0.012,-0.0028,-20.37,-36.75,-5.44,93.97,-85.99,10.8
52.863297,-1.682723,117.77,0.93,3,12.09,21 / 22,570612,2019-11-06 11:55:24:493,0.3005,-0.3054,9.8185,0.0037,-0.0022,9.8066,0.0081,0.005,0.0109,-19.44,-36.56,-5.44,93.47,-86.04,10.75
52.863297,-1.682723,117.77,0.93,3,12.09,21 / 22,570712,2019-11-06 11:55:24:593,0.4982,-0.136,9.8465,0.0047,-0.0004,9.8066,-0.0032,-0.01,0.002,-20.19,-36.69,-5.19,93.07,-86.11,10.11
52.863297,-1.682723,117.77,0.93,3,12.09,21 / 22,570812,2019-11-06 11:55:24:693,0.4086,-0.1528,9.8849,0.0038,-0.0031,9.8066,0.0083,-0.0144,-0.0059,-19.87,-35.87,-5.56,89.43,-86.19,9.53
52.863297,-1.682723,117.77,0.93,3,12.09,21 / 22,570912,2019-11-06 11:55:24:793,0.5468,-0.183,9.9373,0.0046,-0.0019,9.8066,-0.0141,-0.0146,-0.0099,-20.37,-36.75,-5.62,89.16,-86.24,9.17
52.863297,-1.682723,117.77,0.93,3,12.09,21 / 22,571012,2019-11-06 11:55:24:893,0.3134,-0.1465,9.7963,0.0042,-0.0016,9.8066,-0.0073,-0.0043,0.002,-20.12,-36.44,-5.5,91.07,-86.3,8.63
52.863297,-1.682723,117.77,0.93,3,12.09,21 / 22,571111,2019-11-06 11:55:24:992,0.3847,-0.2225,9.8854,0.0027,-0.0014,9.8066,-0.0183,0.0199,0.0028,-20.56,-36.62,-5.12,91.05,-86.34,8.15
52.863297,-1.682723,117.77,0.93,3,12.09,21 / 22,571212,2019-11-06 11:55:25:093,0.5673,-0.0571,9.9436,0.0032,-0.0022,9.8066,0.0116,0.0215,-0.0017,-20.56,-36.44,-6.25,87.9,-86.38,7.86
52.863297,-1.682723,117.77,0.93,3,12.09,21 / 22,571312,2019-11-06 11:55:25:193,0.2609,-0.1947,9.8839,0.0038,-0.0009,9.8066,-0.0067,0.0314,0.0049,-20.56,-36.31,-5.12,89.85,-86.44,7.28
52.863297,-1.682723,117.77,0.93,3,12.09,21 / 22,571411,2019-11-06 11:55:25:292,0.2008,-0.2341,9.7663,0.0024,-0.004,9.8066,0.014,0.0247,-0.0001,-20.69,-36.37,-5.25,88.91,-86.47,6.4
52.863297,-1.682723,117.77,0.93,3,12.09,20 / 22,571512,2019-11-06 11:55:25:393,0.2797,-0.0691,9.8184,0.0042,-0.0033,9.8066,0.006,-0.008,0.0085,-20.12,-36,-5.94,85.36,-86.52,6.06
52.863297,-1.682723,117.77,0.93,3,12.09,20 / 22,571612,2019-11-06 11:55:25:493,0.2867,-0.0893,9.8239,0.0055,-0.0048,9.8066,0.0027,-0.0234,-0.0125,-20.12,-36.37,-5.44,87.26,-86.58,5.31
52.863297,-1.682723,117.77,0.93,3,12.09,20 / 22,571712,2019-11-06 11:55:25:593,0.2126,-0.0976,9.818,0.004,-0.001,9.8066,-0.0027,-0.0073,0.0038,-19.69,-36.12,-5.44,86.74,-86.63,4.87
52.863297,-1.682723,117.77,0.93,3,12.09,20 / 22,571812,2019-11-06 11:55:25:693,0.425,0.0419,9.9067,0.0037,-0.0031,9.8066,0.0007,-0.0039,-0.0179,-20.56,-36.25,-5.37,86.53,-86.66,4.33
52.863297,-1.682723,117.77,0.93,3,12.09,20 / 22,571911,2019-11-06 11:55:25:792,0.2765,-0.0879,9.8463,0.0046,-0.0016,9.8066,0.0034,0.0001,0.007,-19.81,-36.31,-5.5,85.4,-86.73,3.72
52.863297,-1.682723,117.77,0.93,3,12.09,20 / 22,572012,2019-11-06 11:55:25:893,0.1226,-0.2544,9.8285,0.0035,-0.0031,9.8066,0.0033,0.0218,-0.0012,-20.25,-36.37,-6,81.52,-86.77,2.69
52.863297,-1.682723,117.77,0.93,3,12.09,20 / 22,572112,2019-11-06 11:55:25:993,0.4144,-0.0047,9.8945,0.0043,-0.003,9.8066,0.0167,-0.0034,0.0113,-20.06,-35.87,-6,81.12,-86.81,2.35
52.863297,-1.682723,117.77,0.93,3,12.09,20 / 22,572212,2019-11-06 11:55:26:093,0.3454,-0.1317,9.8969,0.0052,-0.0008,9.8066,0.0087,-0.0032,0.0005,-20.19,-36.37,-5.12,82.9,-86.85,1.46
52.863297,-1.682723,117.77,0.93,3,12.09,20 / 22,572312,2019-11-06 11:55:26:193,0.0125,-0.1251,9.7871,0.005,-0.0019,9.8066,0.0067,-0.0187,0.0007,-19.94,-35.87,-5.94,79.58,-86.9,0.99
52.863297,-1.682723,117.77,0.93,3,12.09,20 / 22,572412,2019-11-06 11:55:26:293,0.2514,0.0145,9.8412,0.0043,-0.0021,9.8066,-0.0011,-0.0124,-0.0135,-19.81,-36.31,-5.81,78.83,-86.92,0.29
52.863297,-1.682723,117.77,0.93,3,12.09,21 / 21,572512,2019-11-06 11:55:26:393,0.2446,0.0497,9.9035,0.0032,-0.0029,9.8066,-0.0101,0.0049,-0.0103,-20.5,-36.56,-5.81,78.22,-86.98,-0.34
52.863297,-1.682723,117.77,0.93,3,12.09,21 / 21,572612,2019-11-06 11:55:26:493,-0.0386,-0.2811,9.8089,0.0024,-0.0013,9.8066,-0.001,0.0007,0.0055,-20.19,-36.44,-5.25,80.12,-87.01,-1.01
52.863297,-1.682723,117.77,0.93,3,12.09,21 / 21,572712,2019-11-06 11:55:26:593,0.1791,0.0514,9.8469,0.0023,-0.0041,9.8066,0.0116,0.0035,0.0074,-20.44,-36.5,-4.87,79.54,-87.05,-1.51
52.863297,-1.682723,117.77,0.93,3,12.09,21 / 21,572811,2019-11-06 11:55:26:692,0.2133,-0.1497,9.9071,0.0017,0,9.8066,0.0119,0.0039,0.0094,-20.19,-36.81,-5.5,78.99,-87.07,-2.15
52.863297,-1.682723,117.77,0.93,3,12.09,21 / 21,572911,2019-11-06 11:55:26:792,0.0341,-0.1549,9.7832,0.0027,-0.0029,9.8066,0.0251,-0.0032,-0.0026,-20.31,-35.56,-5.37,78.01,-87.12,-2.89
52.863297,-1.682723,117.77,0.93,3,12.09,21 / 21,573011,2019-11-06 11:55:26:892,-0.0193,-0.0957,9.8047,0.0048,-0.0004,9.8066,-0.0043,-0.022,-0.0057,-19.81,-36.44,-6.06,74.39,-87.18,-3.62
52.863297,-1.682723,117.77,0.93,3,12.09,21 / 21,573112,2019-11-06 11:55:26:993,0.1792,-0.0475,9.8529,0.0006,0.0004,9.8066,0.0028,-0.0126,-0.0098,-19.94,-36.31,-5.31,76.48,-87.2,-4.25
52.863297,-1.682723,117.77,0.93,3,12.09,21 / 21,573212,2019-11-06 11:55:27:093,0.2863,-0.0575,9.9121,0.0041,0.0007,9.8066,-0.0195,-0.0182,-0.0046,-20.31,-36.5,-5.81,72.56,-87.25,-5.29
52.863297,-1.682723,117.77,0.93,3,12.09,21 / 21,573312,2019-11-06 11:55:27:193,-0.065,-0.034,9.844,0.0011,-0.0024,9.8066,-0.0015,0.0039,-0.0153,-20.44,-36.37,-5.56,72.07,-87.26,-5.75
52.863297,-1.682723,117.77,0.93,3,12.09,21 / 21,573412,2019-11-06 11:55:27:293,0.1903,-0.0132,9.8477,0.0027,0.0016,9.8066,-0.0017,0.0186,0.0104,-20.12,-36.25,-5.81,71.13,-87.3,-6.61
52.863297,-1.682723,117.77,0.93,3,12.09,20 / 22,573512,2019-11-06 11:55:27:393,-0.0317,-0.1872,9.8438,0.0032,-0.0028,9.8066,0.0086,0.017,-0.0038,-20.12,-36.5,-5.12,73.28,-87.34,-7.16
52.863297,-1.682723,117.77,0.93,3,12.09,20 / 22,573611,2019-11-06 11:55:27:492,0.2284,0.0702,9.7797,0.003,-0.0008,9.8066,-0.0043,0.015,0.018,-19.87,-36.19,-5.75,69.77,-87.37,-7.82
52.863297,-1.682723,117.77,0.93,3,12.09,20 / 22,573712,2019-11-06 11:55:27:593,0.1205,0.003,9.8134,0.0005,-0.0048,9.8066,0.013,-0.0045,0.0096,-20.06,-36.37,-5.44,71.36,-87.37,-8.98
52.863297,-1.682723,117.77,0.93,3,12.09,20 / 22,573812,2019-11-06 11:55:27:693,0.182,-0.0938,9.8946,0.0035,-0.0006,9.8066,-0.0011,-0.019,0.0028,-19.69,-36.12,-5.69,67.56,-87.42,-9.87
52.863297,-1.682723,117.77,0.93,3,12.09,20 / 22,573912,2019-11-06 11:55:27:793,0.1511,0.0482,9.849,0.0027,-0.0025,9.8066,-0.0046,-0.0229,-0.0084,-20.44,-36.37,-5.25,69.57,-87.44,-10.61
52.863297,-1.682723,117.77,0.93,3,12.09,20 / 22,574012,2019-11-06 11:55:27:893,0.1626,0.0407,9.8016,0.0011,-0.0017,9.8066,-0.004,-0.0191,-0.0035,-20.06,-36.06,-5.44,68.83,-87.47,-11.28
52.863297,-1.682723,117.77,0.93,3,12.09,20 / 22,574112,2019-11-06 11:55:27:993,0.3535,-0.0613,9.9896,0.0019,-0.0002,9.8066,-0.014,0.0066,-0.0146,-20.25,-36.56,-5.94,65.24,-87.49,-12.14
52.863297,-1.682723,117.77,0.93,3,12.09,20 / 22,574213,2019-11-06 11:55:28:094,-0.0275,0.0169,9.8734,0.0012,-0.0007,9.8066,0.0004,0.0145,0.0054,-20.5,-35.81,-5.56,64.18,-87.53,-12.99
52.863297,-1.682723,117.77,0.93,3,12.09,20 / 22,574312,2019-11-06 11:55:28:193,0.1063,0.0035,9.8623,0.0056,-0.0017,9.8066,-0.0023,0.024,-0.0014,-20.06,-36.44,-5.25,66.13,-87.56,-13.76
52.863297,-1.682723,117.77,0.93,3,12.09,20 / 22,574412,2019-11-06 11:55:28:293,0.1868,0.0845,9.9597,0.0019,-0.0005,9.8066,0.0091,0.0209,0.0139,-19.69,-36.69,-5.69,62.84,-87.58,-14.3
52.863297,-1.682723,117.77,0.93,3,12.09,21 / 21,574512,2019-11-06 11:55:28:393,-0.0124,-0.02,9.8466,0.0028,-0.0009,9.8066,0.0052,-0.0038,-0.0081,-20.37,-35,-5.69,61.64,-87.6,-15.22
52.863297,-1.682723,117.77,0.93,3,12.09,21 / 21,574612,2019-11-06 11:55:28:493,-0.0503,0.134,9.842,0.0025,-0.0055,9.8066,0.0047,-0.0019,-0.0188,-20.25,-36.56,-5.06,64.63,-87.64,-15.19
52.863297,-1.682723,117.77,0.93,3,12.09,21 / 21,574712,2019-11-06 11:55:28:593,0.1655,0.1112,9.9287,0.002,-0.0014,9.8066,-0.0149,-0.0182,0.0072,-20.06,-36.37,-5.56,60.29,-87.66,-16.54
52.863297,-1.682723,117.77,0.93,3,12.09,21 / 21,574812,2019-11-06 11:55:28:693,0.1101,-0.1191,9.916,0.001,-0.0043,9.8066,-0.0039,-0.0021,-0.015,-19.94,-36.31,-5.44,62.15,-87.67,-17.44
52.863297,-1.682723,117.77,0.93,3,12.09,21 / 21,574912,2019-11-06 11:55:28:793,-0.0195,-0.0559,9.8768,0.0041,-0.0005,9.8066,-0.0093,0.0017,0.0046,-20.37,-36.06,-5.62,58.95,-87.69,-17.79
52.863297,-1.682723,117.77,0.93,3,12.09,21 / 21,575012,2019-11-06 11:55:28:893,0.2427,0.0836,9.9623,0.0013,-0.0024,9.8066,0.0114,0.0187,-0.0012,-20.31,-36.19,-5.75,58.24,-87.7,-18.45
52.863297,-1.682723,117.77,0.93,3,12.09,21 / 21,575112,2019-11-06 11:55:28:993,0.0057,0.0862,9.8281,0.0042,-0.0008,9.8066,0,0.0097,0.0072,-19.94,-36.06,-5.87,57.71,-87.72,-18.93
52.863297,-1.682723,117.77,0.93,3,12.09,21 / 21,575212,2019-11-06 11:55:29:093,0.0724,-0.0337,9.898,0.0024,-0.0019,9.8066,0.0137,0.0042,0.0111,-20.56,-36.37,-4.87,60.49,-87.73,-19.44
52.863297,-1.682723,117.77,0.93,3,12.09,21 / 21,575312,2019-11-06 11:55:29:193,0.0359,0.1745,9.8755,0.0037,-0.0028,9.8066,0.0002,-0.0138,0.0174,-20.12,-35.87,-5.44,58.4,-87.75,-20.93
52.863297,-1.682723,117.77,0.93,3,12.09,21 / 21,575413,2019-11-06 11:55:29:294,-0.024,-0.0149,9.8898,0.0038,-0.0005,9.8066,0.01,-0.0187,-0.0018,-20.12,-35.62,-5.69,54.91,-87.77,-21.56
52.863297,-1.682723,117.77,0.93,3,12.09,21 / 22,575512,2019-11-06 11:55:29:393,-0.1753,-0.1283,9.7724,0.0029,0.0013,9.8066,-0.018,-0.0312,0.0083,-20,-36.37,-5.31,56.96,-87.79,-22.26
52.863297,-1.682723,117.77,0.93,3,12.09,21 / 22,575612,2019-11-06 11:55:29:493,-0.2371,-0.0203,9.8336,0.0016,0.0002,9.8066,0.0027,-0.0248,-0.0034,-20.25,-35.69,-5.75,53.19,-87.79,-23.19
52.863297,-1.682723,117.77,0.93,3,12.09,21 / 22,575712,2019-11-06 11:55:29:593,0.0281,0.0837,9.8329,0.0004,-0.0013,9.8066,-0.0056,0.0006,0.0073,-20.44,-35.94,-5.94,52.28,-87.81,-24.03
52.863297,-1.682723,117.77,0.93,3,12.09,21 / 22,575811,2019-11-06 11:55:29:692,0.1005,0.0491,9.9273,0.0023,-0.0015,9.8066,-0.004,0.0012,-0.0051,-20.37,-36.44,-5.87,51.96,-87.81,-24.34
52.863297,-1.682723,117.77,0.93,3,12.09,21 / 22,575911,2019-11-06 11:55:29:792,-0.2126,0.0194,9.7788,-0.0015,-0.0004,9.8066,0.0132,0.0181,0.0147,-20.19,-36.19,-5.44,54.03,-87.83,-25.02
52.863297,-1.682723,117.77,0.93,3,12.09,21 / 22,576011,2019-11-06 11:55:29:892,0.0274,0.1014,9.8259,0.0018,-0.0016,9.8066,0,0.0135,-0.0007,-20.12,-35.69,-5.56,50.21,-87.84,-25.98
52.863297,-1.682723,117.77,0.93,3,12.09,21 / 22,576112,2019-11-06 11:55:29:993,-0.0852,0.0226,9.7714,-0.0005,-0.0007,9.8066,0.024,0.0097,-0.0033,-19.94,-36.37,-5.19,52.77,-87.84,-26.23
52.863297,-1.682723,117.77,0.93,3,12.09,21 / 22,576212,2019-11-06 11:55:30:093,0.0474,0.0613,9.8941,0.0023,-0.0006,9.8066,-0.0027,0.004,-0.0006,-19.5,-36.37,-5.81,48.15,-87.85,-27.24
52.863297,-1.682723,117.77,0.93,3,12.09,21 / 22,576312,2019-11-06 11:55:30:193,-0.1599,-0.0169,9.8157,0.0024,-0.0008,9.8066,0.0084,-0.0094,0.0026,-20.12,-36.31,-5.12,51.47,-87.86,-27.45
52.863297,-1.682723,117.77,0.93,3,12.09,21 / 22,576412,2019-11-06 11:55:30:293,-0.1459,0.0652,9.6939,0.0034,0.0009,9.8066,-0.0124,-0.0146,0.0002,-19.94,-36.31,-5,50.49,-87.86,-28.38
52.863297,-1.682723,117.77,0.93,3,12.09,21 / 21,576512,2019-11-06 11:55:30:393,0.1035,-0.0236,9.9127,0.002,0.0003,9.8066,-0.0079,-0.0075,-0.0216,-20.06,-36.19,-5.19,49.9,-87.88,-28.92
52.863297,-1.682723,117.77,0.93,3,12.09,21 / 21,576612,2019-11-06 11:55:30:493,0.0268,0.1159,9.9367,0.0022,-0.0007,9.8066,-0.0182,-0.0038,0,-20.06,-36.31,-5.5,48.98,-87.88,-29.79
52.863297,-1.682723,117.77,0.93,3,12.09,21 / 21,576712,2019-11-06 11:55:30:593,-0.1681,-0.0867,9.8611,0.001,-0.0022,9.8066,-0.0083,0.0144,-0.0052,-20.44,-36.44,-6,45.65,-87.87,-30.3
52.863297,-1.682723,117.77,0.93,3,12.09,21 / 21,576812,2019-11-06 11:55:30:693,0.0122,0.0918,9.8003,0.0029,-0.0006,9.8066,-0.0112,0.0242,0.0147,-20.44,-36.06,-6,45.1,-87.88,-30.8
52.863297,-1.682723,117.77,0.93,3,12.09,21 / 21,576912,2019-11-06 11:55:30:793,0.1322,0.1322,9.959,-0.0004,-0.0022,9.8066,-0.0053,0.0207,0.014,-20.19,-36.62,-5.62,44.58,-87.87,-31.4
52.863297,-1.682723,117.77,0.93,3,12.09,21 / 21,577012,2019-11-06 11:55:30:893,-0.0963,0.005,9.8447,-0.0002,-0.001,9.8066,0.0039,0.0099,0.0088,-19.69,-36.19,-5.69,44.22,-87.87,-31.66
52.863297,-1.682723,117.77,0.93,3,12.09,21 / 21,577112,2019-11-06 11:55:30:993,0.113,0.1571,9.9011,0.0013,-0.0005,9.8066,-0.0127,-0.0059,0.0007,-20.44,-36.12,-5.75,43.55,-87.87,-32.3
52.863297,-1.682723,117.77,0.93,3,12.09,21 / 21,577211,2019-11-06 11:55:31:092,0.0137,0.0177,9.8604,-0.0013,-0.0018,9.8066,0.0205,-0.0123,0.0036,-20.31,-36.25,-6,42.7,-87.87,-33.11
52.863297,-1.682723,117.77,0.93,3,12.09,21 / 21,577312,2019-11-06 11:55:31:193,-0.104,0.2269,9.8539,0.0021,-0.0032,9.8066,-0.0173,-0.0234,0.001,-20.19,-35.56,-5.5,44.52,-87.88,-34.05
52.863297,-1.682723,117.77,0.93,3,12.09,21 / 21,577412,2019-11-06 11:55:31:293,0.1218,0.1228,9.8928,0.0005,-0.0028,9.8066,0.0035,-0.0185,-0.0081,-20.56,-35.81,-5.87,41.6,-87.89,-34.79
52.863297,-1.682723,117.77,0.93,3,12.09,21 / 21,577512,2019-11-06 11:55:31:393,0.0809,0.1495,9.9087,0.0014,-0.0001,9.8066,-0.0133,0.0124,0.0006,-20,-36.31,-5.19,43.12,-87.9,-35.38
52.863297,-1.682723,117.77,0.93,3,12.09,21 / 21,577612,2019-11-06 11:55:31:493,-0.296,0.0305,9.8655,-0.0019,-0.0009,9.8066,0.0154,0.0104,0.0005,-20.56,-36.12,-5.62,40.64,-87.91,-35.67
52.863297,-1.682723,117.77,0.93,3,12.09,21 / 21,577712,2019-11-06 11:55:31:593,-0.1314,0.1106,9.7902,0.0036,0.0009,9.8066,-0.0164,0.019,0.0062,-19.94,-35.62,-5.56,39.42,-87.92,-36.18
52.863297,-1.682723,117.77,0.93,3,12.09,21 / 21,577812,2019-11-06 11:55:31:693,0.0433,0.1684,9.9183,0.0014,-0.0021,9.8066,0.0144,0.0237,0.0033,-20.25,-36.06,-5.44,41.65,-87.91,-36.76
52.863297,-1.682723,117.77,0.93,3,12.09,21 / 21,577912,2019-11-06 11:55:31:793,-0.1786,-0.0127,9.7991,0.0039,0.0003,9.8066,0.014,0.0183,0.0101,-20.5,-36,-5.5,40.84,-87.93,-37.51
52.863297,-1.682723,117.77,0.93,3,12.09,21 / 21,578012,2019-11-06 11:55:31:893,-0.1315,0.0815,9.8671,0.0035,0.0005,9.8066,0.0068,0.0044,0.0038,-20,-36.31,-5.25,40.04,-87.94,-38.26
52.863297,-1.682723,117.77,0.93,3,12.09,21 / 21,578112,2019-11-06 11:55:31:993,-0.1351,0.046,9.7582,0.0011,0.002,9.8066,0.0188,0.0019,-0.0041,-20.37,-36.19,-5.81,36.68,-87.95,-38.75
52.863297,-1.682723,117.77,0.93,3,12.09,21 / 21,578212,2019-11-06 11:55:32:093,-0.0141,0.0911,9.8755,0.0044,-0.0007,9.8066,-0.0044,-0.0088,-0.0081,-20.87,-36.69,-6.06,36.99,-87.94,-39.19
52.863297,-1.682723,117.77,0.93,3,12.09,21 / 21,578312,2019-11-06 11:55:32:193,-0.0144,0.0735,9.9295,0.0001,-0.001,9.8066,0.0054,-0.0239,-0.0107,-20.19,-36.44,-5.62,35.22,-87.95,-40.14
52.863297,-1.682723,117.77,0.93,3,12.09,21 / 21,578412,2019-11-06 11:55:32:293,-0.2982,-0.0093,9.756,0.0032,0.001,9.8066,-0.0208,-0.0184,0.0001,-20.56,-36,-4.75,37.58,-87.96,-41.12
52.863297,-1.682723,117.77,0.93,3,12.09,21 / 21,578512,2019-11-06 11:55:32:393,-0.0055,0.127,9.8524,-0.0004,-0.0021,9.8066,-0.0054,-0.0156,-0.0134,-20.5,-36.44,-5.37,36.77,-87.94,-41.36
52.863297,-1.682723,117.77,0.93,3,12.09,21 / 21,578612,2019-11-06 11:55:32:493,0.0142,0.1109,9.9374,0.0019,0.0012,9.8066,-0.0145,0.0102,0.004,-20.81,-36.19,-5.25,36.53,-87.95,-42.13
52.863297,-1.682723,117.77,0.93,3,12.09,21 / 21,578712,2019-11-06 11:55:32:593,-0.0265,0.0368,9.9287,0.0004,-0.0029,9.8066,-0.0092,0.0185,-0.0014,-20.37,-36.19,-5.56,32.65,-87.94,-42.58
52.863297,-1.682723,117.77,0.93,3,12.09,21 / 21,578812,2019-11-06 11:55:32:693,-0.0849,0.1656,9.7718,0.0008,0.0012,9.8066,-0.0057,0.0286,0.0108,-20,-36.19,-5.56,32.27,-87.95,-42.93
52.863297,-1.682723,117.77,0.93,3,12.09,21 / 21,578912,2019-11-06 11:55:32:793,-0.1138,0.1236,9.8123,0.0001,-0.0021,9.8066,0.002,0.0076,0.0022,-20.75,-36.44,-5.87,32.67,-87.94,-43.23
52.863297,-1.682723,117.77,0.93,3,12.09,21 / 21,579012,2019-11-06 11:55:32:893,0.0935,0.1174,9.9292,0.0001,-0.0015,9.8066,0.0099,-0.0004,0.0072,-19.75,-36.31,-5.81,31.6,-87.95,-43.57
52.863297,-1.682723,117.77,0.93,3,12.09,21 / 21,579112,2019-11-06 11:55:32:993,-0.1119,0.1507,9.8656,0.0015,-0.002,9.8066,0.0039,-0.009,-0.0009,-20.25,-36.19,-5.12,33.59,-87.95,-44.38
52.863297,-1.682723,117.77,0.93,3,12.09,21 / 21,579212,2019-11-06 11:55:33:093,-0.1802,0.2779,9.8087,0.0004,-0.0044,9.8066,0.0041,-0.0074,-0.0217,-19.81,-35.94,-5.25,33.11,-87.97,-44.8
52.863297,-1.682723,117.77,0.93,3,12.09,21 / 21,579312,2019-11-06 11:55:33:193,0.0425,0.1317,9.9258,0.0027,-0.0008,9.8066,-0.0089,-0.0138,-0.0066,-20.5,-36.62,-6.12,29.38,-87.95,-45.72
52.863297,-1.682723,117.77,0.93,3,12.09,21 / 21,579412,2019-11-06 11:55:33:293,-0.1197,0.0526,9.9474,0.0009,-0.0017,9.8066,-0.0076,0.0118,-0.0009,-20.12,-36.37,-5.37,31.78,-87.96,-46.08
52.863297,-1.682723,117.77,0.93,3,12.09,20 / 21,579512,2019-11-06 11:55:33:393,-0.1196,0.0684,9.921,0.0036,-0.0001,9.8066,-0.0077,0.0232,-0.0047,-20.44,-36.44,-5.62,28.54,-87.96,-46.46
52.863297,-1.682723,117.77,0.93,3,12.09,20 / 21,579612,2019-11-06 11:55:33:493,-0.012,0.2138,9.9315,0.0019,0.0011,9.8066,0.0028,0.0291,0.0095,-20.12,-36.62,-5.75,28.48,-87.97,-46.55
52.863297,-1.682723,117.77,0.93,3,12.09,20 / 21,579712,2019-11-06 11:55:33:593,-0.1432,0.1218,9.8737,0.0024,0.0009,9.8066,-0.004,0.0113,0.0121,-20.44,-36,-5.12,30.85,-87.96,-46.95
52.863297,-1.682723,117.77,0.93,3,12.09,20 / 21,579812,2019-11-06 11:55:33:693,-0.1116,0.108,9.8228,0.0004,-0.0006,9.8066,0.0112,0.004,0.0036,-20.06,-35.94,-5.44,30.52,-87.95,-47.28
52.863297,-1.682723,117.77,0.93,3,12.09,20 / 21,579912,2019-11-06 11:55:33:793,0.0922,0.1819,9.9859,0.0005,-0.0011,9.8066,-0.0102,-0.0147,0.0135,-19.75,-36.06,-6.06,27.45,-87.95,-47.49
52.863297,-1.682723,117.77,0.93,3,12.09,20 / 21,580012,2019-11-06 11:55:33:893,-0.1852,0.0711,9.8728,0,-0.0013,9.8066,0.0065,-0.0232,-0.0073,-19.81,-35.81,-5.44,30.27,-87.95,-47.51
52.863297,-1.682723,117.77,0.93,3,12.09,20 / 21,580112,2019-11-06 11:55:33:993,-0.1193,0.2089,9.7827,0.0006,0.0006,9.8066,-0.0091,-0.0092,0.0018,-20.19,-36.25,-5,30.09,-87.97,-47.67
52.863297,-1.682723,117.77,0.93,3,12.09,20 / 21,580212,2019-11-06 11:55:34:093,-0.0284,0.2415,9.8973,0.0004,-0.0022,9.8066,-0.0043,-0.0078,-0.0284,-20.5,-35.62,-5.31,30.37,-87.96,-47.41
52.863297,-1.682723,117.77,0.93,3,12.09,20 / 21,580312,2019-11-06 11:55:34:193,0.0184,0.0626,9.9204,0.0006,0.0029,9.8066,-0.0081,0.0094,-0.0025,-20.12,-36.37,-6.12,27.85,-87.98,-47.09
52.863297,-1.682723,117.77,0.93,3,12.09,20 / 21,580412,2019-11-06 11:55:34:293,-0.2859,0.056,9.7434,0.0013,0.0014,9.8066,-0.0102,0.0144,0.0033,-20.12,-36.31,-5.75,28.01,-87.96,-46.95
52.863297,-1.682723,117.77,0.93,3,12.09,20 / 21,580512,2019-11-06 11:55:34:393,-0.0183,0.1019,9.863,-0.0022,-0.0005,9.8066,-0.005,0.0237,0.0101,-20.19,-36.44,-5.69,28.13,-87.97,-46.83
52.863297,-1.682723,117.77,0.93,3,12.09,20 / 21,580612,2019-11-06 11:55:34:493,-0.1344,0.0913,9.88,-0.0016,0.0006,9.8066,0.0031,0.0257,0.012,-20.12,-35.81,-5.5,31.16,-87.96,-46.66
52.863297,-1.682723,117.77,0.93,3,12.09,20 / 21,580712,2019-11-06 11:55:34:593,-0.3173,-0.0413,9.7313,0.0018,0.003,9.8066,0.0178,0.0096,-0.0021,-20.81,-36.44,-5.94,28.9,-87.95,-46.8
52.863297,-1.682723,117.77,0.93,3,12.09,20 / 21,580812,2019-11-06 11:55:34:693,-0.0234,0.1118,9.833,0.0001,0.0011,9.8066,0.0056,0.009,0.0067,-19.56,-36.37,-5.5,31.08,-87.96,-46.74
52.863297,-1.682723,117.77,0.93,3,12.09,20 / 21,580912,2019-11-06 11:55:34:793,-0.0708,0.1167,9.8817,0.0007,0.0031,9.8066,0.0164,-0.0164,-0.0025,-20.19,-36.69,-5.5,31.4,-87.97,-46.48
52.863297,-1.682723,117.77,0.93,3,12.09,20 / 21,581012,2019-11-06 11:55:34:893,-0.1882,0.0353,9.8411,-0.0018,0.0006,9.8066,-0.0129,-0.0166,0.0017,-19.75,-35.87,-5.94,28.74,-87.97,-46.26
52.863297,-1.682723,117.77,0.93,3,12.09,20 / 21,581112,2019-11-06 11:55:34:993,-0.0095,0.1805,9.8443,-0.0008,-0.0002,9.8066,-0.0039,-0.019,-0.0085,-19.69,-35.94,-5.81,28.89,-87.98,-46.11
52.863297,-1.682723,117.77,0.93,3,12.09,20 / 21,581212,2019-11-06 11:55:35:093,-0.0819,0.1572,9.803,-0.0021,-0.0015,9.8066,-0.0129,0.0004,-0.0011,-20.19,-36.94,-5.25,32.32,-87.95,-45.62
52.863297,-1.682723,117.77,0.93,3,12.09,20 / 21,581312,2019-11-06 11:55:35:193,0.1117,0.1194,9.9676,-0.0007,0.002,9.8066,-0.0104,0.0049,-0.0083,-20,-36.56,-5.94,29.48,-87.97,-45.61
52.863297,-1.682723,117.77,0.93,3,12.09,20 / 21,581412,2019-11-06 11:55:35:293,-0.0561,0.146,9.8376,0.0006,0.0006,9.8066,0.0018,0.021,0.0159,-20.12,-36.37,-5.31,32.51,-87.98,-45.37
52.863297,-1.682723,117.77,0.93,3,12.09,20 / 21,581512,2019-11-06 11:55:35:393,-0.1295,0.0936,9.8571,-0.0026,0.0001,9.8066,0.0056,0.0031,-0.0015,-20.06,-36.75,-5.75,29.53,-87.98,-45.55
52.863297,-1.682723,117.77,0.93,3,12.09,20 / 21,581612,2019-11-06 11:55:35:493,0.0655,0.1668,9.9409,0.0001,-0.001,9.8066,0.0064,0.0026,0.0088,-19.69,-36.31,-5.44,32.83,-87.98,-45.06
52.863297,-1.682723,117.77,0.93,3,12.09,20 / 21,581712,2019-11-06 11:55:35:593,-0.1248,0.0897,9.8026,-0.0026,0.0007,9.8066,-0.0039,-0.0025,-0.0184,-20.5,-35.87,-5.44,32.9,-88,-44.98
52.863297,-1.682723,117.77,0.93,3,12.09,20 / 21,581812,2019-11-06 11:55:35:693,-0.1481,0.2301,9.8128,0.0001,-0.0028,9.8066,-0.0049,0.0041,-0.0081,-20.12,-35.69,-5.81,30.38,-87.99,-44.69
52.863297,-1.682723,117.77,0.93,3,12.09,20 / 21,581912,2019-11-06 11:55:35:793,0.0911,0.0596,9.9603,-0.0027,0.002,9.8066,-0.0109,-0.0006,-0.0056,-20.5,-36.25,-5.37,33.92,-88,-44.01
52.863297,-1.682723,117.77,0.93,3,12.09,20 / 21,582012,2019-11-06 11:55:35:893,-0.2202,0.0423,9.8339,0.0003,0.0017,9.8066,-0.0083,0.024,0.0042,-20,-36.19,-6.06,30.98,-88,-44.11
52.863297,-1.682723,117.77,0.93,3,12.09,20 / 21,582113,2019-11-06 11:55:35:994,-0.0992,0.1111,9.8119,-0.0009,0.0006,9.8066,-0.0094,0.0213,0.0119,-20.56,-35.94,-6.06,31.95,-88.01,-43.86
52.863297,-1.682723,117.77,0.93,3,12.09,20 / 21,582212,2019-11-06 11:55:36:093,0.0662,0.0635,9.94,-0.0001,0.0012,9.8066,0.0101,0.0157,0.0153,-20.56,-36,-5.94,32.2,-88.01,-43.62
52.863297,-1.682723,117.77,0.93,3,12.09,20 / 21,582312,2019-11-06 11:55:36:193,-0.1447,0.161,9.917,-0.0003,0.0003,9.8066,0.0013,-0.0076,0.016,-19.81,-35.62,-5.5,34.5,-88.01,-43.45
52.863297,-1.682723,117.77,0.93,3,12.09,20 / 21,582412,2019-11-06 11:55:36:293,-0.1593,0.1119,9.7417,0.0013,0.0022,9.8066,0.0177,-0.0175,-0.0034,-20,-36.12,-5.75,31.78,-88.01,-43.35
52.863297,-1.682723,117.77,0.93,3,12.09,21 / 23,582512,2019-11-06 11:55:36:393,0.085,0.1621,9.9038,0.0005,0.0009,9.8066,-0.0098,-0.0277,0.001,-20.12,-37,-5.62,32.07,-88.02,-43.11
52.863297,-1.682723,117.77,0.93,3,12.09,21 / 23,582612,2019-11-06 11:55:36:493,-0.1512,0.0882,9.9063,-0.0008,0.0015,9.8066,0.003,-0.0276,-0.0042,-20.19,-36.56,-5.75,32.46,-88.02,-42.74
52.863297,-1.682723,117.77,0.93,3,12.09,21 / 23,582712,2019-11-06 11:55:36:593,-0.0546,-0.028,9.7977,-0.0009,-0.0023,9.8066,-0.0139,0.0099,-0.0131,-19.87,-36.31,-6,32.56,-88.01,-42.6
52.863297,-1.682723,117.77,0.93,3,12.09,21 / 23,582812,2019-11-06 11:55:36:693,0.0291,0.1135,9.9563,0.0018,-0.0039,9.8066,0.0064,0.0024,0.0012,-19.62,-36.25,-5.87,32.38,-88.02,-42.76
52.863297,-1.682723,117.77,0.93,3,12.09,21 / 23,582912,2019-11-06 11:55:36:793,-0.1239,-0.0172,9.9036,-0.0003,-0.0006,9.8066,-0.0025,0.0294,0.006,-20,-36.37,-5.62,32.49,-88.03,-42.65
52.863297,-1.682723,117.77,0.93,3,12.09,21 / 23,583012,2019-11-06 11:55:36:893,-0.1301,0.1868,9.7407,0.0007,0.0002,9.8066,0.0023,0.0163,0.0014,-20.37,-36.31,-5.94,32.33,-88.04,-42.79
52.863297,-1.682723,117.77,0.93,3,12.09,21 / 23,583112,2019-11-06 11:55:36:993,0.0367,0.2249,9.9569,-0.0016,-0.0019,9.8066,0.0023,0.0147,0.0099,-20.12,-36.62,-5.94,33.13,-88.03,-42.1
52.863297,-1.682723,117.77,0.93,3,12.09,21 / 23,583212,2019-11-06 11:55:37:093,-0.1532,0.118,9.8498,0.0006,0.0012,9.8066,-0.0001,-0.0112,-0.0021,-19.75,-36.62,-5.56,33.25,-88.05,-41.97
52.863297,-1.682723,117.77,0.93,3,12.09,21 / 23,583312,2019-11-06 11:55:37:193,-0.163,-0.0054,9.8032,0.0004,-0.0001,9.8066,-0.006,-0.0066,-0.0088,-20.87,-36.19,-5.81,34.27,-88.05,-41.61
52.863297,-1.682723,117.77,0.93,3,12.09,21 / 23,583411,2019-11-06 11:55:37:292,-0.0368,0.0414,9.8743,0.0004,0.0003,9.8066,-0.0037,-0.0171,-0.0185,-20.5,-35.87,-5.62,33.76,-88.06,-41.41
52.863297,-1.682723,117.77,0.93,3,12.09,22 / 23,583511,2019-11-06 11:55:37:392,0.0399,0.114,9.9051,0.001,0.0015,9.8066,-0.0109,0.0072,0.0053,-20.19,-36.06,-5.44,36.99,-88.05,-41.03
52.863297,-1.682723,117.77,0.93,3,12.09,22 / 23,583612,2019-11-06 11:55:37:493,-0.234,-0.0246,9.7736,0.0014,0.0028,9.8066,0.0006,0.0079,-0.0112,-20.19,-36.19,-6.44,34.52,-88.07,-40.68
