GPS LATITUDE (degrees), GPS LONGITUDE (degrees), GPS ALTITUDE (m), GPS SPEED (Kmh), GPS ACCURACY (m), GPS ORIENTATION (Â°),GPS SATELLITES IN RANGE, TIME SINCE START (ms), DATE (YYYY-MO-DD HH-MI-SS_SSS), ACCELEROMETER X (m/s²) , ACCELEROMETER Y (m/s²), ACCELEROMETER Z (m/s²), GRAVITY X (m/s²), GRAVITY Y (m/s²), GRAVITY Z (m/s²), GYROSCOPE Yaw (rad/s), GYROSCOPE Pitch (rad/s), GYROSCOPE Roll (rad/s), MAGNETIC FIELD X (Î¼T), MAGNETIC FIELD Y (Î¼T), MAGNETIC FIELD Z (Î¼T), ORIENTATION (Yaw) (Â°), ORIENTATION (Pitch) (Â°), ORIENTATION (Roll ) (Â°)
52.81381,-1.636821,103.52,9.53,6,71.8,21 / 21,93513,2019-11-06 11:47:27:394,-2.3859,-0.4588,9.3721,-0.0214,-0.0318,9.8065,0.0287,0.2522,-0.0201,-32.56,-36.5,8.13,163.52,-83.52,58.05
52.81381,-1.636821,103.52,9.53,6,71.8,21 / 21,93612,2019-11-06 11:47:27:493,-1.3695,1.4937,9.8621,-0.0076,-0.0327,9.8066,0.0039,0.1658,-0.1857,-32.62,-36.62,8.94,164.09,-83.71,57.06
52.81381,-1.636821,103.52,9.53,6,71.8,21 / 21,93712,2019-11-06 11:47:27:593,-2.4321,0.7163,9.704,0.011,0.0182,9.8066,0.0078,0.0992,0.073,-32.31,-36.87,9.31,165.76,-83.57,58.38
52.81381,-1.636821,103.52,9.53,6,71.8,21 / 21,93812,2019-11-06 11:47:27:693,-1.9942,-0.6486,10.7102,-0.0009,-0.0154,9.8066,-0.0726,0.2127,-0.147,-32.81,-37.25,8.63,164.34,-83.72,57.34
52.81381,-1.636821,103.52,9.53,6,71.8,21 / 21,93912,2019-11-06 11:47:27:793,-2.4606,-0.0619,10.0948,-0.0061,-0.0083,9.8066,-0.0162,0.1458,-0.0258,-33.31,-36.56,8.25,162.94,-83.53,57.35
52.81381,-1.636821,103.52,9.53,6,71.8,21 / 21,94012,2019-11-06 11:47:27:893,-2.8021,1.0872,10.2921,-0.0029,-0.007,9.8066,-0.0172,0.3008,-0.0639,-32.56,-36.62,9.25,165.05,-83.59,58.1
52.81381,-1.636821,103.52,9.53,6,71.8,21 / 21,94112,2019-11-06 11:47:27:993,-1.9156,2.2599,9.8393,-0.0002,-0.0111,9.8066,-0.0059,0.1386,0.0043,-33.19,-37.5,7.81,164.11,-83.52,58.65
52.81381,-1.636821,103.52,9.53,6,71.8,21 / 21,94212,2019-11-06 11:47:28:093,-2.7983,-0.253,9.8036,-0.0013,-0.0206,9.8066,0.0075,0.3463,-0.0504,-33,-36.87,8.19,164.83,-83.61,59.47
52.81381,-1.636821,103.52,9.53,6,71.8,21 / 21,94312,2019-11-06 11:47:28:193,-1.4615,1.2661,10.395,-0.0038,-0.0324,9.8066,-0.0062,0.0877,0.11,-32.75,-36.69,8,165.09,-83.71,59.79
52.81381,-1.636821,103.52,9.53,6,71.8,21 / 21,94412,2019-11-06 11:47:28:293,-1.8256,-0.5681,10.3189,0.0059,-0.0105,9.8066,0.0031,0.187,-0.0207,-32.56,-36.75,7.81,165.26,-83.78,59.99
52.81381,-1.636821,103.52,9.53,6,71.8,22 / 22,94512,2019-11-06 11:47:28:393,-1.0898,0.1721,9.9739,0.0127,-0.007,9.8066,0.0129,0.25,-0.0229,-32.62,-37.44,7.13,164.94,-83.79,61.29
52.81381,-1.636821,103.52,9.53,6,71.8,22 / 22,94612,2019-11-06 11:47:28:493,-1.0253,1.4756,9.227,0.0108,0.0093,9.8066,-0.021,0.2308,0.0339,-32.25,-37.37,6.06,165.24,-83.74,62.89
52.81381,-1.636821,103.52,9.53,6,71.8,22 / 22,94712,2019-11-06 11:47:28:593,-1.843,0.185,10.0608,0.0079,-0.0297,9.8065,0.036,0.2157,0.0216,-32.31,-36.94,6.38,166.1,-83.98,63.92
52.81381,-1.636821,103.52,9.53,6,71.8,22 / 22,94812,2019-11-06 11:47:28:693,-1.061,0.269,10.2672,0.0156,-0.0046,9.8065,0.0149,0.2623,-0.0154,-31.56,-36.37,6,168.54,-83.98,66.66
52.81381,-1.636821,103.52,9.53,6,71.8,22 / 22,94912,2019-11-06 11:47:28:793,-1.0726,0.8778,9.3453,0.0082,-0.0184,9.8066,0.0484,0.1971,0.0511,-32.37,-36.94,6.38,169.66,-84.07,67.89
52.81381,-1.636821,103.52,9.53,6,71.8,22 / 22,95012,2019-11-06 11:47:28:893,-1.608,-0.304,10.3205,0.0033,-0.0254,9.8065,0.0186,0.1811,0.0739,-32.62,-36.62,5.56,170.16,-84.46,68.86
52.81381,-1.636821,103.52,9.53,6,71.8,22 / 22,95111,2019-11-06 11:47:28:992,-2.613,-0.6364,9.824,0.0115,-0.0047,9.8066,-0.0315,0.2352,0.0118,-32.37,-36.12,5.13,169.43,-84.61,69.49
52.81381,-1.636821,103.52,9.53,6,71.8,22 / 22,95212,2019-11-06 11:47:29:093,-2.1774,-0.8272,9.6791,0.0127,0.0015,9.8066,-0.0121,0.2086,-0.016,-32.31,-36.44,4.5,170.49,-84.67,70.68
52.81381,-1.636821,103.52,9.53,6,71.8,22 / 22,95312,2019-11-06 11:47:29:193,-1.2517,0.3953,9.6405,0.0118,0.0112,9.8066,-0.0011,0.1737,0.0175,-30.75,-36.25,4.31,171.11,-84.57,72.83
52.81381,-1.636821,103.52,9.53,6,71.8,22 / 22,95412,2019-11-06 11:47:29:293,-1.4881,-0.5132,9.95,0.0051,-0.007,9.8066,0.0262,0.2357,-0.0251,-31.56,-36.31,4.19,172.12,-84.57,74.2
52.81381,-1.636821,103.52,9.53,6,71.8,21 / 21,95512,2019-11-06 11:47:29:393,-0.7728,-0.4454,10.0729,0.0103,-0.0054,9.8066,0.0407,0.1769,0.0079,-30.37,-36.75,4.13,173.82,-84.58,75.54
52.81381,-1.636821,103.52,9.53,6,71.8,21 / 21,95612,2019-11-06 11:47:29:493,-0.3163,-1.2518,9.83,0.0014,0.0043,9.8066,0.0006,0.1593,-0.005,-31.19,-36.62,3.44,173.9,-84.49,77.7
52.81381,-1.636821,103.52,9.53,6,71.8,21 / 21,95711,2019-11-06 11:47:29:592,-0.3665,-0.2252,9.9646,0.0056,0.0059,9.8066,-0.0092,0.1515,-0.0003,-30.37,-37,3.56,176.47,-84.4,78.47
52.81381,-1.636821,103.52,9.53,6,71.8,21 / 21,95812,2019-11-06 11:47:29:693,-0.8804,-0.5288,9.8172,-0.006,0.0043,9.8066,-0.0213,0.1883,0.0209,-30.62,-36.69,2.69,174.75,-84.3,78.63
52.81381,-1.636821,103.52,9.53,6,71.8,21 / 21,95911,2019-11-06 11:47:29:792,-0.7019,0.0391,9.8569,-0.0003,-0.008,9.8066,0.0321,0.1626,0.0584,-30.19,-36.37,2.44,172.99,-84.32,78.39
52.81381,-1.636821,103.52,9.53,6,71.8,21 / 21,96012,2019-11-06 11:47:29:893,0.0157,-1.0276,9.7333,0.0206,-0.023,9.8066,0.0486,0.1597,0.0391,-30.31,-36.81,2.75,177.26,-84.66,81.25
52.81381,-1.636821,103.52,9.53,6,71.8,21 / 21,96112,2019-11-06 11:47:29:993,-0.342,-1.3687,9.7038,0.0238,-0.0154,9.8066,0.043,0.2133,-0.0125,-30.19,-35.94,2.19,177.6,-84.86,83.54
52.81381,-1.636821,103.52,9.53,6,71.8,21 / 21,96211,2019-11-06 11:47:30:092,-0.1839,-0.8418,9.796,0.0073,0.0094,9.8066,0.0043,0.2028,0.0026,-29.87,-36.5,1.81,179.14,-84.89,85.24
52.81381,-1.636821,103.52,9.53,6,71.8,21 / 21,96312,2019-11-06 11:47:30:193,-0.6342,-1.0817,10.0255,0.0008,0.0094,9.8066,-0.0025,0.2141,-0.0463,-29.06,-36.37,1.56,179.39,-84.83,85.38
52.81381,-1.636821,103.52,9.53,6,71.8,21 / 21,96412,2019-11-06 11:47:30:293,0.3933,-0.2576,9.8385,-0.002,0.0216,9.8066,-0.0026,0.2132,-0.0578,-29,-36.75,1.88,179.47,-84.64,85.47
52.81381,-1.636821,103.52,9.53,6,71.8,21 / 22,96512,2019-11-06 11:47:30:393,1.3066,-0.2555,9.7118,0.0056,0.0246,9.8066,0.0638,0.2907,-0.0663,-28.56,-37.37,2.13,179.9,-84.27,85.94
52.81381,-1.636821,103.52,9.53,6,71.8,21 / 22,96612,2019-11-06 11:47:30:493,1.8626,0.5987,9.7327,0.0498,0.0058,9.8064,0.0721,0.3114,-0.041,-28.56,-37.06,2.56,186.3,-84.02,91.19
52.81381,-1.636821,103.52,9.53,6,71.8,21 / 22,96712,2019-11-06 11:47:30:593,1.8085,0.1144,10.3793,0.0393,0.0044,9.8065,0.0262,0.3623,-0.0004,-28.75,-36.75,1.56,188.53,-83.96,95.68
52.81381,-1.636821,103.52,9.53,6,71.8,21 / 22,96812,2019-11-06 11:47:30:693,2.5757,0.3592,10.206,0.0261,-0.0052,9.8066,0.0414,0.3525,-0.0269,-28.12,-37.37,1.19,189.83,-84,99.08
52.81381,-1.636821,103.52,9.53,6,71.8,21 / 22,96912,2019-11-06 11:47:30:793,2.8511,0.2122,9.8457,0.0175,0.0202,9.8066,0.0273,0.4382,-0.0736,-27.06,-37.06,0.69,193.27,-83.85,103.01
52.81381,-1.636821,103.52,9.53,6,71.8,21 / 22,97012,2019-11-06 11:47:30:893,3.2075,0.803,9.7968,0.018,0.0299,9.8065,-0.0289,0.5367,-0.0962,-26.37,-37.25,0,193.4,-83.44,105.48
52.81381,-1.636821,103.52,9.53,6,71.8,21 / 22,97112,2019-11-06 11:47:30:993,2.5075,1.8723,9.7463,0.0211,0.0379,9.8065,-0.016,0.5917,-0.1194,-25.44,-37.5,0.19,193.74,-82.95,106.12
52.81381,-1.636821,103.52,9.53,6,71.8,21 / 22,97212,2019-11-06 11:47:31:093,1.9343,1.4038,9.5616,-0.0195,0.0137,9.8066,-0.1148,0.5646,-0.0023,-23.62,-37.69,-1.81,188.98,-82.54,105.5
52.81381,-1.636821,103.52,9.53,6,71.8,21 / 22,97311,2019-11-06 11:47:31:192,-2.1009,1.0059,9.9451,-0.0404,-0.0138,9.8065,-0.1231,0.4965,0.0028,-23.56,-37.37,-3,184.47,-82.63,102.43
52.81381,-1.636821,103.52,9.53,6,71.8,21 / 22,97411,2019-11-06 11:47:31:292,-1.7081,0.8531,10.2412,-0.0165,-0.0128,9.8065,-0.0253,0.4828,0.0436,-22.37,-36.94,-4.5,179.77,-82.68,100.02
52.81381,-1.636821,103.52,9.53,6,71.8,20 / 21,97513,2019-11-06 11:47:31:394,0.1644,0.5318,10.5798,0.0203,-0.007,9.8066,0.0537,0.5812,0.0121,-21.37,-37.06,-4.56,177.82,-82.93,100.76
52.81381,-1.636821,103.52,9.53,6,71.8,20 / 21,97611,2019-11-06 11:47:31:492,0.1312,0.1848,9.9662,0.0386,-0.0181,9.8065,0.0256,0.5393,0.0313,-20.69,-37.19,-5.12,181.62,-83.12,105.33
52.81381,-1.636821,103.52,9.53,6,71.8,20 / 21,97712,2019-11-06 11:47:31:593,0.49,0.2329,9.9366,0.0301,0.0079,9.8065,0.0275,0.5769,-0.0661,-19.94,-36.75,-5.06,183.82,-83.15,108.65
52.81381,-1.636821,103.52,9.53,6,71.8,20 / 21,97812,2019-11-06 11:47:31:693,0.4161,0.4673,9.7608,0.03,-0.0041,9.8066,0.0059,0.5424,-0.0569,-18.56,-37.44,-5.25,186.25,-82.97,112.38
52.81381,-1.636821,103.52,9.53,6,71.8,20 / 21,97912,2019-11-06 11:47:31:793,0.1366,0.3312,9.9011,0.0214,0.0235,9.8066,-0.0066,0.5304,-0.0718,-17.87,-37.94,-5.12,186.91,-82.79,114.14
52.81381,-1.636821,103.52,9.53,6,71.8,20 / 21,98012,2019-11-06 11:47:31:893,0.5995,1.1755,9.9376,0.0259,0.0187,9.8065,-0.0314,0.5463,-0.0094,-16.81,-37.31,-4.87,187.43,-82.73,115.72
52.81381,-1.636821,103.52,9.53,6,71.8,20 / 21,98112,2019-11-06 11:47:31:993,0.9508,1.3607,10.2912,0.0176,-0.002,9.8066,0.0602,0.5033,-0.0422,-16.69,-36.19,-5.44,189.57,-82.51,118.4
52.81381,-1.636821,103.52,9.53,6,71.8,20 / 21,98212,2019-11-06 11:47:32:093,1.4835,1.2627,10.358,0.0233,-0.0108,9.8066,0.0719,0.5675,-0.0543,-16.25,-36.69,-4.62,191.54,-82.32,122.18
52.81381,-1.636821,103.52,9.53,6,71.8,20 / 21,98312,2019-11-06 11:47:32:193,0.5807,1.0255,9.9114,0.0393,-0.0016,9.8065,-0.055,0.5307,0.0301,-15.5,-36.94,-4.25,195.28,-82.18,124.98
52.81381,-1.636821,103.52,9.53,6,71.8,20 / 21,98412,2019-11-06 11:47:32:293,0.8422,0.6781,10.3109,0.0326,0.0051,9.8065,-0.0152,0.4962,0.0107,-13.62,-37.19,-4.94,193.9,-82.24,128.07
52.81381,-1.636821,103.52,9.53,6,71.8,20 / 21,98513,2019-11-06 11:47:32:394,3.4449,2.3334,10.2152,0.0431,-0.0096,9.8065,0.0536,0.4426,0.053,-13.5,-36.56,-4.37,197.75,-82.13,131.22
52.81381,-1.636821,103.52,9.53,6,71.8,20 / 21,98611,2019-11-06 11:47:32:492,-0.853,-1.3556,10.03,0.044,-0.0054,9.8065,0.0932,0.4006,-0.0408,-13.37,-37.31,-3.81,200.44,-81.76,135.19
52.81381,-1.636821,103.52,9.53,6,71.8,20 / 21,98712,2019-11-06 11:47:32:593,3.6677,1.9971,9.863,0.0414,0.0025,9.8065,0.0083,0.3766,0.0272,-12.06,-37.44,-3.06,205.06,-81.44,139.73
52.81381,-1.636821,103.52,9.53,6,71.8,20 / 21,98812,2019-11-06 11:47:32:693,1.5735,1.3664,10.1642,0.0387,0.0245,9.8065,0.0226,0.3891,-0.0658,-11.25,-36.81,-3.19,205.59,-80.96,143.32
52.81381,-1.636821,103.52,9.53,6,71.8,20 / 21,98912,2019-11-06 11:47:32:793,1.1198,0.0807,10.0802,0.0259,0.0179,9.8065,-0.023,0.3244,-0.1294,-11.5,-37.31,-3.19,205.9,-80.71,144.13
52.81381,-1.636821,103.52,9.53,6,71.8,20 / 21,99013,2019-11-06 11:47:32:894,1.0729,-0.0583,9.9569,0.0082,0.026,9.8065,-0.0079,0.2184,0.1358,-10.87,-36.19,-2.87,206.21,-80.6,144.36
52.81381,-1.636821,103.52,9.53,6,71.8,20 / 21,99112,2019-11-06 11:47:32:993,0.6762,-0.05,10.4953,0.0179,-0.0184,9.8065,-0.0335,0.2588,-0.0286,-9.75,-36.69,-2.56,205.39,-80.72,146.01
52.81381,-1.636821,103.52,9.53,6,71.8,20 / 21,99212,2019-11-06 11:47:33:093,0.2117,0.4891,9.6745,0.0107,-0.0022,9.8066,0.0006,0.0716,0.1396,-10.06,-36.75,-2.5,209.61,-80.83,147.25
52.81381,-1.636821,103.52,9.53,6,71.8,20 / 21,99312,2019-11-06 11:47:33:193,1.8241,-1.6134,9.8579,0.0026,-0.0005,9.8066,0.0115,0.0335,0.0796,-9.25,-35.75,-3.06,205.93,-80.9,149.34
52.81381,-1.636821,103.52,9.53,6,71.8,20 / 21,99412,2019-11-06 11:47:33:293,0.6845,0.7079,9.7418,-0.003,0.0171,9.8065,-0.0308,0.1492,-0.0598,-8.69,-36.12,-1.37,213.17,-80.77,149.67
52.81381,-1.636821,103.52,9.53,6,71.8,20 / 22,99513,2019-11-06 11:47:33:394,-0.6598,1.2797,9.603,0.0031,0.0088,9.8066,0.0542,-0.0131,0.1322,-8.75,-35.56,-1.31,212.9,-80.67,149.46
52.81381,-1.636821,103.52,9.53,6,71.8,20 / 22,99612,2019-11-06 11:47:33:493,-0.021,-0.4667,9.9121,0.0023,0.0169,9.8066,0.0102,0.0101,-0.0513,-7.56,-34.69,-2.25,206.68,-80.54,148.7
52.81381,-1.636821,103.52,9.53,6,71.8,20 / 22,99712,2019-11-06 11:47:33:593,1.076,-0.5446,9.9655,0.0016,-0.0086,9.8065,0.0206,0.1861,0.0216,-7.5,-34.69,-2.56,200.15,-80.39,148.44
52.81381,-1.636821,103.52,9.53,6,71.8,20 / 22,99812,2019-11-06 11:47:33:693,-0.0931,-0.5011,9.5513,-0.0091,0.0172,9.8066,-0.0611,0.0157,0.0571,-6.81,-34,-1.94,204.09,-80.35,148.43
52.81381,-1.636821,103.52,9.53,6,71.8,20 / 22,99912,2019-11-06 11:47:33:793,0.9438,0.1738,10.1713,0.0045,-0.0119,9.8066,-0.0537,0.1283,0.0171,-6.25,-34.06,-1.31,205.8,-80.48,148.76
52.81381,-1.636821,103.52,9.53,6,71.8,20 / 22,100012,2019-11-06 11:47:33:893,0.0667,1.1001,9.9487,-0.0051,0.0159,9.8066,-0.0134,0.0033,0.103,-7,-33.81,-0.87,208.78,-80.45,149.25
52.81381,-1.636821,103.52,9.53,6,71.8,20 / 22,100112,2019-11-06 11:47:33:993,0.9211,-0.2698,9.9373,-0.0036,-0.0011,9.8066,0.0929,-0.0091,-0.0692,-6.69,-34.19,-0.81,209.1,-80.45,149.8
52.81381,-1.636821,103.52,9.53,6,71.8,20 / 22,100213,2019-11-06 11:47:34:094,0.119,0.831,9.8133,0.0066,-0.0238,9.8066,0.0384,0.0998,-0.0803,-6.87,-35.31,-0.56,208.3,-80.27,149.54
52.81381,-1.636821,103.52,9.53,6,71.8,20 / 22,100312,2019-11-06 11:47:34:193,0.1776,-0.2757,11.07,0.018,-0.0026,9.8065,0.0189,0.2068,-0.0262,-7.31,-35.94,-0.75,208.6,-80.29,150.73
52.81381,-1.636821,103.52,9.53,6,71.8,20 / 22,100412,2019-11-06 11:47:34:293,-0.3177,0.2927,9.0136,-0.0035,-0.0133,9.8066,-0.1167,0.0409,-0.0009,-7.56,-36.37,-0.56,210.99,-80.26,150.73
52.814026,-1.636467,103.68,6.58,4,326.13,21 / 21,100512,2019-11-06 11:47:34:393,1.0578,-0.8055,10.2631,0.0128,0.0005,9.8066,-0.0264,0.2008,0.0294,-7.56,-36.87,-0.69,210.65,-80.32,150.68
52.814026,-1.636467,103.68,6.58,4,326.13,21 / 21,100612,2019-11-06 11:47:34:493,0.9658,-2.5329,9.7156,-0.0068,0.0116,9.8066,-0.0024,0.1781,-0.2353,-7.69,-36.56,-0.5,214.78,-80.37,150.72
52.814026,-1.636467,103.68,6.58,4,326.13,21 / 21,100711,2019-11-06 11:47:34:592,1.9464,-1.859,10.2754,-0.0289,-0.007,9.8066,-0.0227,0.1741,-0.0738,-7.62,-37.44,-0.12,214.94,-80.51,150.59
52.814026,-1.636467,103.68,6.58,4,326.13,21 / 21,100813,2019-11-06 11:47:34:694,0.4565,-0.8377,9.7619,0.0007,0.0061,9.8066,-0.0986,0.1911,-0.1527,-7.19,-37.44,-0.25,212.3,-80.37,150.26
52.814026,-1.636467,103.68,6.58,4,326.13,21 / 21,100912,2019-11-06 11:47:34:793,0.0487,-2.3801,8.7914,-0.006,0.026,9.8066,-0.0905,0.1254,-0.0294,-7.06,-37.12,-0.12,212.16,-80.38,149.96
52.814026,-1.636467,103.68,6.58,4,326.13,21 / 21,101012,2019-11-06 11:47:34:893,0.6132,0.9359,9.9285,0.0129,0.0262,9.8066,0.0471,0.1851,-0.1748,-7.31,-36.19,-0.81,207.51,-80.21,148.93
52.814026,-1.636467,103.68,6.58,4,326.13,21 / 21,101112,2019-11-06 11:47:34:993,-0.6104,-1.6278,9.3344,-0.0028,0.0155,9.8065,0.0826,0.064,-0.1132,-7.31,-36.12,-1.56,203.64,-80.13,149.19
52.814026,-1.636467,103.68,6.58,4,326.13,21 / 21,101212,2019-11-06 11:47:35:093,0.3273,1.3229,9.4334,0.0046,-0.0156,9.8066,-0.1139,0.3041,-0.0207,-7.44,-36.44,-1.87,204.06,-80.09,150.05
52.814026,-1.636467,103.68,6.58,4,326.13,21 / 21,101312,2019-11-06 11:47:35:193,-0.1026,-0.8644,10.4339,-0.0229,0.0047,9.8065,-0.0687,-0.0866,0.1234,-7.5,-37.06,-1.75,203.42,-80.07,149.49
52.814026,-1.636467,103.68,6.58,4,326.13,21 / 21,101413,2019-11-06 11:47:35:294,0.8816,-1.41,9.7891,0.0022,0.0243,9.8065,0.0419,0.0996,-0.0392,-7.69,-36.94,-1.44,210.14,-80.04,150.48
52.814026,-1.636467,103.68,6.58,4,326.13,21 / 22,101512,2019-11-06 11:47:35:393,-2.1866,0.9785,9.6674,-0.005,0.0088,9.8065,0.075,-0.2659,0.2284,-8.12,-37.44,-0.87,210.33,-80.11,150.64
52.814026,-1.636467,103.68,6.58,4,326.13,21 / 22,101612,2019-11-06 11:47:35:493,0.569,-1.2236,9.8312,-0.0126,0.0303,9.8065,0.1083,-0.1824,-0.0495,-7.81,-37.87,-1.12,209.79,-80.02,150.57
52.814026,-1.636467,103.68,6.58,4,326.13,21 / 22,101712,2019-11-06 11:47:35:593,-0.0187,3.2787,9.4906,0.0396,-0.0105,9.8065,0.2204,-0.367,0.2026,-7.19,-38.25,-1.44,208.07,-79.91,152.23
52.814026,-1.636467,103.68,6.58,4,326.13,21 / 22,101812,2019-11-06 11:47:35:693,-0.8883,-4.4304,10.3416,-0.0101,0.0318,9.8065,0.0683,-0.5166,0.3082,-7.31,-37.44,-0.06,211.64,-79.56,151.52
52.814026,-1.636467,103.68,6.58,4,326.13,21 / 22,101912,2019-11-06 11:47:35:793,-3.8196,2.471,8.6077,0.0573,-0.0221,9.8064,-0.0981,-0.2989,0.2298,-6.31,-36.69,-0.25,209.46,-79.16,153.98
52.814026,-1.636467,103.68,6.58,4,326.13,21 / 22,102012,2019-11-06 11:47:35:893,2.0851,-4.2984,10.321,-0.009,0.0056,9.8066,0.1478,-0.5831,0.2614,-6.81,-36.56,1.06,216.22,-79.32,152.8
52.814026,-1.636467,103.68,6.58,4,326.13,21 / 22,102112,2019-11-06 11:47:35:993,-0.3301,-4.1298,9.1778,0.028,-0.0545,9.8064,0.107,-0.0515,-0.0865,-7.06,-35.87,1.06,217.92,-79.55,154.13
52.814026,-1.636467,103.68,6.58,4,326.13,21 / 22,102212,2019-11-06 11:47:36:093,1.0764,-5.8519,8.4735,0.0128,-0.0665,9.8064,-0.1195,-0.5161,0.4937,-7.31,-35.5,0.88,218.57,-79.53,154.35
52.814026,-1.636467,103.68,6.58,4,326.13,21 / 22,102313,2019-11-06 11:47:36:194,1.0504,-1.6826,10.4791,0.0043,-0.0914,9.8061,-0.1881,0.3479,-0.0571,-8,-34.87,0.38,217.93,-79.81,156.08
52.814026,-1.636467,103.68,6.58,4,326.13,21 / 22,102412,2019-11-06 11:47:36:293,-1.8066,0.9426,8.717,0.0449,-0.0248,9.8064,-0.0194,-0.0253,0.0837,-8.69,-34.69,-0.81,216.61,-79.78,156.8
52.814026,-1.636467,103.68,6.58,4,326.13,22 / 23,102512,2019-11-06 11:47:36:393,2.8631,-2.3505,9.7947,-0.0032,-0.0075,9.8066,-0.0122,0.3425,-0.2527,-8.75,-34.87,-1.56,212.99,-80.13,155.99
52.814026,-1.636467,103.68,6.58,4,326.13,22 / 23,102612,2019-11-06 11:47:36:493,1.8519,-0.6131,10.0838,0.0134,-0.0619,9.8063,0.0336,-0.0168,-0.0364,-8.69,-35.06,-1.37,218.08,-80.52,157.27
52.814026,-1.636467,103.68,6.58,4,326.13,22 / 23,102712,2019-11-06 11:47:36:593,3.5283,-7.3596,11.7181,0.0078,-0.0149,9.8066,-0.1152,0.9358,-0.4882,-7.87,-35.87,-1.87,211.23,-80.45,157.06
52.814026,-1.636467,103.68,6.58,4,326.13,22 / 23,102812,2019-11-06 11:47:36:693,-1.7012,0.5517,9.1231,0.0649,-0.0407,9.8063,-0.1277,0.7253,-0.4536,-8.06,-36.37,-1.62,211.12,-80.06,157.79
52.814026,-1.636467,103.68,6.58,4,326.13,22 / 23,102912,2019-11-06 11:47:36:793,3.384,-4.9637,8.6711,-0.0669,0.0471,9.8063,-0.1869,0.2899,-0.1665,-7.62,-36.31,-1,214.6,-79.95,157.72
52.814026,-1.636467,103.68,6.58,4,326.13,22 / 23,103012,2019-11-06 11:47:36:893,-3.5631,0.0903,10.4071,-0.0284,0.0149,9.8065,-0.0424,0.304,-0.3549,-7.69,-35.75,-1.62,208.67,-80.14,153.43
52.814026,-1.636467,103.68,6.58,4,326.13,22 / 23,103112,2019-11-06 11:47:36:993,0.3937,-6.9415,8.9412,-0.0261,0.033,9.8065,0.1093,0.2194,-0.3629,-7,-36.81,-1.87,205.21,-80.63,151.55
52.814026,-1.636467,103.68,6.58,4,326.13,22 / 23,103212,2019-11-06 11:47:37:093,0.9698,-0.5867,10.2513,0.0018,-0.0103,9.8066,-0.1538,0.4141,-0.1558,-6.5,-36.44,-0.81,206.28,-80.5,151.11
52.814026,-1.636467,103.68,6.58,4,326.13,22 / 23,103312,2019-11-06 11:47:37:193,1.6811,-3.5472,10.7125,-0.0312,0.024,9.8065,-0.2146,0.1306,0.0137,-6.31,-35.37,-1.19,205.14,-79.97,149.54
52.814026,-1.636467,103.68,6.58,4,326.13,22 / 23,103412,2019-11-06 11:47:37:293,-1.6748,-1.7227,9.4926,0.0094,0.0411,9.8065,0.056,0.1757,-0.1922,-6.44,-35.5,-1.19,205.01,-79.82,149.66
52.814026,-1.636467,103.68,6.58,4,326.13,21 / 22,103511,2019-11-06 11:47:37:392,1.4328,1.8792,8.901,-0.0158,0.0278,9.8066,-0.0737,0.1156,-0.1212,-7.06,-35.94,-1.62,203.31,-80.29,148.26
52.814026,-1.636467,103.68,6.58,4,326.13,21 / 22,103611,2019-11-06 11:47:37:492,2.3595,-2.5116,10.4128,-0.0515,-0.0226,9.8065,-0.1075,0.023,-0.1603,-6.94,-36.31,-1.69,202.77,-80.58,146.73
52.814026,-1.636467,103.68,6.58,4,326.13,21 / 22,103712,2019-11-06 11:47:37:593,-1.0662,-0.1652,9.838,-0.0175,-0.0304,9.8065,-0.002,-0.2097,0.1009,-7.25,-36.94,-2.12,202.03,-80.78,145.53
52.814026,-1.636467,103.68,6.58,4,326.13,21 / 22,103812,2019-11-06 11:47:37:693,-0.0841,-3.813,10.4052,-0.0199,0.0209,9.8065,0.1572,-0.2689,0.054,-8.37,-36.25,-2.31,203.57,-80.63,143.87
52.814026,-1.636467,103.68,6.58,4,326.13,21 / 22,103912,2019-11-06 11:47:37:793,-1.1636,0.8633,9.3856,0.0184,0.008,9.8066,0.0845,-0.1238,-0.0865,-8.75,-36.12,-2.19,206.34,-80.61,145.03
52.814026,-1.636467,103.68,6.58,4,326.13,21 / 22,104011,2019-11-06 11:47:37:892,-0.1272,-1.3006,8.8795,0.0173,-0.018,9.8065,-0.0639,-0.2408,0.2807,-10,-36.81,-3.06,204.7,-80.54,145.23
52.814026,-1.636467,103.68,6.58,4,326.13,21 / 22,104112,2019-11-06 11:47:37:993,3.1422,-2.7298,11.0177,0.0028,-0.0366,9.8065,-0.17,0.307,-0.112,-9.19,-37.62,-2.69,202.67,-80.39,145.8
52.814026,-1.636467,103.68,6.58,4,326.13,21 / 22,104212,2019-11-06 11:47:38:093,1.8587,0.1358,10.6344,0.0229,-0.0264,9.8065,0.0333,-0.0165,-0.0521,-9.12,-38.31,-2.94,203.48,-80.73,146.57
52.814026,-1.636467,103.68,6.58,4,326.13,21 / 22,104312,2019-11-06 11:47:38:193,2.3756,-2.8567,9.4232,-0.0101,-0.0031,9.8066,0.0382,0.3499,-0.1925,-8.81,-39.75,-2.69,202.62,-81,145.53
52.814026,-1.636467,103.68,6.58,4,326.13,21 / 22,104412,2019-11-06 11:47:38:293,2.1467,-2.0496,9.0462,0.0042,0.0237,9.8065,-0.0067,-0.2864,0.217,-8.75,-39.37,-2.44,205.95,-80.87,145.33
52.814026,-1.636467,103.68,6.58,4,326.13,21 / 22,104512,2019-11-06 11:47:38:393,-2.5495,-3.0034,9.2086,-0.0354,-0.0231,9.8065,-0.0199,-0.1772,-0.0049,-8.25,-39.31,-1.5,207.31,-81.25,143.94
52.814026,-1.636467,103.68,6.58,4,326.13,21 / 22,104612,2019-11-06 11:47:38:493,0.7701,1.4371,10.9404,-0.0039,-0.0199,9.8066,-0.0212,-0.1906,0.1892,-8.25,-39.56,-0.81,207.06,-81.35,143.81
52.814026,-1.636467,103.68,6.58,4,326.13,21 / 22,104712,2019-11-06 11:47:38:593,-1.3921,-0.7274,9.1143,0.0171,0.0326,9.8065,0.0662,-0.3127,0.0681,-7.31,-38.94,-0.37,209.08,-81.15,143.5
52.814026,-1.636467,103.68,6.58,4,326.13,21 / 22,104812,2019-11-06 11:47:38:693,-0.7525,-3.2915,9.607,-0.0024,0.0051,9.8065,-0.0083,0.1972,-0.0384,-7.37,-38.25,0.06,209.53,-80.85,144.47
52.814026,-1.636467,103.68,6.58,4,326.13,21 / 22,104912,2019-11-06 11:47:38:793,-1.4651,-2.1128,8.671,-0.0118,-0.0107,9.8065,-0.0222,-0.386,-0.0233,-7.87,-36.5,-0.31,211.92,-80.81,144
52.814026,-1.636467,103.68,6.58,4,326.13,21 / 22,105012,2019-11-06 11:47:38:893,0.3678,-3.9081,9.552,-0.053,0.0279,9.8065,0.0568,0.3614,-0.0608,-7.87,-36.19,-0.69,206.84,-80.87,142.37
52.814026,-1.636467,103.68,6.58,4,326.13,21 / 22,105112,2019-11-06 11:47:38:993,-1.0744,-0.7316,9.4906,0.0066,0.0033,9.8065,0.0285,-0.0026,-0.1998,-8.5,-35.25,-0.5,212.87,-80.93,144.61
52.814026,-1.636467,103.68,6.58,4,326.13,21 / 22,105212,2019-11-06 11:47:39:093,1.2671,-4.0197,10.0878,0.0182,0.1001,9.806,0.0022,-0.1657,0.2546,-7.94,-34.87,-0.5,211.75,-80.52,143.76
52.814026,-1.636467,103.68,6.58,4,326.13,21 / 22,105312,2019-11-06 11:47:39:193,-0.8093,-0.0717,9.5853,0.0124,-0.0135,9.8066,-0.1299,0.7199,-0.3445,-8.81,-33.81,-1.62,206.98,-80.39,145.45
52.814026,-1.636467,103.68,6.58,4,326.13,21 / 22,105412,2019-11-06 11:47:39:293,-0.4985,-6.0397,8.7201,-0.019,-0.0131,9.8066,0.0406,-0.1462,-0.0354,-8.44,-33.81,-1.44,208.28,-80.32,144.76
52.814026,-1.636467,103.68,6.58,4,326.13,23 / 23,105514,2019-11-06 11:47:39:395,-0.2481,-2.2274,10.1677,0.0114,-0.0632,9.8064,0.075,0.5072,-0.2419,-7.5,-34.25,-2.06,202.74,-80.3,146.13
52.814026,-1.636467,103.68,6.58,4,326.13,23 / 23,105611,2019-11-06 11:47:39:492,-4.7297,2.1218,8.6031,0.0592,-0.0404,9.8063,0.0995,-0.6229,0.1357,-7.5,-34.62,-2.12,202.39,-80.01,146.59
52.814026,-1.636467,103.68,6.58,4,326.13,23 / 23,105712,2019-11-06 11:47:39:593,2.1393,-2.6042,8.902,-0.004,0.0101,9.8066,-0.1676,-0.2134,0.288,-7.94,-34.62,-1.87,204.28,-80.15,145.41
52.814026,-1.636467,103.68,6.58,4,326.13,23 / 23,105812,2019-11-06 11:47:39:693,-7.2538,-2.4277,10.3551,-0.0003,-0.0725,9.8063,-0.1916,-0.3468,0.3168,-7.06,-34.62,-1.94,202.66,-80.73,145.73
52.814026,-1.636467,103.68,6.58,4,326.13,23 / 23,105911,2019-11-06 11:47:39:792,0.0311,-2.1174,10.198,-0.033,0.0125,9.8065,0.1673,-0.5118,0.1542,-7.25,-35.37,-2.56,198.27,-80.88,144.46
52.814026,-1.636467,103.68,6.58,4,326.13,23 / 23,106011,2019-11-06 11:47:39:892,0.7285,-7.3057,9.3856,-0.0016,0.0411,9.8065,-0.0269,-0.2475,0.2438,-6.31,-36.25,-3.56,190.83,-80.63,143.17
52.814026,-1.636467,103.68,6.58,4,326.13,23 / 23,106112,2019-11-06 11:47:39:993,1.2835,-0.1957,9.6717,-0.0281,0.0867,9.8062,0.0678,-0.5468,0.319,-6,-37.31,-2.19,197.26,-80.12,142.8
52.814026,-1.636467,103.68,6.58,4,326.13,23 / 23,106212,2019-11-06 11:47:40:093,3.6257,-5.8387,9.6759,-0.0352,0.0741,9.8062,-0.1532,0.5837,-0.3049,-5.94,-36.56,-1.62,197.33,-79.97,143.2
52.814026,-1.636467,103.68,6.58,4,326.13,23 / 23,106312,2019-11-06 11:47:40:193,-0.0696,-1.1319,9.8277,-0.0118,0.0339,9.8065,-0.0628,0.0386,0.0491,-6,-35.69,-0.94,201.49,-80,142.81
52.814026,-1.636467,103.68,6.58,4,326.13,23 / 23,106412,2019-11-06 11:47:40:293,3.2963,-6.2344,7.2915,-0.0442,0.0239,9.8065,0.0311,-0.6617,0.3199,-7.19,-36.25,-1.19,204.06,-80.15,142.73
52.814026,-1.636467,103.68,6.58,4,326.13,22 / 22,106512,2019-11-06 11:47:40:393,-3.7481,-0.2963,9.2326,-0.0456,-0.0672,9.8063,0.1358,0.3417,-0.2877,-7.94,-36.81,-3,199.33,-80.2,143.78
52.814026,-1.636467,103.68,6.58,4,326.13,22 / 22,106612,2019-11-06 11:47:40:493,2.6946,-3.7055,9.0614,-0.0408,0.0243,9.8065,-0.0781,0.3977,-0.211,-7.94,-37.44,-1.94,202.2,-80.56,142.13
52.814026,-1.636467,103.68,6.58,4,326.13,22 / 22,106712,2019-11-06 11:47:40:593,-4.2758,4.1003,8.4511,0.0468,-0.0082,9.8065,-0.1954,0.711,-0.4482,-7.62,-37.25,-2.44,202.33,-80.48,142.5
52.814026,-1.636467,103.68,6.58,4,326.13,22 / 22,106811,2019-11-06 11:47:40:692,0.048,-0.3222,8.391,0.0121,0.0326,9.8066,-0.1659,0.1009,-0.0387,-7.69,-37.62,-2.56,197.77,-80.26,141.38
52.814026,-1.636467,103.68,6.58,4,326.13,22 / 22,106912,2019-11-06 11:47:40:793,-4.4019,4.0883,9.0686,0.0498,-0.0566,9.8063,-0.158,0.7343,-0.4254,-7.62,-37.62,-2.37,202.29,-80.53,142.79
52.814026,-1.636467,103.68,6.58,4,326.13,22 / 22,107013,2019-11-06 11:47:40:894,2.8015,-2.9989,10.181,-0.009,-0.0131,9.8066,-0.011,0.1674,-0.1221,-7.69,-36.94,-1.81,201.72,-80.68,141.13
52.814026,-1.636467,103.68,6.58,4,326.13,22 / 22,107112,2019-11-06 11:47:40:993,-1.9435,-3.9892,9.831,0.0417,-0.0526,9.8064,0.1421,0.6246,-0.381,-7.75,-36.75,-1.81,201.84,-80.48,141.67
52.814026,-1.636467,103.68,6.58,4,326.13,22 / 22,107212,2019-11-06 11:47:41:093,1.2874,-8.2609,8.5372,0.0302,-0.0068,9.8065,0.2631,0.0239,0.0829,-7.87,-36.31,-2.44,203.57,-80.27,144.51
52.814026,-1.636467,103.68,6.58,4,326.13,22 / 22,107311,2019-11-06 11:47:41:192,0.4482,0.9941,10.4582,0.0818,-0.0996,9.8058,-0.1576,0.728,-0.4983,-8.69,-36.75,-2.75,203.95,-80.44,147.37
52.814026,-1.636467,103.68,6.58,4,326.13,22 / 22,107412,2019-11-06 11:47:41:293,-4.1857,2.4797,8.4742,0.0049,-0.039,9.8065,-0.0333,-0.5593,0.3458,-8.25,-37.31,-2.37,204.34,-80.71,145.51
52.814026,-1.636467,103.68,6.58,4,326.13,21 / 22,107512,2019-11-06 11:47:41:393,0.6614,-1.569,10.0688,-0.0063,-0.0322,9.8066,0.0145,-0.0137,0.0308,-7.94,-37.25,-1.75,204.7,-81.16,145.27
52.814026,-1.636467,103.68,6.58,4,326.13,21 / 22,107612,2019-11-06 11:47:41:493,-4.953,5.3613,10.2882,-0.005,-0.0863,9.8062,0.0927,-0.8842,0.1892,-6.87,-36,-1.5,206.07,-81.31,143.73
52.814026,-1.636467,103.68,6.58,4,326.13,21 / 22,107712,2019-11-06 11:47:41:593,-1.4119,1.3886,10.1681,-0.0559,0.1,9.8059,0.2411,-0.9375,0.6649,-6.37,-35.44,-0.5,208.88,-80.97,144.91
52.814026,-1.636467,103.68,6.58,4,326.13,21 / 22,107812,2019-11-06 11:47:41:693,0.2079,6.8055,12.4657,-0.0054,0.0316,9.8066,-0.2963,0.8175,-0.5352,-7.87,-34.75,-0.37,211.42,-80.54,143.16
52.814026,-1.636467,103.68,6.58,4,326.13,21 / 22,107912,2019-11-06 11:47:41:793,-5.7589,3.3941,9.498,-0.0405,0.055,9.8063,-0.1464,-0.1927,0.3473,-8.25,-35.62,-2.5,201.55,-80.66,140.43
52.814026,-1.636467,103.68,6.58,4,326.13,21 / 22,108012,2019-11-06 11:47:41:893,-5.9981,4.195,10.1799,0.067,-0.1772,9.8048,-0.0194,-0.8072,0.3614,-8.06,-36.19,-3.06,201.54,-81.5,145.12
52.814026,-1.636467,103.68,6.58,4,326.13,21 / 22,108112,2019-11-06 11:47:41:993,-4.3407,1.6305,9.6273,0.0708,-0.0506,9.8062,-0.0696,0.4477,-0.5633,-8.25,-36.69,-2.56,199.9,-81.44,142.95
52.814026,-1.636467,103.68,6.58,4,326.13,21 / 22,108212,2019-11-06 11:47:42:093,1.3325,-6.9456,9.8171,-0.0497,0.0742,9.8062,-0.048,0.5329,-0.2137,-8.69,-37.94,-1.31,207.78,-81.13,141.44
52.814026,-1.636467,103.68,6.58,4,326.13,21 / 22,108312,2019-11-06 11:47:42:193,0.7532,-0.1157,9.5606,0.0083,-0.0576,9.8064,-0.0678,0.6319,-0.5575,-7.87,-38.69,-1.5,205.52,-81.06,141.33
52.814026,-1.636467,103.68,6.58,4,326.13,21 / 22,108412,2019-11-06 11:47:42:293,0.7362,-5.919,10.3995,-0.0158,0.02,9.8066,0.0099,0.3119,-0.0178,-8.37,-38.25,-0.94,205.01,-81.1,139.87
52.814026,-1.636467,103.68,6.58,4,326.13,23 / 24,108512,2019-11-06 11:47:42:393,2.1165,-0.3845,9.2146,0.0328,-0.014,9.8065,-0.1006,0.4853,-0.062,-7.44,-37.87,-1.56,199.83,-81.15,141.4
52.814026,-1.636467,103.68,6.58,4,326.13,23 / 24,108612,2019-11-06 11:47:42:493,-2.4211,2.6017,10.377,0.0241,-0.0808,9.8062,-0.1425,-0.5506,0.2402,-7.56,-36.87,-0.81,206.89,-81.4,141.89
52.814026,-1.636467,103.68,6.58,4,326.13,23 / 24,108712,2019-11-06 11:47:42:593,0.7164,-3.3057,11.2543,-0.0291,-0.0139,9.8065,0.2358,-0.2247,0.1567,-7.75,-36.5,-1.25,206.77,-81.54,140.9
52.814026,-1.636467,103.68,6.58,4,326.13,23 / 24,108812,2019-11-06 11:47:42:693,-0.4873,0.1618,8.7027,0.0295,-0.0207,9.8066,0.1226,-0.1919,-0.0497,-8.37,-35.31,-1.56,203.91,-81.34,142.75
52.814026,-1.636467,103.68,6.58,4,326.13,23 / 24,108912,2019-11-06 11:47:42:793,-1.322,0.8764,9.9157,-0.0257,0.0524,9.8064,0.0308,-0.347,0.3108,-9.31,-36.44,-2.37,205.99,-81.28,143.32
52.814026,-1.636467,103.68,6.58,4,326.13,23 / 24,109012,2019-11-06 11:47:42:893,0.7676,2.7413,10.2267,-0.0078,-0.0007,9.8066,-0.0878,-0.2925,0.0858,-8.31,-37.12,-2.19,203.3,-81.36,142.58
52.814026,-1.636467,103.68,6.58,4,326.13,23 / 24,109112,2019-11-06 11:47:42:993,-3.6056,-0.0378,8.7761,-0.0221,0.0345,9.8065,-0.0694,-0.2005,0.1106,-8,-37.5,-0.94,205.7,-81.44,139.85
52.814026,-1.636467,103.68,6.58,4,326.13,23 / 24,109212,2019-11-06 11:47:43:093,0.6576,-5.1385,10.1592,-0.0334,0.0402,9.8065,0.1026,-0.4763,0.2263,-8.12,-37.31,-0.25,210.18,-81.59,139.84
52.814026,-1.636467,103.68,6.58,4,326.13,23 / 24,109312,2019-11-06 11:47:43:193,-0.028,1.0391,9.7249,-0.003,-0.0253,9.8066,-0.1088,0.1779,-0.2334,-7.69,-36.5,-0.87,206.29,-81.85,139.5
52.814026,-1.636467,103.68,6.58,4,326.13,23 / 24,109412,2019-11-06 11:47:43:293,1.4667,-5.0971,9.3318,-0.0336,0.0573,9.8064,0.0082,0.5313,-0.2479,-7.56,-36.06,-1.44,204.86,-81.84,137.24
52.814747,-1.637214,104.16,11.7,4,328.62,21 / 21,109512,2019-11-06 11:47:43:393,-2.4589,2.5574,9.113,0.0216,-0.0346,9.8065,-0.1434,0.447,-0.339,-7.81,-36.56,-1.62,201.45,-82.09,138.37
52.814747,-1.637214,104.16,11.7,4,328.62,21 / 21,109612,2019-11-06 11:47:43:493,1.3349,-5.6183,9.7937,-0.0252,0.0269,9.8065,-0.0679,0.3547,-0.1512,-8.06,-36.62,-2.12,200.08,-82.12,136.15
52.814747,-1.637214,104.16,11.7,4,328.62,21 / 21,109712,2019-11-06 11:47:43:593,-0.5373,-3.71,9.3993,0.0414,-0.0735,9.8062,-0.0128,0.7652,-0.4939,-8,-36.56,-1.94,200.26,-82.16,136.37
52.814747,-1.637214,104.16,11.7,4,328.62,21 / 21,109812,2019-11-06 11:47:43:693,2.5595,-5.8606,9.2962,0.0209,-0.026,9.8065,0.0656,-0.2556,0.0437,-8.37,-37.31,-2.37,201.68,-82.26,138.45
52.814747,-1.637214,104.16,11.7,4,328.62,21 / 21,109912,2019-11-06 11:47:43:793,1.637,-1.3943,9.5784,0.0374,-0.065,9.8063,-0.0789,0.5851,-0.2114,-7.94,-37.44,-2.12,203.2,-82.5,140.42
52.814747,-1.637214,104.16,11.7,4,328.62,21 / 21,110012,2019-11-06 11:47:43:893,-4.851,3.5563,9.3505,0.0371,-0.0871,9.8061,0.0048,-0.6414,0.3491,-8.44,-37.87,-2.19,203.07,-82.61,140.37
52.814747,-1.637214,104.16,11.7,4,328.62,21 / 21,110112,2019-11-06 11:47:43:993,0.3619,-2.7766,10.2992,0.0066,-0.0392,9.8065,0.0559,-0.0582,0.1645,-8.94,-37.75,-1.56,205.56,-82.8,140.81
52.814747,-1.637214,104.16,11.7,4,328.62,21 / 21,110212,2019-11-06 11:47:44:093,-3.8906,4.0102,8.7499,0.0355,-0.0889,9.8062,0.0368,-0.6776,0.4987,-8.06,-37.12,-1.19,209.99,-82.97,143.26
52.814747,-1.637214,104.16,11.7,4,328.62,21 / 21,110312,2019-11-06 11:47:44:193,-0.8605,-3.4968,9.1567,-0.0374,-0.0143,9.8065,0.0654,-0.5487,0.2438,-8.5,-36,-1.44,208.9,-83.29,140.48
52.814747,-1.637214,104.16,11.7,4,328.62,21 / 21,110412,2019-11-06 11:47:44:293,-1.6154,1.7305,9.791,-0.0006,-0.0335,9.8065,0.0231,-0.1629,0.1878,-8.56,-35.94,-1.62,207.56,-83.55,141.66
52.814747,-1.637214,104.16,11.7,4,328.62,21 / 22,110512,2019-11-06 11:47:44:393,-1.9466,-3.2347,8.9265,-0.0077,0.0225,9.8066,-0.0813,-0.2586,0.1545,-8.12,-34.94,-2.06,205.62,-83.84,140.89
52.814747,-1.637214,104.16,11.7,4,328.62,21 / 22,110612,2019-11-06 11:47:44:493,-0.3636,-4.2494,10.2526,0.0235,-0.0269,9.8065,0.1287,0.0495,0.0028,-8.37,-35.44,-2.25,205.14,-83.75,140.37
52.814747,-1.637214,104.16,11.7,4,328.62,21 / 22,110712,2019-11-06 11:47:44:593,0.5816,-3.1976,9.2067,0.0289,0.0256,9.8065,-0.0343,-0.1429,0.1573,-8.75,-35.5,-2.87,205.47,-83.39,144.29
52.814747,-1.637214,104.16,11.7,4,328.62,21 / 22,110812,2019-11-06 11:47:44:693,0.6106,-1.5161,11.0827,0.0226,-0.013,9.8066,-0.0614,-0.0706,0.0728,-8.44,-36.06,-3,203.85,-83.24,145.84
52.814747,-1.637214,104.16,11.7,4,328.62,21 / 22,110912,2019-11-06 11:47:44:793,1.935,-1.6972,10.4837,0.0202,0.0295,9.8065,0.0846,-0.2132,0.0661,-8.87,-37.5,-3.31,206.11,-83.08,146.34
52.814747,-1.637214,104.16,11.7,4,328.62,21 / 22,111012,2019-11-06 11:47:44:893,-1.3361,-4.2576,9.5262,-0.0006,-0.0308,9.8065,-0.0455,0.2296,-0.1641,-8.87,-38.44,-4.19,201.78,-83.43,145.05
52.814747,-1.637214,104.16,11.7,4,328.62,21 / 22,111112,2019-11-06 11:47:44:993,0.1256,1.5487,9.3934,-0.0012,-0.027,9.8066,-0.1591,0.2048,-0.0546,-8.62,-39.81,-3.25,204,-83.58,143.37
52.814747,-1.637214,104.16,11.7,4,328.62,21 / 22,111212,2019-11-06 11:47:45:093,0.1381,-0.7928,9.9289,-0.0098,0.0222,9.8065,0.0327,0.2022,-0.0966,-8.37,-40.5,-2.44,204.85,-83.61,141.87
52.814747,-1.637214,104.16,11.7,4,328.62,21 / 22,111311,2019-11-06 11:47:45:192,0.0242,-2.7696,10.3492,-0.0161,-0.0155,9.8066,-0.0864,0.3533,-0.2189,-8.19,-40.5,-2.12,204.44,-83.69,141.1
52.814747,-1.637214,104.16,11.7,4,328.62,21 / 22,111411,2019-11-06 11:47:45:292,-1.5082,1.9205,9.5046,-0.0209,0.0364,9.8065,-0.0163,0.282,-0.1649,-8.12,-40,-0.56,208.15,-83.55,140.39
52.814747,-1.637214,104.16,11.7,4,328.62,21 / 22,111512,2019-11-06 11:47:45:393,2.5957,-0.3082,10.2605,-0.002,0.0359,9.8066,0.1023,0.361,-0.218,-7.87,-39.81,-0.94,208.8,-83.49,141.51
52.814747,-1.637214,104.16,11.7,4,328.62,21 / 22,111612,2019-11-06 11:47:45:493,-1.2115,2.8223,9.342,0.0017,0.0588,9.8065,0.1138,-0.363,0.1388,-8.56,-38.5,-0.12,214.86,-83.12,141.51
52.814747,-1.637214,104.16,11.7,4,328.62,21 / 22,111712,2019-11-06 11:47:45:593,-2.4525,-1.1048,9.2936,-0.0196,0.046,9.8065,0.0268,0.1236,-0.0258,-8.12,-38.12,-0.5,213.66,-83.08,141.99
52.814747,-1.637214,104.16,11.7,4,328.62,21 / 22,111812,2019-11-06 11:47:45:693,-1.4083,2.9975,9.8862,0.0003,0.0053,9.8066,0.0256,-0.5326,0.2554,-8.94,-37.94,-2,207.19,-83.02,142.8
52.814747,-1.637214,104.16,11.7,4,328.62,21 / 22,111912,2019-11-06 11:47:45:793,-3.3478,-4.605,11.0592,-0.0092,0.052,9.8065,0.0548,-0.4313,0.2004,-8.75,-37.62,-1.31,210.14,-82.83,141.56
52.814747,-1.637214,104.16,11.7,4,328.62,21 / 22,112012,2019-11-06 11:47:45:893,2.3773,-5.3142,9.0071,0.0134,-0.0594,9.8064,-0.0737,-0.0951,0.2109,-8.62,-37.81,-0.81,212.11,-82.93,144.23
52.814747,-1.637214,104.16,11.7,4,328.62,21 / 22,112112,2019-11-06 11:47:45:993,-3.4696,-5.221,11.0739,0.0104,-0.0277,9.8065,-0.0364,-0.4946,0.3134,-8.87,-37.75,-1.12,210.83,-82.69,142.89
52.814747,-1.637214,104.16,11.7,4,328.62,21 / 22,112212,2019-11-06 11:47:46:093,2.0722,-5.3327,9.9066,0.0067,-0.03,9.8065,-0.0784,0.3378,-0.3569,-8.25,-38.25,-1.44,208.05,-82.95,140.8
52.814747,-1.637214,104.16,11.7,4,328.62,21 / 22,112312,2019-11-06 11:47:46:193,2.3851,-2.5967,10.5004,0.0433,-0.0717,9.8062,0.0545,-0.1844,0.1918,-9,-38.19,-0.56,210.81,-83.14,141.88
52.814747,-1.637214,104.16,11.7,4,328.62,21 / 22,112412,2019-11-06 11:47:46:293,1.0256,-3.5675,9.8344,0.026,-0.0021,9.8066,0.111,-0.4901,0.1424,-9.31,-37.81,-1.19,209.3,-83,139.98
52.814747,-1.637214,104.16,11.7,4,328.62,21 / 22,112512,2019-11-06 11:47:46:393,-1.3163,3.3249,9.225,0.0086,-0.0584,9.8064,-0.1241,0.0495,-0.0743,-8.06,-37.37,-1.5,208.3,-83.19,140.23
52.814747,-1.637214,104.16,11.7,4,328.62,21 / 22,112612,2019-11-06 11:47:46:493,-1.4205,-2.8032,9.9189,-0.0056,-0.0049,9.8066,0.0431,0.4886,-0.2088,-8.69,-36.44,-1.06,208.35,-83.16,137.54
52.814747,-1.637214,104.16,11.7,4,328.62,21 / 22,112712,2019-11-06 11:47:46:593,-2.36,3.3999,9.8476,0.0099,-0.0422,9.8065,-0.0599,0.2235,-0.2973,-7.81,-35.62,-0.69,207.37,-83.16,138.5
52.814747,-1.637214,104.16,11.7,4,328.62,21 / 22,112812,2019-11-06 11:47:46:693,1.6142,-3.5294,9.6632,-0.0254,0.001,9.8065,0.0287,-0.2986,0.3115,-7.69,-34.81,0.13,212.23,-83.03,138.53
52.814747,-1.637214,104.16,11.7,4,328.62,21 / 22,112912,2019-11-06 11:47:46:793,-3.3447,3.404,9.1794,0.0208,-0.0352,9.8065,-0.0735,0.6026,-0.353,-6.94,-33.69,-1.5,205.92,-83.19,138.34
52.814747,-1.637214,104.16,11.7,4,328.62,21 / 22,113012,2019-11-06 11:47:46:893,1.8259,-5.6994,9.2162,-0.0612,0.0534,9.8062,-0.0741,0.253,-0.1957,-8,-33.87,-3.19,196.43,-83.44,134.27
52.814747,-1.637214,104.16,11.7,4,328.62,21 / 22,113112,2019-11-06 11:47:46:993,0.5021,-4.7715,9.8354,0.0019,0.0021,9.8066,-0.0167,0.7924,-0.3603,-8.94,-34,-3.81,195.76,-83.76,135.48
52.814747,-1.637214,104.16,11.7,4,328.62,21 / 22,113212,2019-11-06 11:47:47:093,4.121,-4.6834,10.2501,-0.0439,0.0785,9.8062,0.0232,-0.2444,0.1612,-9.44,-36.37,-4.37,194.63,-83.56,134.44
52.814747,-1.637214,104.16,11.7,4,328.62,21 / 22,113312,2019-11-06 11:47:47:193,-0.5751,-3.4035,9.9747,-0.0244,0.0502,9.8064,-0.0159,0.4309,-0.2544,-9.69,-37.12,-4.12,198.11,-83.71,136.53
52.814747,-1.637214,104.16,11.7,4,328.62,21 / 22,113412,2019-11-06 11:47:47:293,-1.7799,4.2835,9.9857,-0.03,0.0316,9.8065,-0.0243,-0.4492,0.3351,-8.94,-37.56,-4.25,197.47,-83.84,138.49
52.814747,-1.637214,104.16,11.7,4,328.62,21 / 23,113512,2019-11-06 11:47:47:393,-0.091,-0.4377,9.151,-0.0586,0.0511,9.8063,-0.071,0.0226,-0.1252,-9.44,-38.87,-4,194.76,-83.9,134.79
52.814747,-1.637214,104.16,11.7,4,328.62,21 / 23,113612,2019-11-06 11:47:47:493,-1.3354,3.1387,9.4309,-0.0147,-0.0094,9.8066,-0.1071,0.5485,-0.1744,-8.69,-39.19,-3.19,197.59,-84.12,133.25
52.814747,-1.637214,104.16,11.7,4,328.62,21 / 23,113711,2019-11-06 11:47:47:592,1.6432,-3.4516,9.1415,-0.0587,0.0643,9.8062,-0.0251,-0.2776,0.1121,-8.87,-39.31,-2.44,198.31,-83.94,128.81
52.814747,-1.637214,104.16,11.7,4,328.62,21 / 23,113811,2019-11-06 11:47:47:692,-1.6034,4.0018,8.8964,0.0027,-0.0309,9.8065,0.026,0.2505,-0.106,-8.44,-39.5,-1.44,200.99,-84.32,127.89
52.814747,-1.637214,104.16,11.7,4,328.62,21 / 23,113912,2019-11-06 11:47:47:793,2.8381,-3.4799,10.2403,-0.011,0.0154,9.8065,0.0749,-0.5727,0.355,-8.69,-38.37,-1.56,195.68,-84.34,124.45
52.814747,-1.637214,104.16,11.7,4,328.62,21 / 23,114011,2019-11-06 11:47:47:892,-0.8412,3.5467,9.992,-0.0013,0.0377,9.8065,-0.0095,-0.3802,0.1966,-8.5,-38.56,-1.19,199.01,-84.52,124.72
52.814747,-1.637214,104.16,11.7,4,328.62,21 / 23,114112,2019-11-06 11:47:47:993,-2.2387,2.5926,9.5428,0.021,-0.0537,9.8065,-0.0353,-0.2901,0.1224,-8.19,-37.56,-1.25,199.69,-84.74,125.11
52.814747,-1.637214,104.16,11.7,4,328.62,21 / 23,114212,2019-11-06 11:47:48:093,-1.2845,0.6911,8.4696,0.0098,-0.0293,9.8065,-0.1177,0.2836,-0.0356,-7.75,-37.19,-1.69,194.03,-84.99,123.46
52.814747,-1.637214,104.16,11.7,4,328.62,21 / 23,114312,2019-11-06 11:47:48:193,-2.3266,1.1622,10.4219,0.0273,-0.0656,9.8064,0.0157,-0.4263,0.3251,-8.44,-37.25,-2.12,193.71,-85.21,122.79
52.814747,-1.637214,104.16,11.7,4,328.62,21 / 23,114412,2019-11-06 11:47:48:293,1.5795,-5.0259,9.6735,0.016,-0.0232,9.8066,0.0215,0.0595,-0.033,-8.5,-37.62,-2.37,191.72,-85.1,120.31
52.814747,-1.637214,104.16,11.7,4,328.62,20 / 21,114512,2019-11-06 11:47:48:393,0.0732,-0.5807,10.2564,0.014,-0.0743,9.8063,-0.0276,0.5118,-0.2545,-8.56,-37.62,-2.25,194.7,-85.31,122.09
52.814747,-1.637214,104.16,11.7,4,328.62,20 / 21,114612,2019-11-06 11:47:48:493,-1.3504,-5.985,10.2226,0.0018,0.0291,9.8066,0.1422,-0.4939,0.146,-8.94,-38.25,-1.94,194.37,-85.05,121.91
52.814747,-1.637214,104.16,11.7,4,328.62,20 / 21,114712,2019-11-06 11:47:48:593,0.2603,2.0729,9.3899,0.0308,0.0137,9.8065,0.0389,-0.1309,0.0557,-8.94,-37.62,-1.37,200.19,-84.85,123.92
52.814747,-1.637214,104.16,11.7,4,328.62,20 / 21,114811,2019-11-06 11:47:48:692,-2.8109,1.947,10.1503,-0.033,0.0776,9.8062,0.1281,-0.4755,0.1552,-8.56,-37.94,-2.06,197.12,-85.08,125.56
52.814747,-1.637214,104.16,11.7,4,328.62,20 / 21,114912,2019-11-06 11:47:48:793,-2.8525,-1.6323,9.4024,-0.0273,0.0731,9.8063,-0.0198,0.5264,-0.3212,-8.81,-37.5,-0.87,198.85,-84.5,122.39
52.814747,-1.637214,104.16,11.7,4,328.62,20 / 21,115011,2019-11-06 11:47:48:892,1.034,3.7481,10.1586,0.0107,0.0013,9.8066,0.0721,0.2655,-0.1873,-8.31,-37.06,-0.5,205.45,-84.56,126.21
52.814747,-1.637214,104.16,11.7,4,328.62,20 / 21,115112,2019-11-06 11:47:48:993,-0.6843,-3.5922,9.4148,-0.003,0.055,9.8065,0.0055,0.359,-0.3756,-7.44,-36.5,-1.12,198.32,-84.27,125.57
52.814747,-1.637214,104.16,11.7,4,328.62,20 / 21,115212,2019-11-06 11:47:49:093,-2.2716,0.1827,9.8084,0.0021,-0.0212,9.8066,0.012,0.3338,-0.0978,-8.5,-35.44,-0.81,202.09,-84.46,128.19
52.814747,-1.637214,104.16,11.7,4,328.62,20 / 21,115312,2019-11-06 11:47:49:193,1.0683,-4.6926,9.9312,0.0037,0.03,9.8065,0.0119,0.3238,-0.192,-8.37,-34.5,-0.56,202.16,-84.41,128.1
52.814747,-1.637214,104.16,11.7,4,328.62,20 / 21,115412,2019-11-06 11:47:49:293,-0.677,1.1975,8.9776,-0.0041,-0.0537,9.8064,0.0801,0.223,-0.2974,-8.06,-34.25,-1.12,201.46,-84.42,127.12
52.814747,-1.637214,104.16,11.7,4,328.62,21 / 21,115512,2019-11-06 11:47:49:393,-0.2681,-4.1161,9.4476,-0.0193,0.0295,9.8065,0.0349,0.2679,-0.1796,-8.56,-33.87,-1.69,198.94,-84.5,127.98
52.814747,-1.637214,104.16,11.7,4,328.62,21 / 21,115612,2019-11-06 11:47:49:493,0.4962,1.9686,10.2597,0.0185,-0.0256,9.8065,0.0011,0.2579,-0.178,-8.44,-34.81,-2.5,198.44,-84.67,129.57
52.814747,-1.637214,104.16,11.7,4,328.62,21 / 21,115712,2019-11-06 11:47:49:593,-0.1514,-0.8608,9.714,0.0058,0.0098,9.8066,-0.0313,0.0657,0.1014,-9.12,-34.69,-3.5,195.73,-84.59,129.51
52.814747,-1.637214,104.16,11.7,4,328.62,21 / 21,115812,2019-11-06 11:47:49:693,-1.1985,-0.9747,10.1775,0.0073,-0.0266,9.8065,-0.022,0.1121,-0.0109,-10.25,-35.56,-3.37,199.52,-84.99,131.93
52.814747,-1.637214,104.16,11.7,4,328.62,21 / 21,115912,2019-11-06 11:47:49:793,1.033,-1.8077,10.7714,0.0079,-0.0379,9.8065,-0.048,-0.0883,-0.0205,-10.44,-37.25,-4.81,192.73,-85.14,132.79
52.814747,-1.637214,104.16,11.7,4,328.62,21 / 21,116012,2019-11-06 11:47:49:893,-1.2365,-3.3196,9.3686,-0.003,0.0023,9.8066,0.1041,0.0295,0.0064,-10,-38.75,-4.25,196.78,-85.17,133.57
52.814747,-1.637214,104.16,11.7,4,328.62,21 / 21,116112,2019-11-06 11:47:49:993,-1.6614,-3.3376,10.2982,-0.0007,-0.0165,9.8066,0.0127,-0.1103,0.0204,-10.06,-39.5,-3.37,201.31,-85.02,134.71
52.814747,-1.637214,104.16,11.7,4,328.62,21 / 21,116212,2019-11-06 11:47:50:093,0.2225,-1.8039,9.6907,-0.0028,0.0117,9.8066,-0.0582,0.0579,-0.0319,-9.69,-40.31,-2.5,203.75,-84.77,133.26
52.814747,-1.637214,104.16,11.7,4,328.62,21 / 21,116312,2019-11-06 11:47:50:193,0.4168,1.1569,9.1479,-0.0019,-0.0055,9.8066,-0.0325,-0.1624,0.0264,-9.56,-40.19,-1.75,201.9,-84.81,130.74
52.814747,-1.637214,104.16,11.7,4,328.62,21 / 21,116412,2019-11-06 11:47:50:293,-0.9491,-0.1204,9.6708,-0.015,0.0169,9.8066,-0.03,-0.1029,0.1442,-9.69,-40,-1.56,198.73,-84.87,126.44
52.814747,-1.637214,104.16,11.7,4,328.62,22 / 24,116512,2019-11-06 11:47:50:393,-1.0558,-0.3579,9.1905,-0.0107,-0.0181,9.8066,0.0098,-0.0242,-0.0612,-8.56,-39.06,-1.5,201.86,-85.04,126.1
52.814747,-1.637214,104.16,11.7,4,328.62,22 / 24,116612,2019-11-06 11:47:50:493,0.6297,0.519,10.1449,-0.0341,-0.0084,9.8066,0.0378,-0.0134,-0.056,-9.19,-38,-0.44,205.52,-85.04,124.49
52.814747,-1.637214,104.16,11.7,4,328.62,22 / 24,116712,2019-11-06 11:47:50:593,0.6129,-0.9168,9.7394,0.0022,0.0334,9.8066,0.002,-0.036,0.0926,-9.25,-37.69,-1.31,198.95,-85.09,121.93
52.814747,-1.637214,104.16,11.7,4,328.62,22 / 24,116812,2019-11-06 11:47:50:693,1.6227,0.4955,9.356,0.0254,0.0371,9.8065,0.0585,-0.014,-0.0221,-8.56,-37.06,-1.25,200.02,-84.94,123.38
52.814747,-1.637214,104.16,11.7,4,328.62,22 / 24,116912,2019-11-06 11:47:50:793,-0.3602,-1.2549,10.5066,-0.0044,0.0228,9.8066,0.0813,-0.0685,0.0674,-8.5,-36.44,-1,200.1,-84.76,125.21
52.814747,-1.637214,104.16,11.7,4,328.62,22 / 24,117012,2019-11-06 11:47:50:893,0.377,-0.5121,10.5625,-0.0005,-0.0049,9.8066,-0.0867,-0.0041,0.0361,-8,-35.75,-0.31,204.64,-84.65,124.62
52.814747,-1.637214,104.16,11.7,4,328.62,22 / 24,117112,2019-11-06 11:47:50:993,-1.6592,-2.001,9.3563,-0.029,0.0096,9.8065,-0.0247,-0.0464,0.0136,-8.12,-34.37,-1.12,198.05,-84.6,122.18
52.814747,-1.637214,104.16,11.7,4,328.62,22 / 24,117212,2019-11-06 11:47:51:093,-0.9907,-1.0524,9.9175,-0.0257,-0.0159,9.8065,-0.0024,0.005,0.0116,-8.25,-33.69,-1.94,191.89,-84.66,120.42
52.814747,-1.637214,104.16,11.7,4,328.62,22 / 24,117312,2019-11-06 11:47:51:193,0.0436,-1.9326,9.6581,-0.0194,0.0273,9.8066,-0.0106,-0.0905,0.0357,-8.56,-33.44,-2.81,186.93,-84.5,117.64
52.814747,-1.637214,104.16,11.7,4,328.62,22 / 24,117412,2019-11-06 11:47:51:293,0.138,0.0063,9.4128,-0.009,0.0281,9.8066,0.0589,0.196,-0.0883,-7.62,-33.87,-2.94,184.05,-84.43,116.15
52.814747,-1.637214,104.16,11.7,4,328.62,22 / 23,117513,2019-11-06 11:47:51:394,0.7175,1.813,9.858,0.02,0.0236,9.8066,-0.1207,-0.0436,0.0249,-7.25,-34.87,-1.75,186.61,-84.42,115.61
52.814747,-1.637214,104.16,11.7,4,328.62,22 / 23,117612,2019-11-06 11:47:51:493,-0.18,0.319,9.7766,0.0069,-0.0199,9.8066,-0.0372,0.0766,-0.062,-6.81,-35.06,-0.94,191.6,-84.33,115.32
52.814747,-1.637214,104.16,11.7,4,328.62,22 / 23,117712,2019-11-06 11:47:51:593,-2.0147,0.2207,9.9143,0.0175,-0.018,9.8065,-0.0019,-0.1699,0.1687,-6.56,-35.25,-1.12,192.41,-84.45,116.39
52.814747,-1.637214,104.16,11.7,4,328.62,22 / 23,117811,2019-11-06 11:47:51:692,0.3543,-2.8848,9.2691,0.0054,-0.0154,9.8066,-0.0241,-0.0179,-0.0162,-7.81,-35.06,-1.31,193.59,-84.56,116.21
52.814747,-1.637214,104.16,11.7,4,328.62,22 / 23,117911,2019-11-06 11:47:51:792,-0.4702,-0.1966,9.2202,-0.0029,-0.035,9.8065,-0.0586,-0.177,0.164,-8,-35.5,-1.94,188.72,-84.59,116.2
52.814747,-1.637214,104.16,11.7,4,328.62,22 / 23,118012,2019-11-06 11:47:51:893,0.4379,-3.2679,10.1312,-0.0224,-0.0106,9.8066,0.0866,-0.083,0.1024,-8.81,-33.75,-1,194.62,-84.63,115.99
52.814747,-1.637214,104.16,11.7,4,328.62,22 / 23,118112,2019-11-06 11:47:51:993,-0.421,1.3483,9.6691,0.0178,-0.034,9.8065,0.0597,-0.3224,0.1525,-8.06,-33.44,-1.5,195.32,-84.71,118.11
52.814747,-1.637214,104.16,11.7,4,328.62,22 / 23,118212,2019-11-06 11:47:52:093,0.0376,-5.1147,9.5896,0.0045,0.0298,9.8066,0.0603,-0.4044,0.2303,-7.56,-34.25,-2.81,185.23,-84.71,117.68
52.814747,-1.637214,104.16,11.7,4,328.62,22 / 23,118312,2019-11-06 11:47:52:193,-0.3147,3.3017,10.935,0.0121,0.0056,9.8066,-0.0296,-0.1178,0.1271,-7.06,-35.87,-1.69,189.76,-84.6,120.18
52.814747,-1.637214,104.16,11.7,4,328.62,22 / 23,118412,2019-11-06 11:47:52:293,-1.4622,1.8089,9.8193,-0.0042,0.0659,9.8064,0.1418,-0.4603,0.3174,-7,-36.81,0,201.78,-84.43,122.67
52.815567,-1.638044,104.39,11.5,4,327.56,21 / 23,118512,2019-11-06 11:47:52:393,-0.747,-1.2153,10.354,0.003,0.0467,9.8064,-0.0815,0.2372,-0.2083,-7,-35.19,0.56,209.73,-84.46,125.21
52.815567,-1.638044,104.39,11.5,4,327.56,21 / 23,118612,2019-11-06 11:47:52:493,-2.3687,1.1521,9.6952,-0.0354,0.0479,9.8064,0.0264,-0.2671,0.2406,-6.62,-34.06,-0.62,199.93,-84.74,126.63
52.815567,-1.638044,104.39,11.5,4,327.56,21 / 23,118713,2019-11-06 11:47:52:594,-3.67,1.353,9.6521,-0.0255,0.0358,9.8065,-0.0797,0.5604,-0.1055,-7.19,-35.31,-2.62,187.36,-84.65,123.68
52.815567,-1.638044,104.39,11.5,4,327.56,21 / 23,118812,2019-11-06 11:47:52:693,-1.6495,1.5439,9.8366,0.009,-0.0198,9.8066,-0.0779,0.0887,-0.1915,-8.5,-35.62,-2.25,196.31,-84.83,126.63
52.815567,-1.638044,104.39,11.5,4,327.56,21 / 23,118912,2019-11-06 11:47:52:793,1.7984,-1.9566,7.9794,-0.0337,0.0922,9.8061,0.1445,0.4416,-0.0438,-8.25,-35.87,-1.81,193.7,-84.53,123.33
52.815567,-1.638044,104.39,11.5,4,327.56,21 / 23,119012,2019-11-06 11:47:52:893,-2.9663,-0.618,8.1345,0.095,0.0123,9.8061,-0.2491,0.2374,-0.2268,-7.19,-36.12,-1.75,195.72,-84.36,129.16
52.815567,-1.638044,104.39,11.5,4,327.56,21 / 23,119112,2019-11-06 11:47:52:993,-0.1563,0.6402,10.0904,-0.0424,0.0075,9.8065,-0.0438,-0.1304,0.1399,-5.87,-35.75,-2,190.3,-84.33,124.46
52.815567,-1.638044,104.39,11.5,4,327.56,21 / 23,119212,2019-11-06 11:47:53:093,-3.7312,-4.6284,9.1937,-0.0198,-0.0076,9.8066,0.2553,-0.0651,-0.0989,-6.31,-36.69,-1,197.3,-84.09,127.42
52.815567,-1.638044,104.39,11.5,4,327.56,21 / 23,119311,2019-11-06 11:47:53:192,-4.3255,-3.8475,9.8349,0.045,0.016,9.8065,0.1934,-0.1379,-0.0829,-5.87,-35.81,-1.69,192.78,-83.57,129.26
52.815567,-1.638044,104.39,11.5,4,327.56,21 / 23,119411,2019-11-06 11:47:53:292,1.8176,-1.6624,10.7404,0.0118,0.0293,9.8065,0.1246,-0.0971,0.1235,-5.62,-35.62,-0.87,199.06,-83.04,131.95
52.815567,-1.638044,104.39,11.5,4,327.56,20 / 21,119512,2019-11-06 11:47:53:393,0.7698,0.1851,9.9305,0.018,0.0025,9.8066,-0.0808,0.0729,-0.0786,-6.37,-36.25,-0.94,199.86,-83.02,133.34
52.815567,-1.638044,104.39,11.5,4,327.56,20 / 21,119612,2019-11-06 11:47:53:493,2.2246,-1.3852,9.0379,-0.0132,-0.0136,9.8066,-0.0921,-0.0079,-0.0369,-6.06,-35.56,-1.37,198.96,-83.15,131.57
52.815567,-1.638044,104.39,11.5,4,327.56,20 / 21,119712,2019-11-06 11:47:53:593,0.1103,-2.5808,9.963,-0.01,-0.0267,9.8066,0.0309,-0.1575,0.1222,-7.19,-35,-1.81,195.57,-83.32,130.05
52.815567,-1.638044,104.39,11.5,4,327.56,20 / 21,119812,2019-11-06 11:47:53:693,3.074,-0.7815,10.7606,-0.001,-0.0434,9.8065,0.0598,0.125,-0.0893,-6.25,-34.94,-2.06,191.9,-83.26,127.96
52.815567,-1.638044,104.39,11.5,4,327.56,20 / 21,119912,2019-11-06 11:47:53:793,0.822,1.4918,9.2807,-0.0024,-0.0497,9.8065,0.0187,-0.2831,0.128,-7.87,-35,-2.62,192.04,-83.63,127.97
52.815567,-1.638044,104.39,11.5,4,327.56,20 / 21,120012,2019-11-06 11:47:53:893,1.7688,-2.1241,9.2893,-0.0135,-0.0048,9.8065,-0.1118,-0.1845,0.155,-8,-35.06,-2.31,194.33,-83.93,124.67
52.815567,-1.638044,104.39,11.5,4,327.56,20 / 21,120112,2019-11-06 11:47:53:993,-0.1937,0.9602,10.2488,-0.0328,-0.0558,9.8063,-0.0583,-0.1649,0.2132,-7.81,-35.25,-1.87,193.84,-84.32,123.58
52.815567,-1.638044,104.39,11.5,4,327.56,20 / 21,120212,2019-11-06 11:47:54:093,-0.2193,-2.4995,10.2036,-0.0309,-0.0176,9.8066,0.1284,0.0192,-0.1016,-9.06,-34.87,-1.25,200.35,-84.26,124.33
52.815567,-1.638044,104.39,11.5,4,327.56,20 / 21,120312,2019-11-06 11:47:54:193,1.0044,-0.1613,10.5339,0.0238,0.0049,9.8065,0.0017,-0.0429,-0.2172,-8.5,-35.19,-1.06,199.15,-84.04,124.69
52.815567,-1.638044,104.39,11.5,4,327.56,20 / 21,120412,2019-11-06 11:47:54:293,0.1858,-2.6583,9.8456,0.0053,0.0491,9.8065,0.0025,-0.0223,0.3142,-8.12,-33.75,-0.5,204.88,-84.37,124.89
52.815567,-1.638044,104.39,11.5,4,327.56,21 / 23,120513,2019-11-06 11:47:54:394,0.9655,0.2455,9.5445,-0.0015,-0.0457,9.8065,-0.0636,-0.04,-0.2392,-8.25,-33.81,-1.56,195.55,-84.51,125.59
52.815567,-1.638044,104.39,11.5,4,327.56,21 / 23,120612,2019-11-06 11:47:54:493,-0.312,0.9276,7.3627,-0.0218,-0.0207,9.8066,-0.0455,-0.0076,-0.0337,-8.19,-33.94,-1.56,192.52,-84.53,121.39
52.815567,-1.638044,104.39,11.5,4,327.56,21 / 23,120712,2019-11-06 11:47:54:593,0.3688,-3.4884,8.3927,-0.0635,0.004,9.8064,0.0223,0.2648,-0.0186,-8.56,-34.31,-1.19,197.19,-84.67,119.38
52.815567,-1.638044,104.39,11.5,4,327.56,21 / 23,120812,2019-11-06 11:47:54:693,-1.1385,1.818,10.6726,0.0001,-0.0606,9.8065,-0.0478,0.3785,-0.365,-8.5,-33.75,-1.94,190.34,-85.01,118.02
52.815567,-1.638044,104.39,11.5,4,327.56,21 / 23,120911,2019-11-06 11:47:54:792,-0.7421,1.9346,8.5878,0.0169,0.0267,9.8065,0.0574,-0.2125,0.1335,-8.5,-33.37,-2.44,188.58,-84.8,115.69
52.815567,-1.638044,104.39,11.5,4,327.56,21 / 23,121012,2019-11-06 11:47:54:893,-1.3824,1.9336,9.1842,0.015,-0.0494,9.8064,-0.1623,0.3964,-0.1288,-8.06,-33.94,-2.12,185.65,-84.98,111.7
52.815567,-1.638044,104.39,11.5,4,327.56,21 / 23,121112,2019-11-06 11:47:54:993,-2.0168,-0.0642,10.7946,0.0149,-0.1068,9.806,-0.1363,-0.4507,0.2227,-9.44,-33.62,-3.31,182.33,-85.38,111.43
52.815567,-1.638044,104.39,11.5,4,327.56,21 / 23,121212,2019-11-06 11:47:55:093,3.2893,-4.361,9.5752,-0.0199,-0.041,9.8065,0.0879,-0.0648,0.092,-9.75,-33.62,-3.62,176.68,-85.44,107.66
52.815567,-1.638044,104.39,11.5,4,327.56,21 / 23,121312,2019-11-06 11:47:55:193,-1.1597,-0.0709,10.5628,0.0417,-0.0558,9.8063,0.1153,-0.3716,0.2599,-10.31,-33.94,-3.37,182.71,-85.55,110.08
52.815567,-1.638044,104.39,11.5,4,327.56,21 / 23,121412,2019-11-06 11:47:55:293,-0.2626,-4.6456,9.5168,-0.0027,0.0166,9.8065,-0.086,-0.3207,0.1641,-9.94,-34,-2,185.27,-85.24,108.02
52.815567,-1.638044,104.39,11.5,4,327.56,20 / 21,121512,2019-11-06 11:47:55:393,0.9242,-0.709,10.7104,-0.0188,-0.0105,9.8066,-0.0822,-0.1053,0.2032,-9,-33.81,-0.75,187.3,-85.37,105.82
52.815567,-1.638044,104.39,11.5,4,327.56,20 / 21,121612,2019-11-06 11:47:55:493,0.7493,-1.5896,9.5728,-0.0219,0.0221,9.8065,0.0246,-0.1724,-0.0105,-7.5,-33.62,-1.31,184.39,-85.23,104.26
52.815567,-1.638044,104.39,11.5,4,327.56,20 / 21,121712,2019-11-06 11:47:55:593,1.6974,-2.3054,9.0862,-0.0038,0.0342,9.8066,0.0972,0.1798,-0.2833,-7.06,-34.75,-1.75,177.9,-84.88,102.95
52.815567,-1.638044,104.39,11.5,4,327.56,20 / 21,121811,2019-11-06 11:47:55:692,0.8129,-0.0896,10.7429,-0.0168,0.0159,9.8066,-0.0978,0.4045,-0.0091,-6.87,-34.75,-2.06,178.4,-84.73,103.65
52.815567,-1.638044,104.39,11.5,4,327.56,20 / 21,121912,2019-11-06 11:47:55:793,0.561,-5.0217,10.1394,0.0094,-0.0314,9.8066,-0.0874,-0.0991,0.0209,-7.12,-34.87,-1.5,182.09,-84.88,101.13
52.815567,-1.638044,104.39,11.5,4,327.56,20 / 21,122012,2019-11-06 11:47:55:893,0.9323,-2.2752,10.1775,-0.002,-0.0664,9.8064,0.1244,0.3857,-0.1037,-7.37,-35.44,-2.56,170.99,-85,100.62
52.815567,-1.638044,104.39,11.5,4,327.56,20 / 21,122112,2019-11-06 11:47:55:993,-1.8693,4.1641,9.0992,0.0219,-0.0973,9.8061,0.1257,-0.484,0.2773,-8.12,-35.75,-2.87,174.13,-85.13,102.61
52.815567,-1.638044,104.39,11.5,4,327.56,20 / 21,122211,2019-11-06 11:47:56:092,1.1793,-2.7647,9.4259,0.01,-0.0105,9.8066,-0.0792,-0.1891,0.1294,-7.25,-36.87,-3.94,165.41,-84.86,99.26
52.815567,-1.638044,104.39,11.5,4,327.56,20 / 21,122311,2019-11-06 11:47:56:192,-0.866,5.1151,9.2799,0.0182,-0.0379,9.8065,0.1088,-0.4578,0.4495,-8,-37.62,-3.31,172.13,-85.11,99.74
52.815567,-1.638044,104.39,11.5,4,327.56,20 / 21,122411,2019-11-06 11:47:56:292,-0.0506,-3.1204,9.6813,-0.0059,0.0234,9.8065,0.0046,-0.4368,0.0944,-8.69,-38,-3.5,173.88,-84.86,100.15
52.815567,-1.638044,104.39,11.5,4,327.56,21 / 22,122512,2019-11-06 11:47:56:393,-1.852,2.8303,8.817,-0.0096,-0.0252,9.8065,0.0282,-0.2216,0.1395,-8.31,-38.56,-3.06,172,-84.94,99.38
52.815567,-1.638044,104.39,11.5,4,327.56,21 / 22,122612,2019-11-06 11:47:56:493,1.0023,-1.275,9.9363,-0.0264,0.0437,9.8065,0.0152,-0.3919,0.1695,-9.31,-39.37,-2.5,176.32,-84.91,97.49
52.815567,-1.638044,104.39,11.5,4,327.56,21 / 22,122712,2019-11-06 11:47:56:593,1.1015,-4.074,9.7723,-0.0128,0.0233,9.8066,-0.1126,0.1038,-0.1353,-9.12,-40,-3.12,170.65,-85.05,95.73
52.815567,-1.638044,104.39,11.5,4,327.56,21 / 22,122812,2019-11-06 11:47:56:693,-1.2109,2.4257,9.9531,-0.0155,0.0614,9.8064,0.0104,-0.2882,0.3539,-9.19,-39.37,-1.5,178.53,-85.53,94.38
52.815567,-1.638044,104.39,11.5,4,327.56,21 / 22,122912,2019-11-06 11:47:56:793,1.9909,-1.4574,10.3406,-0.0094,0.0023,9.8066,-0.1341,0.3098,-0.0857,-9.44,-39.87,-2.12,172.35,-85.56,92.33
52.815567,-1.638044,104.39,11.5,4,327.56,21 / 22,123012,2019-11-06 11:47:56:893,-2.756,4.3022,8.3645,-0.0059,0.0121,9.8066,0.1347,-0.1992,-0.0184,-8.44,-38.87,-1.06,177.54,-85.55,93.76
52.815567,-1.638044,104.39,11.5,4,327.56,21 / 22,123112,2019-11-06 11:47:56:993,2.3027,0.2407,8.9328,-0.0501,0.0929,9.806,-0.0162,0.6569,-0.2536,-9.31,-38.56,-0.19,183,-85.5,94.01
52.815567,-1.638044,104.39,11.5,4,327.56,21 / 22,123212,2019-11-06 11:47:57:093,-2.4381,4.6375,10.3459,-0.0086,-0.0273,9.8066,-0.1803,0.2749,-0.2886,-8.94,-37.75,-0.25,180.34,-86.05,90.44
52.815567,-1.638044,104.39,11.5,4,327.56,21 / 22,123312,2019-11-06 11:47:57:193,0.4715,-6.431,10.6348,-0.0171,0.083,9.8063,-0.1274,0.7273,-0.4434,-8.75,-37.19,-0.5,177.66,-85.71,86.95
52.815567,-1.638044,104.39,11.5,4,327.56,21 / 22,123412,2019-11-06 11:47:57:293,-0.2902,4.9514,9.4602,0.0221,-0.0449,9.8064,-0.0844,0.7586,-0.2536,-8.56,-35.94,-0.06,179.83,-86.17,89.79
52.815567,-1.638044,104.39,11.5,4,327.56,20 / 22,123512,2019-11-06 11:47:57:393,2.0835,-5.6609,9.4555,0.0135,-0.0136,9.8066,-0.0586,0.1758,-0.2138,-9.25,-35.06,-0.87,177.52,-86.43,93.26
52.815567,-1.638044,104.39,11.5,4,327.56,20 / 22,123612,2019-11-06 11:47:57:493,-2.4368,-6.3009,10.3206,0.0402,-0.0887,9.8061,-0.0031,0.7178,-0.3727,-8.87,-35.62,-2.25,176.17,-86.65,97.84
52.815567,-1.638044,104.39,11.5,4,327.56,20 / 22,123712,2019-11-06 11:47:57:593,-1.7441,-4.3577,9.79,0.04,-0.0516,9.8064,0.1845,-0.2896,0.183,-9.19,-35.87,-1.94,179.03,-86.4,101.33
52.815567,-1.638044,104.39,11.5,4,327.56,20 / 22,123812,2019-11-06 11:47:57:693,1.7888,-2.2506,9.5647,0.0282,-0.0252,9.8065,-0.0213,0.0217,-0.1185,-8.44,-35.62,-2,180.28,-86.11,104.4
52.815567,-1.638044,104.39,11.5,4,327.56,20 / 22,123912,2019-11-06 11:47:57:793,-1.6758,0.5119,10.0869,0.02,-0.0113,9.8066,0.1024,-0.2071,0.2296,-9,-35.87,-2.37,181.3,-85.99,104.18
52.815567,-1.638044,104.39,11.5,4,327.56,20 / 22,124012,2019-11-06 11:47:57:893,-0.7598,-1.862,11.0538,0.0149,0.0026,9.8066,0.0689,-0.1105,-0.0868,-9.75,-36.69,-1.56,181.11,-85.89,102.7
52.815567,-1.638044,104.39,11.5,4,327.56,20 / 22,124112,2019-11-06 11:47:57:993,0.6742,-1.7038,10.6427,0.0016,0.0068,9.8066,-0.0478,0.0164,-0.0881,-8.5,-36.81,-1.5,186.53,-85.56,105.95
52.815567,-1.638044,104.39,11.5,4,327.56,20 / 22,124212,2019-11-06 11:47:58:093,2.1087,-0.538,9.3206,-0.0147,0.0163,9.8066,0.0007,0.0287,0.0438,-8.81,-37.19,-1.87,184.72,-85.39,108.76
52.815567,-1.638044,104.39,11.5,4,327.56,20 / 22,124312,2019-11-06 11:47:58:193,1.2136,-3.1789,9.6077,0.0004,-0.0136,9.8066,0.0094,-0.125,-0.0608,-8.94,-37.81,-2,183.25,-85.47,106.83
52.815567,-1.638044,104.39,11.5,4,327.56,20 / 22,124412,2019-11-06 11:47:58:293,-0.0261,-1.9479,9.0913,0.0015,-0.0012,9.8066,-0.1345,0.0841,-0.0084,-8.62,-37.37,-1.62,177.81,-85.52,99.65
52.815567,-1.638044,104.39,11.5,4,327.56,20 / 23,124512,2019-11-06 11:47:58:393,-0.5249,0.2521,10.5329,-0.0127,-0.0218,9.8065,-0.0219,-0.2696,0.1476,-8.69,-36.25,-0.44,185.26,-85.54,96.88
52.815567,-1.638044,104.39,11.5,4,327.56,20 / 23,124612,2019-11-06 11:47:58:493,-1.1171,-2.24,12.0129,-0.0158,0.0028,9.8066,0.3218,-0.1217,-0.0107,-8.56,-35.87,-0.81,182.93,-85.4,100.19
52.815567,-1.638044,104.39,11.5,4,327.56,20 / 23,124712,2019-11-06 11:47:58:593,-0.571,-2.2762,9.6328,0.0427,-0.0148,9.8065,0.1224,0.0477,-0.215,-9.19,-36.37,-2,182.06,-85.17,105.26
52.815567,-1.638044,104.39,11.5,4,327.56,20 / 23,124812,2019-11-06 11:47:58:693,-0.3488,1.2511,11.1755,0.0139,0.0442,9.8065,-0.0783,0.0013,0.1021,-8.62,-36.94,-2.37,182.19,-84.79,105.51
52.815567,-1.638044,104.39,11.5,4,327.56,20 / 23,124912,2019-11-06 11:47:58:793,0.4634,-3.77,11.0509,0.0182,0.0517,9.8064,-0.0823,0.1253,0.0295,-8.56,-36.69,-2.31,182.46,-84.78,105.88
52.815567,-1.638044,104.39,11.5,4,327.56,20 / 23,125012,2019-11-06 11:47:58:893,-1.6813,1.4751,8.5219,-0.0079,-0.0227,9.8066,-0.0765,0.1334,-0.3218,-8.06,-36.5,-2.31,178.32,-84.53,101.67
52.815567,-1.638044,104.39,11.5,4,327.56,20 / 23,125112,2019-11-06 11:47:58:993,0.434,-3.1263,9.5248,-0.0674,0.034,9.8063,0.0751,0.3086,-0.3002,-8.25,-36.19,-2.19,175.41,-84.13,97.43
52.815567,-1.638044,104.39,11.5,4,327.56,20 / 23,125212,2019-11-06 11:47:59:093,-1.7443,0.4832,9.7714,-0.0177,0.0035,9.8066,0.0626,0.1733,-0.216,-9,-36.37,-3,170.24,-84.14,94.95
52.815567,-1.638044,104.39,11.5,4,327.56,20 / 23,125312,2019-11-06 11:47:59:193,0.5889,-4.3553,10.2803,0.0172,0.0616,9.8064,0.0576,0.1176,-0.1042,-8.37,-36.87,-2.75,169.41,-83.77,95.08
52.815567,-1.638044,104.39,11.5,4,327.56,20 / 23,125412,2019-11-06 11:47:59:293,-1.6209,-4.0245,9.7427,0.0615,-0.0031,9.8064,-0.1499,0.3597,-0.0789,-8.06,-36.19,-2.94,169.87,-83.94,96
52.815567,-1.638044,104.39,11.5,4,327.56,21 / 21,125512,2019-11-06 11:47:59:393,-1.8971,2.0688,10.1892,-0.0175,-0.0506,9.8065,0.0806,0.6199,-0.319,-8.75,-36.56,-2,175.24,-83.95,95.78
