GPS LATITUDE (degrees), GPS LONGITUDE (degrees), GPS ALTITUDE (m), GPS SPEED (Kmh), GPS ACCURACY (m), GPS ORIENTATION (Â°),GPS SATELLITES IN RANGE, TIME SINCE START (ms), DATE (YYYY-MO-DD HH-MI-SS_SSS), ACCELEROMETER X (m/s²) , ACCELEROMETER Y (m/s²), ACCELEROMETER Z (m/s²), GRAVITY X (m/s²), GRAVITY Y (m/s²), GRAVITY Z (m/s²), GYROSCOPE Yaw (rad/s), GYROSCOPE Pitch (rad/s), GYROSCOPE Roll (rad/s), MAGNETIC FIELD X (Î¼T), MAGNETIC FIELD Y (Î¼T), MAGNETIC FIELD Z (Î¼T), ORIENTATION (Yaw) (Â°), ORIENTATION (Pitch) (Â°), ORIENTATION (Roll ) (Â°)
53.171104,-1.672992,221.43,6,2,135.47,19 / 20,581214,2019-11-06 16:16:01:676,-5.4137,-5.233,8.9963,0.0506,0.0519,9.8064,-0.0732,-0.7245,0.3833,-21.87,-35.94,28.56,301.65,-88.44,160.16
53.171104,-1.672992,221.43,6,2,135.47,19 / 20,581314,2019-11-06 16:16:01:776,1.6003,-0.589,10.8384,-0.0508,-0.075,9.8062,0.1371,0.0856,-0.0362,-21.19,-35.87,28.19,316.23,-88.58,174.12
53.171104,-1.672992,221.43,6,2,135.47,19 / 20,581414,2019-11-06 16:16:01:876,4.4222,2.9474,10.244,0.0136,0.0195,9.8066,0.1315,-0.9277,0.2934,-21.56,-36.12,28.75,298.55,-88.85,156.74
53.171104,-1.672992,221.43,6,2,135.47,19 / 20,581514,2019-11-06 16:16:01:976,2.0251,1.4183,7.5137,-0.0357,-0.07,9.8062,-0.0248,-0.2144,0.2178,-21.19,-35.62,29.13,304.98,-88.78,161.9
53.171104,-1.672992,221.43,6,2,135.47,19 / 20,581614,2019-11-06 16:16:02:076,2.185,-1.3307,8.4119,0.0076,-0.0286,9.8065,-0.0254,-0.6395,0.3741,-21.12,-35.94,29.44,312.43,-88.35,169.58
53.171104,-1.672992,221.43,6,2,135.47,19 / 20,581714,2019-11-06 16:16:02:176,-1.0272,-3.878,9.0385,-0.0709,-0.0286,9.8064,0.0015,-0.2004,0.1066,-22,-36.12,28.69,323.59,-88.29,-178.21
53.171104,-1.672992,221.43,6,2,135.47,19 / 20,581813,2019-11-06 16:16:02:275,0.0258,-2.5944,10.1109,-0.0375,-0.0061,9.8065,0.028,-0.2303,0.1085,-21.44,-36.19,28.63,332.83,-88.65,-170.63
53.171104,-1.672992,221.43,6,2,135.47,19 / 22,581913,2019-11-06 16:16:02:375,1.0103,-2.1525,10.8859,-0.0102,-0.0387,9.8066,0.0905,-0.1319,-0.0203,-21,-35.94,27.94,327.22,-89.52,-175.64
53.171104,-1.672992,221.43,6,2,135.47,19 / 22,582013,2019-11-06 16:16:02:475,-0.1281,-1.1837,9.7694,0.0249,0.0012,9.8065,0.1247,-0.0612,-0.1185,-21.62,-35.75,27.81,358.9,-89.58,-142.94
53.171104,-1.672992,221.43,6,2,135.47,19 / 22,582114,2019-11-06 16:16:02:576,-0.5141,-1.0116,9.9406,0.035,-0.0513,9.8064,0.1559,-0.2143,0.0647,-20.75,-36.12,28.13,333.35,-89.4,-169.5
53.171104,-1.672992,221.43,6,2,135.47,19 / 22,582214,2019-11-06 16:16:02:676,3.275,-0.8308,10.103,-0.0033,-0.0384,9.8065,-0.006,0.1285,-0.0328,-21.56,-36.06,28.75,323.29,-88.81,-178.82
53.171104,-1.672992,221.43,6,2,135.47,19 / 22,582314,2019-11-06 16:16:02:776,3.4762,3.4434,9.0021,0.0213,0.0693,9.8064,-0.2431,0.0774,-0.1579,-21.19,-35.81,28.88,300.03,-88.72,157.06
53.171104,-1.672992,221.43,6,2,135.47,19 / 22,582414,2019-11-06 16:16:02:876,0.0726,0.3332,10.2858,-0.022,0.0406,9.8065,-0.1339,0.316,-0.0796,-21.62,-36.19,29,312.89,-89.23,170.64
53.171104,-1.672992,221.43,6,2,135.47,19 / 22,582514,2019-11-06 16:16:02:976,2.0745,0.8259,10.144,0.0136,-0.0049,9.8066,-0.0609,0.2925,-0.2197,-20.5,-35.81,28.5,324.51,-89.78,179.23
53.171104,-1.672992,221.43,6,2,135.47,19 / 22,582614,2019-11-06 16:16:03:076,2.1419,2.7291,8.5928,0.0347,0.004,9.8066,0.0811,-0.3253,0.0437,-21.25,-35.94,28.13,321.4,-89.86,178.36
53.171104,-1.672992,221.43,6,2,135.47,19 / 22,582714,2019-11-06 16:16:03:176,-3.4211,-4.0779,9.5709,0.0032,-0.0379,9.8065,0.0769,-0.6167,0.2693,-21.31,-35.94,27.88,338.04,-89.69,-164.97
53.171104,-1.672992,221.43,6,2,135.47,19 / 22,582814,2019-11-06 16:16:03:276,1.521,-0.426,10.0281,-0.0546,-0.0756,9.8061,-0.2787,0.6535,-0.3259,-21.37,-36.06,28.13,0.47,-89.11,-142.66
53.171104,-1.672992,221.43,6,2,135.47,17 / 20,582914,2019-11-06 16:16:03:376,3.3254,1.8838,8.2958,-0.0145,0.0561,9.8064,-0.0985,0.1829,0.0254,-21.12,-36.37,28.06,10.35,-89.74,-132.83
53.171104,-1.672992,221.43,6,2,135.47,17 / 20,583014,2019-11-06 16:16:03:476,-1.8146,-0.3533,8.8276,0.0041,0.0324,9.8065,-0.1434,0.1009,-0.096,-21.5,-36.44,27.56,37.69,-89.64,-105.66
53.171104,-1.672992,221.43,6,2,135.47,17 / 20,583114,2019-11-06 16:16:03:576,1.9161,-0.9484,10.8207,0.0265,-0.0157,9.8066,0.1063,0.212,-0.1041,-21.94,-35.94,28.25,64.77,-89.33,-77.69
53.171104,-1.672992,221.43,6,2,135.47,17 / 20,583214,2019-11-06 16:16:03:676,-1.8943,-2.0209,11.2892,0.0338,0.004,9.8065,-0.0723,0.059,-0.1514,-21.62,-36.56,28.13,57.78,-89.48,-84.53
53.171104,-1.672992,221.43,6,2,135.47,17 / 20,583314,2019-11-06 16:16:03:776,3.4558,1.1651,10.0424,-0.0044,0.0442,9.8065,-0.0426,0.3861,-0.0438,-21.31,-36.19,28.44,21.18,-89.6,-122.1
53.171104,-1.672992,221.43,6,2,135.47,17 / 20,583414,2019-11-06 16:16:03:876,-0.972,-1.7143,9.2113,0.0512,0.025,9.8064,0.035,-0.2191,0.0627,-20.94,-36.25,27.5,302.24,-89.65,159.41
53.171104,-1.672992,221.43,6,2,135.47,17 / 20,583513,2019-11-06 16:16:03:975,-1.4307,-0.875,12.2028,0.0156,-0.0095,9.8066,0.0088,0.1584,-0.1197,-21,-35.87,27.63,3.83,-89.84,-139.31
53.171104,-1.672992,221.43,6,2,135.47,17 / 20,583613,2019-11-06 16:16:04:075,-0.3966,1.2564,9.827,-0.0003,0.0199,9.8066,0.0398,-0.0599,0.0091,-20.87,-36.06,27.5,157.16,-89.86,13.98
53.171104,-1.672992,221.43,6,2,135.47,17 / 20,583713,2019-11-06 16:16:04:175,3.7656,0.5906,8.5625,0.0483,0.0384,9.8064,0.0026,0.2694,-0.1801,-20.75,-36.87,28.13,125.8,-89.82,-17.49
53.171104,-1.672992,221.43,6,2,135.47,17 / 20,583813,2019-11-06 16:16:04:275,1.2091,-1.663,11.4333,0.0154,0.0333,9.8065,-0.0145,-0.1784,0.0189,-20.75,-36.56,28.13,211.43,-89.58,68.53
53.171104,-1.672992,221.43,6,2,135.47,18 / 21,583913,2019-11-06 16:16:04:375,3.1346,-1.5278,7.6847,-0.0284,-0.0145,9.8065,-0.1706,0.0367,0.0837,-20.75,-36.5,28.06,219.23,-89.66,76.32
53.171104,-1.672992,221.43,6,2,135.47,18 / 21,584014,2019-11-06 16:16:04:476,-0.7939,-2.7735,10.1587,0.0166,0.0735,9.8063,-0.1331,-0.5272,0.3839,-20.56,-35.69,28,230.31,-89.07,87.91
53.171104,-1.672992,221.43,6,2,135.47,18 / 21,584114,2019-11-06 16:16:04:576,-1.5457,0.6833,10.8758,-0.0566,-0.0311,9.8064,0.0872,-0.0255,-0.0039,-20.75,-36.31,27.63,219.46,-88.99,76.99
53.171104,-1.672992,221.43,6,2,135.47,18 / 21,584214,2019-11-06 16:16:04:676,-4.2834,-0.5599,10.4869,0.0559,0.0258,9.8064,0.0093,-0.1056,0.0036,-20.56,-36.44,28,206.89,-89.14,64.15
53.171104,-1.672992,221.43,6,2,135.47,18 / 21,584313,2019-11-06 16:16:04:775,-1.4338,-1.835,11.6046,0.0048,-0.0682,9.8063,0.2123,-0.1985,0.0823,-20.5,-36.12,27.63,204.44,-89.13,60.36
53.171104,-1.672992,221.43,6,2,135.47,18 / 21,584414,2019-11-06 16:16:04:876,1.624,0.9085,8.9459,0.033,-0.0262,9.8065,0.1634,-0.2579,0.112,-20.62,-35.94,27.88,248.95,-89.23,106.55
53.171104,-1.672992,221.43,6,2,135.47,18 / 21,584514,2019-11-06 16:16:04:976,2.5572,-0.5889,9.604,-0.0122,-0.0251,9.8066,0.0058,-0.0779,0.0804,-20.37,-36.31,28.19,254.55,-89.1,110.99
53.171104,-1.672992,221.43,6,2,135.47,18 / 21,584613,2019-11-06 16:16:05:075,4.2172,1.1641,9.1452,-0.0084,0.0036,9.8066,-0.1454,-0.4839,0.2626,-20.87,-36.31,27.63,248.51,-89.06,106.28
53.171104,-1.672992,221.43,6,2,135.47,18 / 21,584713,2019-11-06 16:16:05:175,-1.4435,-0.6797,10.8727,-0.0346,-0.0102,9.8065,-0.0032,-0.2343,0.0104,-20.44,-36.37,27.88,225.59,-88.89,81.95
53.171104,-1.672992,221.43,6,2,135.47,18 / 21,584813,2019-11-06 16:16:05:275,1.8939,-0.4594,9.42,-0.0022,-0.039,9.8065,0.1648,0.1796,-0.2539,-20.44,-36.25,27.75,215.87,-89.21,71.89
53.171104,-1.672992,221.43,6,2,135.47,19 / 20,584913,2019-11-06 16:16:05:375,-0.5489,1.9804,9.0066,0.0553,-0.0124,9.8064,-0.0194,0.0672,0.0147,-20.19,-36.5,28.38,234.36,-89.25,90.53
53.171104,-1.672992,221.43,6,2,135.47,19 / 20,585014,2019-11-06 16:16:05:476,-2.8518,-2.8249,12.4986,-0.0145,0.0172,9.8066,-0.2402,0.1731,-0.0138,-20.62,-35.94,27.81,263.39,-89.14,121.14
53.171104,-1.672992,221.43,6,2,135.47,19 / 20,585114,2019-11-06 16:16:05:576,4.2846,2.7683,10.4254,0.004,0.0499,9.8065,0.0041,0.6081,-0.3114,-20.62,-36.31,28.25,251.78,-89.02,109.6
53.171104,-1.672992,221.43,6,2,135.47,19 / 20,585214,2019-11-06 16:16:05:676,-3.3567,-3.5519,10.4783,0.1448,0.049,9.8054,0.0974,-0.3219,0.2161,-20.25,-36.12,28.5,252.65,-88.09,109.09
53.171104,-1.672992,221.43,6,2,135.47,19 / 20,585314,2019-11-06 16:16:05:776,0.4987,-1.2715,9.1654,-0.0159,0.0135,9.8066,-0.1685,0.3913,-0.2934,-19.56,-36.75,28.63,258.56,-88.35,114.85
53.171104,-1.672992,221.43,6,2,135.47,19 / 20,585414,2019-11-06 16:16:05:876,-1.5728,-2.0773,9.3036,0.0252,0.0411,9.8064,0.0332,-0.2556,0.085,-20.19,-36.44,28.25,251.57,-88.39,108.69
53.171104,-1.672992,221.43,6,2,135.47,19 / 20,585514,2019-11-06 16:16:05:976,0.087,-0.16,10.6295,0.0105,-0.014,9.8066,0.0698,0.0327,-0.0942,-19.94,-36.44,28.13,253.65,-88.48,110.71
53.171104,-1.672992,221.43,6,2,135.47,19 / 20,585615,2019-11-06 16:16:06:077,4.0259,0.96,9.2255,0.0279,-0.016,9.8065,0.1786,-0.5726,0.2401,-19.69,-36,27.75,259.65,-88.18,117.06
53.171104,-1.672992,221.43,6,2,135.47,19 / 20,585715,2019-11-06 16:16:06:177,2.9047,5.1689,10.7426,-0.0974,-0.1425,9.8051,0.1712,-0.1651,0.2728,-20.62,-36.25,28.56,298.37,-88.4,155.7
53.171104,-1.672992,221.43,6,2,135.47,19 / 20,585814,2019-11-06 16:16:06:276,4.6868,0.5776,8.6963,0.0231,-0.0165,9.8065,0.1331,-0.9451,0.3738,-21.12,-36.06,28.75,290.9,-88.04,148.67
53.171104,-1.672992,221.43,6,2,135.47,18 / 20,585914,2019-11-06 16:16:06:376,-7.5471,-5.6515,10.0921,-0.0585,-0.0794,9.8061,0.1239,-1.198,0.616,-20.25,-35.75,29.44,290.91,-88.05,147.38
53.171104,-1.672992,221.43,6,2,135.47,18 / 20,586014,2019-11-06 16:16:06:476,7.196,2.9586,9.3345,-0.0859,-0.0482,9.8061,-0.1059,0.058,0.0765,-19.94,-36.37,28.13,289.2,-88.14,146.59
53.171104,-1.672992,221.43,6,2,135.47,18 / 20,586113,2019-11-06 16:16:06:575,-6.5741,-5.393,11.7569,-0.0099,0.0259,9.8066,0.061,-1.0322,0.3854,-20.19,-35.87,28.06,270.47,-87.73,128.39
53.171104,-1.672992,221.43,6,2,135.47,18 / 20,586213,2019-11-06 16:16:06:675,-2.0201,-1.0825,7.7941,-0.02,-0.1099,9.806,0.1863,0.6078,-0.177,-19.87,-36.25,28.19,273.55,-87.45,131.76
53.171104,-1.672992,221.43,6,2,135.47,18 / 20,586313,2019-11-06 16:16:06:775,-2.4237,-1.8796,8.0733,0.0967,0.0601,9.8059,-0.0996,0.1396,-0.4225,-19.5,-36.37,28.81,270.18,-86.91,126.62
53.171104,-1.672992,221.43,6,2,135.47,18 / 20,586413,2019-11-06 16:16:06:875,1.221,3.4285,8.4018,-0.0322,-0.0081,9.8065,-0.2954,0.4213,-0.3595,-19.44,-36.69,28.19,272.11,-86.83,129.74
53.171104,-1.672992,221.43,6,2,135.47,18 / 20,586514,2019-11-06 16:16:06:976,-2.6816,-0.115,10.039,-0.0864,-0.0146,9.8062,-0.0188,-0.3942,0.3942,-19.19,-35.5,28.19,263.73,-86.84,121.14
53.171104,-1.672992,221.43,6,2,135.47,18 / 20,586614,2019-11-06 16:16:07:076,3.248,3.3666,8.5804,-0.0448,0.0141,9.8065,-0.0758,0.5346,-0.3662,-19.37,-36.19,27.88,258.04,-87.52,114.77
53.171104,-1.672992,221.43,6,2,135.47,18 / 20,586714,2019-11-06 16:16:07:176,2.1928,-0.5469,8.8212,0.0934,0.0953,9.8057,-0.0117,0.1136,-0.1369,-19.37,-36.69,28.44,251.98,-87.06,109.18
53.171104,-1.672992,221.43,6,2,135.47,18 / 20,586814,2019-11-06 16:16:07:276,-1.7999,-1.0363,10.5292,-0.0194,0.0138,9.8066,-0.0801,1.0454,-0.7072,-19.37,-37.25,27.75,251.38,-87.41,108.2
53.171104,-1.672992,221.43,6,2,135.47,19 / 22,586914,2019-11-06 16:16:07:376,3.3508,3.22,9.6235,0.0191,0.0636,9.8064,-0.2005,0.6651,-0.0101,-20.37,-36.62,27.38,250.03,-87.57,109.05
53.171104,-1.672992,221.43,6,2,135.47,19 / 22,587014,2019-11-06 16:16:07:476,-1.2822,-1.0032,10.8719,0.055,0.0609,9.8063,0.0625,0.5455,-0.1214,-19.81,-36.37,28.06,243.33,-87.14,101.52
53.171104,-1.672992,221.43,6,2,135.47,19 / 22,587114,2019-11-06 16:16:07:576,2.9163,3.0378,10.934,0.0946,0.0332,9.8061,0.0719,0.5222,-0.4215,-19.81,-37,27.56,256.13,-87.9,113.86
53.171104,-1.672992,221.43,6,2,135.47,19 / 22,587213,2019-11-06 16:16:07:675,-7.2471,-3.1087,10.653,-0.024,-0.0246,9.8065,-0.044,1.0425,-0.3261,-19.37,-36,28.5,267.16,-88.01,122.45
53.171104,-1.672992,221.43,6,2,135.47,19 / 22,587313,2019-11-06 16:16:07:775,0.6185,0.547,8.8157,0.0777,0.1111,9.8057,-0.3252,1.2103,-0.5819,-19.94,-35.87,27.31,254.08,-87.63,113.05
53.171104,-1.672992,221.43,6,2,135.47,19 / 22,587413,2019-11-06 16:16:07:875,-6.9608,-7.1729,11.3314,0.0493,0.0883,9.8061,-0.253,0.9515,-0.4923,-20.44,-36.19,28.06,264.1,-87.84,121.89
53.171104,-1.672992,221.43,6,2,135.47,19 / 22,587513,2019-11-06 16:16:07:975,3.8504,4.0466,10.6499,0.0798,0.1019,9.8057,-0.1083,1.2882,-0.5319,-20.94,-36.12,27.31,272.79,-88.55,132.19
53.171104,-1.672992,221.43,6,2,135.47,19 / 22,587613,2019-11-06 16:16:08:075,-8.0126,-6.8543,11.8995,0.0708,0.0791,9.806,0.2115,-0.3828,0.1523,-20.44,-36.44,27.75,248.66,-88.06,106.07
53.171104,-1.672992,221.43,6,2,135.47,19 / 22,587713,2019-11-06 16:16:08:175,2.4396,0.4859,10.4801,0.0232,-0.0658,9.8064,0.1141,0.2369,-0.2114,-20.94,-36.56,27.13,252.46,-88.03,112.36
53.171104,-1.672992,221.43,6,2,135.47,19 / 22,587813,2019-11-06 16:16:08:275,4.5921,0.7087,10.0683,0.0596,0.0263,9.8064,0.1714,-0.693,0.3131,-20.06,-36.5,28.44,263.08,-87.5,121.21
53.171104,-1.672992,221.43,6,2,135.47,18 / 21,587913,2019-11-06 16:16:08:375,4.1763,2.2041,9.2507,-0.059,-0.0294,9.8064,-0.1265,-0.1005,0.0329,-19.87,-36.5,27.81,261.4,-87.04,119.99
53.171104,-1.672992,221.43,6,2,135.47,18 / 21,588013,2019-11-06 16:16:08:475,-1.6362,-1.8843,9.6026,-0.0039,0.0272,9.8066,-0.0894,-0.5088,0.4808,-19.37,-36.19,27.63,253.8,-86.7,111.31
53.171104,-1.672992,221.43,6,2,135.47,18 / 21,588114,2019-11-06 16:16:08:576,-4.0891,-2.9398,10.9099,-0.0542,-0.0846,9.8061,0.1668,0.2143,-0.2324,-20.25,-36.87,27.5,246.47,-87.15,104.79
53.171104,-1.672992,221.43,6,2,135.47,18 / 21,588214,2019-11-06 16:16:08:676,-2.8963,-3.7891,9.9889,0.0133,0.0173,9.8066,0.137,-0.4836,0.201,-20.69,-36.5,27.56,248.57,-87.85,107.48
53.171104,-1.672992,221.43,6,2,135.47,18 / 21,588314,2019-11-06 16:16:08:776,-1.2816,-1.6328,7.9844,-0.0673,-0.0702,9.8061,-0.0778,-0.1858,0.1108,-20.69,-36.56,27.38,253.28,-88,113.22
53.171104,-1.672992,221.43,6,2,135.47,18 / 21,588414,2019-11-06 16:16:08:876,3.0957,1.0543,11.3981,-0.0806,-0.0251,9.8063,-0.1227,-0.2851,0.0152,-21.56,-36.44,27.13,266.85,-88.93,127.13
53.171104,-1.672992,221.43,6,2,135.47,18 / 21,588514,2019-11-06 16:16:08:976,-1.8825,-2.5821,9.861,-0.0621,-0.0751,9.8061,0.129,-0.6865,0.4545,-21.25,-36.44,26.88,287.21,-89.11,145.99
53.171104,-1.672992,221.43,6,2,135.47,18 / 21,588614,2019-11-06 16:16:09:076,2.2787,1.0475,9.0244,-0.0476,-0.0415,9.8064,0.1405,0.374,-0.321,-21.19,-36.06,27.19,280.23,-89.16,138.97
53.171104,-1.672992,221.43,6,2,135.47,18 / 21,588714,2019-11-06 16:16:09:176,2.5445,2.4677,11.9957,0.0967,0.0275,9.8061,-0.0184,0.0653,-0.1506,-21.56,-36.19,27.38,257.77,-88.73,118.23
53.171104,-1.672992,221.43,6,2,135.47,18 / 21,588813,2019-11-06 16:16:09:275,3.6962,1.5249,9.0889,-0.0075,-0.0033,9.8066,-0.1259,0.2496,-0.1822,-20.69,-36.56,27,258,-88.25,117.72
53.171104,-1.672992,221.43,6,2,135.47,19 / 21,588913,2019-11-06 16:16:09:375,-0.5055,-0.3976,8.9722,-0.0322,0.0158,9.8066,-0.0758,0.0287,0.0528,-21.12,-36.37,27.06,262.4,-88.01,122.35
53.171104,-1.672992,221.43,6,2,135.47,19 / 21,589013,2019-11-06 16:16:09:475,-0.2966,-0.1721,11.3474,-0.0235,-0.01,9.8066,-0.2291,0.105,0.0705,-20.69,-36.44,28.13,265.54,-88.07,124.39
53.171104,-1.672992,221.43,6,2,135.47,19 / 21,589113,2019-11-06 16:16:09:575,2.7465,1.0959,9.8218,0.0282,-0.0022,9.8066,0.1513,0.0926,-0.1744,-21.12,-36.81,26.56,253.01,-87.88,113.07
53.171104,-1.672992,221.43,6,2,135.47,19 / 21,589213,2019-11-06 16:16:09:675,1.2815,1.8157,9.5664,0.0203,-0.0307,9.8065,0.1781,0.1058,-0.0391,-21.25,-36.69,27.25,259.9,-88.04,119.86
53.171104,-1.672992,221.43,6,2,135.47,19 / 21,589314,2019-11-06 16:16:09:776,2.0966,-2.1473,10.1945,0.0555,-0.0417,9.8063,0.1568,-0.2427,0.0903,-21.12,-36,28.31,278.49,-88.18,137.22
53.171104,-1.672992,221.43,6,2,135.47,19 / 21,589413,2019-11-06 16:16:09:875,5.8867,0.5305,9.0002,-0.0407,-0.0501,9.8063,-0.0161,0.4739,-0.2756,-21.37,-36.25,28.13,293.08,-87.74,152.11
53.171104,-1.672992,221.43,6,2,135.47,19 / 21,589513,2019-11-06 16:16:09:975,-2.4709,-2.9409,8.6265,-0.0087,0.0985,9.8061,-0.1926,-0.303,0.0967,-21.5,-36.5,27.25,289.47,-87.46,149.89
53.171104,-1.672992,221.43,6,2,135.47,19 / 21,589613,2019-11-06 16:16:10:075,-6.3143,-5.1937,9.5154,-0.0451,0.0759,9.8062,-0.3443,0.9673,-0.52,-20,-36.56,27.5,257.77,-87.82,115.59
53.171104,-1.672992,221.43,6,2,135.47,19 / 21,589715,2019-11-06 16:16:10:177,3.1918,3.5319,10.4171,0.0746,0.1024,9.8058,-0.0568,0.6818,-0.4358,-20.81,-36.94,25.56,230.64,-86.97,92.12
53.171104,-1.672992,221.43,6,2,135.47,19 / 21,589813,2019-11-06 16:16:10:275,2.0768,3.627,11.9256,-0.0016,0.0079,9.8066,0.1104,0.4722,0.0199,-20.37,-36.69,25.38,230.2,-87.31,91.22
53.170624,-1.672195,223,9.15,2,131.37,20 / 22,589914,2019-11-06 16:16:10:376,-0.3819,-3.133,12.0742,-0.0994,-0.1219,9.8053,0.2463,0.0201,0.0714,-21.69,-35.81,27.69,248.54,-88.43,108.17
53.170624,-1.672195,223,9.15,2,131.37,20 / 22,590014,2019-11-06 16:16:10:476,2.5873,0.7313,8.1711,0.0541,0.0006,9.8064,0.0798,-0.1147,0.316,-21.44,-35.62,27.38,290.59,-88.17,150.28
53.170624,-1.672195,223,9.15,2,131.37,20 / 22,590114,2019-11-06 16:16:10:576,2.6893,-0.2918,11.963,-0.042,0.0496,9.8063,0.2312,-0.4598,-0.0125,-22,-36,28.19,293.97,-88.14,153.85
53.170624,-1.672195,223,9.15,2,131.37,20 / 22,590213,2019-11-06 16:16:10:675,5.337,4.0798,8.3602,-0.0891,-0.0089,9.8062,-0.0499,0.5374,-0.4389,-22.19,-35.94,26.94,305.4,-88.53,165.82
53.170624,-1.672195,223,9.15,2,131.37,20 / 22,590313,2019-11-06 16:16:10:775,0.8809,-2.4293,9.5309,0.0176,0.0674,9.8064,-0.0368,-0.0387,0.1405,-22.75,-36.06,26.63,284.52,-88.7,146.23
53.170624,-1.672195,223,9.15,2,131.37,20 / 22,590413,2019-11-06 16:16:10:875,-2.045,-2.5557,9.8628,-0.0403,-0.0382,9.8065,-0.1864,0.6453,-0.1614,-22.69,-36.31,27.13,281.54,-89.03,142.94
53.170624,-1.672195,223,9.15,2,131.37,20 / 22,590513,2019-11-06 16:16:10:975,-2.0801,-0.4778,10.7828,-0.0415,0.0078,9.8065,-0.2007,0.3935,-0.1491,-23.31,-35.56,26.44,278.79,-89.49,140.8
53.170624,-1.672195,223,9.15,2,131.37,20 / 22,590614,2019-11-06 16:16:11:076,-3.0417,0.0844,9.2656,-0.0066,-0.0159,9.8066,0.0019,0.2859,-0.0921,-22.31,-36.12,26.56,233.74,-89.58,93.26
53.170624,-1.672195,223,9.15,2,131.37,20 / 22,590714,2019-11-06 16:16:11:176,3.3043,1.9112,9.8522,-0.0403,-0.0176,9.8065,0.0403,0.2671,-0.2426,-23,-36.5,25.5,237.92,-89.58,99.78
53.170624,-1.672195,223,9.15,2,131.37,20 / 22,590814,2019-11-06 16:16:11:276,0.2263,-0.7295,12.317,-0.0612,-0.0048,9.8064,0.2217,-0.2765,-0.061,-22.56,-35.87,25.19,283.82,-89.8,146.64
53.170624,-1.672195,223,9.15,2,131.37,20 / 23,590914,2019-11-06 16:16:11:376,-3.0411,0.6146,10.8232,0.0319,0.0145,9.8065,-0.0037,-0.1176,0.1206,-23.12,-36.06,25.31,296.82,-89.76,159.66
53.170624,-1.672195,223,9.15,2,131.37,20 / 23,591014,2019-11-06 16:16:11:476,0.4564,1.6475,11.0349,0.0112,-0.0038,9.8065,-0.0328,0.0302,-0.1002,-23.12,-35.75,25.56,283.34,-89.75,145.09
53.170624,-1.672195,223,9.15,2,131.37,20 / 23,591114,2019-11-06 16:16:11:576,-2.2734,-4.1092,10.295,0.0774,0.0452,9.8062,0.2753,-0.5809,0.3405,-22.69,-36.31,25.63,270.59,-89.26,132.85
53.170624,-1.672195,223,9.15,2,131.37,20 / 23,591214,2019-11-06 16:16:11:676,4.5322,4.8625,7.7805,-0.0109,-0.0192,9.8066,-0.0314,0.4657,-0.1726,-22.5,-36.44,25.75,285.23,-88.9,146.59
53.170624,-1.672195,223,9.15,2,131.37,20 / 23,591314,2019-11-06 16:16:11:776,1.8245,2.2049,8.4448,0.0153,0.0916,9.8062,-0.0249,-0.8474,0.4077,-23,-36.87,25.38,275.84,-88.95,139.59
53.170624,-1.672195,223,9.15,2,131.37,20 / 23,591414,2019-11-06 16:16:11:876,8.2853,8.5844,6.8186,-0.0881,-0.0377,9.8061,-0.2773,1.1007,-0.4165,-23.12,-36.31,24.44,40.81,-89.65,-95.65
53.170624,-1.672195,223,9.15,2,131.37,20 / 23,591514,2019-11-06 16:16:11:976,-4.8102,-1.2421,8.9817,0.0154,0.042,9.8065,-0.1959,-0.2998,0.265,-23.75,-36.31,24.5,90.8,-89.37,-46.02
53.170624,-1.672195,223,9.15,2,131.37,20 / 23,591614,2019-11-06 16:16:12:076,-5.7874,-5.0293,12.9217,-0.0274,-0.1454,9.8055,-0.2223,1.0668,-0.4341,-23.44,-36.25,26.06,98.52,-89.11,-40.9
53.170624,-1.672195,223,9.15,2,131.37,20 / 23,591714,2019-11-06 16:16:12:176,-0.8547,0.4559,9.9114,0.0033,-0.0246,9.8066,-0.061,0.4494,-0.0945,-24.06,-35.69,25,57.84,-88.9,-79.3
53.170624,-1.672195,223,9.15,2,131.37,20 / 23,591814,2019-11-06 16:16:12:276,-0.6768,-2.8369,10.1764,-0.0358,-0.1005,9.806,-0.0818,0.4483,-0.1516,-24.62,-35.31,25.25,37.56,-88.57,-98.31
53.170624,-1.672195,223,9.15,2,131.37,17 / 21,591914,2019-11-06 16:16:12:376,-0.0829,-1.8392,10.3193,-0.0002,-0.0619,9.8064,0.0011,0.2151,-0.0923,-24.06,-35.44,25.69,30.66,-87.76,-107.78
53.170624,-1.672195,223,9.15,2,131.37,17 / 21,592014,2019-11-06 16:16:12:476,0.3542,2.4588,10.3234,0.0073,0.077,9.8063,0.0842,-0.0957,0.0412,-23.87,-35.56,25.44,31.25,-88.63,-105.66
53.170624,-1.672195,223,9.15,2,131.37,17 / 21,592114,2019-11-06 16:16:12:576,1.8288,0.503,10.2344,-0.0342,0.0447,9.8065,0.0387,0.0243,-0.1925,-24.37,-35.81,25.38,38.63,-88.65,-98.42
53.170624,-1.672195,223,9.15,2,131.37,17 / 21,592214,2019-11-06 16:16:12:676,-1.6176,-1.7308,9.2886,-0.03,-0.017,9.8065,-0.028,0.4324,-0.3079,-23.69,-36.19,25.81,21.71,-88.98,-115.97
53.170624,-1.672195,223,9.15,2,131.37,17 / 21,592314,2019-11-06 16:16:12:776,2.4486,2.1705,9.6229,0.0417,-0.0259,9.8065,-0.1337,0.4378,0.0185,-24.12,-36.06,25.44,6.34,-88.85,-129.97
53.170624,-1.672195,223,9.15,2,131.37,17 / 21,592414,2019-11-06 16:16:12:876,-0.9389,-0.8919,10.6399,0.0279,0.001,9.8066,-0.1059,-0.244,0.1555,-24.12,-35.5,25.31,14.66,-88.67,-121.85
53.170624,-1.672195,223,9.15,2,131.37,17 / 21,592514,2019-11-06 16:16:12:976,-3.7329,-6.5367,13.6415,-0.0026,-0.009,9.8066,0.0734,-0.8318,0.2615,-23.37,-35.44,26.56,22.27,-88.73,-117.78
53.170624,-1.672195,223,9.15,2,131.37,17 / 21,592614,2019-11-06 16:16:13:076,12.9528,10.7723,6.6328,-0.0925,0.036,9.8061,0.0729,0.6436,-0.5288,-24.5,-35.94,24.25,45.14,-88.77,-90.79
53.170624,-1.672195,223,9.15,2,131.37,17 / 21,592714,2019-11-06 16:16:13:176,-6.2293,-4.9291,10.3669,0.1331,0.0869,9.8053,-0.0881,-0.6441,0.8319,-24.5,-35.37,25.81,21.85,-88.89,-115.85
53.170624,-1.672195,223,9.15,2,131.37,17 / 21,592814,2019-11-06 16:16:13:276,-7.1122,-10.9741,15.2364,0.0983,-0.1526,9.8049,-0.4182,1.5026,-0.3147,-24.19,-35.37,26.13,30.08,-88.4,-108.02
53.170624,-1.672195,223,9.15,2,131.37,19 / 21,592914,2019-11-06 16:16:13:376,6.725,5.535,7.5158,0.0382,-0.1746,9.8049,-0.449,1.7291,-0.8521,-24.06,-35.62,25.06,357.65,-88.1,-138.44
53.170624,-1.672195,223,9.15,2,131.37,19 / 21,593014,2019-11-06 16:16:13:476,-3.2099,-4.8538,8.9509,-0.0031,-0.023,9.8065,-0.3814,-0.2998,0.1463,-24,-36,25.56,343.88,-88.89,-153.1
53.170624,-1.672195,223,9.15,2,131.37,19 / 21,593113,2019-11-06 16:16:13:575,-4.0517,-3.7683,10.4849,-0.1037,0.0157,9.8061,0.1583,-0.1043,-0.1149,-23.25,-35.56,25.25,21.49,-89.35,-116.15
53.170624,-1.672195,223,9.15,2,131.37,19 / 21,593213,2019-11-06 16:16:13:675,4.4312,0.9591,9.0151,0.0429,0.0714,9.8062,0.2253,0.0467,-0.0194,-23.87,-36.44,23.69,233.01,-89.78,98.2
53.170624,-1.672195,223,9.15,2,131.37,19 / 21,593313,2019-11-06 16:16:13:775,-3.1838,-1.722,9.7961,0.0181,0.0081,9.8066,0.0089,-0.2021,0.0189,-23.62,-36.12,24.69,276.23,-89.42,140.66
53.170624,-1.672195,223,9.15,2,131.37,19 / 21,593413,2019-11-06 16:16:13:875,-0.8534,-0.8251,8.8414,-0.0799,-0.0388,9.8062,-0.082,0.3193,0.0231,-23.81,-36.25,24.38,248.49,-89.69,113.8
53.170624,-1.672195,223,9.15,2,131.37,19 / 21,593514,2019-11-06 16:16:13:976,-1.095,-0.2894,10.1812,-0.0745,-0.037,9.8063,-0.0018,0.0637,-0.1411,-24.25,-35.69,23.5,70.55,-89.21,-65.24
53.170624,-1.672195,223,9.15,2,131.37,19 / 21,593614,2019-11-06 16:16:14:076,-2.409,-0.1286,9.641,-0.0185,-0.0158,9.8065,0.0243,-0.2127,0.0631,-24.37,-36.44,23.75,91.21,-89.31,-44.52
53.170624,-1.672195,223,9.15,2,131.37,19 / 21,593714,2019-11-06 16:16:14:176,0.8259,0.7569,9.1177,0.0306,0.0153,9.8065,0.1787,-0.2559,0.1264,-24.62,-36.5,23.69,65.53,-89.33,-68.93
53.170624,-1.672195,223,9.15,2,131.37,19 / 21,593815,2019-11-06 16:16:14:277,0.6885,1.1651,8.4825,0.0765,0.0524,9.8061,0.0127,-0.5077,0.1393,-23.37,-35.56,24.19,323.96,-89.5,-171.94
53.170624,-1.672195,223,9.15,2,131.37,19 / 20,593913,2019-11-06 16:16:14:375,-1.2553,-6.0503,11.1883,0.0289,0.0636,9.8063,0.2158,-0.0241,0.0026,-23.44,-36.5,24.25,326.61,-89.28,-169.18
53.170624,-1.672195,223,9.15,2,131.37,19 / 20,594013,2019-11-06 16:16:14:475,-4.5448,-5.7799,13.1532,-0.034,0.184,9.8049,0.4765,-0.6707,0.2565,-22.12,-36,24.75,223.02,-88.72,85.31
53.170624,-1.672195,223,9.15,2,131.37,19 / 20,594113,2019-11-06 16:16:14:575,2.2342,1.9759,11.7796,-0.0692,-0.0795,9.8061,0.066,0.2612,-0.4671,-22.81,-36.31,23.63,235.61,-88.9,100.37
53.170624,-1.672195,223,9.15,2,131.37,19 / 20,594214,2019-11-06 16:16:14:676,5.2877,5.4973,10.3519,0.0872,0.0811,9.8058,0.3109,-0.284,0.2279,-22.12,-37.12,23.63,237.45,-88.45,101.43
53.170624,-1.672195,223,9.15,2,131.37,19 / 20,594314,2019-11-06 16:16:14:776,-6.4623,-9.2764,9.5138,0.1997,-0.0661,9.8043,-0.5995,-0.5183,0.2647,-22.87,-35.94,24.94,254.87,-87.48,120.04
53.170624,-1.672195,223,9.15,2,131.37,19 / 20,594414,2019-11-06 16:16:14:876,2.387,-3.0256,12.1382,0.0192,-0.1908,9.8047,-0.5126,1.4604,-0.501,-23.12,-36.25,24.94,258.23,-87.69,123.23
53.170624,-1.672195,223,9.15,2,131.37,19 / 20,594514,2019-11-06 16:16:14:976,7.6832,6.085,6.3293,0.0139,0.0212,9.8066,-0.1023,0.6174,-0.2729,-22.75,-36.69,24.56,271.29,-87.84,136.27
53.170624,-1.672195,223,9.15,2,131.37,19 / 20,594613,2019-11-06 16:16:15:075,-4.6846,-1.2543,8.4164,-0.0455,-0.02,9.8065,-0.167,0.0651,0.0276,-22.81,-36.62,24.13,267.63,-88.06,133.57
53.170624,-1.672195,223,9.15,2,131.37,19 / 20,594714,2019-11-06 16:16:15:176,2.6582,2.8661,11.8893,-0.1416,-0.021,9.8056,0.1889,0.3621,-0.3573,-22.5,-36.31,24.25,259.82,-88.64,123.81
53.170624,-1.672195,223,9.15,2,131.37,19 / 20,594815,2019-11-06 16:16:15:277,-0.0865,2.2567,7.4041,-0.041,0.0539,9.8064,0.3713,-0.4175,-0.0174,-23,-36.75,23.63,263.29,-88.47,128.76
53.170624,-1.672195,223,9.15,2,131.37,19 / 21,594914,2019-11-06 16:16:15:376,1.506,-0.498,8.2347,0.0278,0.0052,9.8066,0.1511,-0.098,-0.0481,-22.94,-36.56,23.69,258.34,-88.19,124.09
53.170624,-1.672195,223,9.15,2,131.37,19 / 21,595015,2019-11-06 16:16:15:477,1.5466,-2.4757,10.3789,-0.0631,-0.0256,9.8063,0.092,0.2637,-0.1362,-23.44,-36.25,24.13,267.85,-88.08,133.7
53.170624,-1.672195,223,9.15,2,131.37,19 / 21,595113,2019-11-06 16:16:15:575,3.0809,3.0333,9.1103,0.0071,-0.0093,9.8066,-0.1638,0.378,-0.3675,-23.44,-36.5,24.25,270.69,-88.38,136.23
53.170624,-1.672195,223,9.15,2,131.37,19 / 21,595214,2019-11-06 16:16:15:676,-1.6079,0.2854,9.0013,0.0336,-0.0752,9.8063,-0.2342,0.3261,-0.0473,-23.06,-36.37,23.94,266.18,-87.92,132.21
53.170624,-1.672195,223,9.15,2,131.37,19 / 21,595315,2019-11-06 16:16:15:777,3.0642,4.1833,8.9569,0.001,-0.0512,9.8064,-0.1377,0.6909,-0.3196,-23.12,-37.06,23.69,264.26,-88,130.26
53.170624,-1.672195,223,9.15,2,131.37,19 / 21,595413,2019-11-06 16:16:15:875,-1.6716,-1.6939,10.0738,0.0071,-0.0182,9.8066,-0.0268,0.2712,-0.0365,-22.94,-37,23.88,257.54,-87.73,123.78
53.170624,-1.672195,223,9.15,2,131.37,19 / 21,595513,2019-11-06 16:16:15:975,4.2854,4.5417,8.9466,-0.0527,-0.0662,9.8062,0.049,0.8862,-0.495,-22.94,-36.56,23.56,263.64,-87.69,129.98
53.170624,-1.672195,223,9.15,2,131.37,19 / 21,595613,2019-11-06 16:16:16:075,-4.5839,-6.5565,10.6613,-0.0276,-0.0131,9.8065,0.1276,-0.0198,0.0856,-23.06,-36.69,24.06,263.33,-87.34,130.05
53.170624,-1.672195,223,9.15,2,131.37,19 / 21,595714,2019-11-06 16:16:16:176,-1.0002,-0.2214,10.0536,-0.0416,-0.1183,9.8058,-0.1117,0.8671,-0.3589,-23.37,-36.62,23.19,270.97,-87.49,138.83
53.170624,-1.672195,223,9.15,2,131.37,19 / 21,595814,2019-11-06 16:16:16:276,-5.7541,-4.5925,9.0089,0.0886,0.1015,9.8056,-0.083,-0.7301,0.3998,-22.56,-36.81,24.06,259.68,-86.85,126.91
53.170624,-1.672195,223,9.15,2,131.37,20 / 20,595914,2019-11-06 16:16:16:376,-0.1372,-0.5388,9.7518,-0.0081,-0.0337,9.8065,0.0015,0.0209,-0.0265,-22.75,-36.87,23.81,259.91,-86.9,127.07
53.170624,-1.672195,223,9.15,2,131.37,20 / 20,596014,2019-11-06 16:16:16:476,3.6204,6.0114,9.475,0.0609,0.0965,9.8059,0.1414,-0.8392,0.2746,-22.31,-37.19,23.75,260.5,-86.69,126.71
53.170624,-1.672195,223,9.15,2,131.37,20 / 20,596114,2019-11-06 16:16:16:576,0.2385,-1.4322,7.8407,0.1005,0.0637,9.8059,-0.06,-0.6183,0.331,-22.06,-37.44,24.13,251.89,-85.78,118.93
53.170624,-1.672195,223,9.15,2,131.37,20 / 20,596214,2019-11-06 16:16:16:676,2.5417,1.1087,9.8612,0.0368,0.0778,9.8063,0.1168,-0.3112,0.3447,-21.5,-36.81,23.81,252.35,-85.73,118.23
53.170624,-1.672195,223,9.15,2,131.37,20 / 20,596314,2019-11-06 16:16:16:776,1.9505,-0.7749,10.4022,-0.0023,-0.0028,9.8066,0.1181,-0.5074,0.1537,-21.81,-37.25,23.56,247.68,-85.54,114.83
53.170624,-1.672195,223,9.15,2,131.37,20 / 20,596414,2019-11-06 16:16:16:876,-0.5869,-0.4841,9.6579,-0.0148,0.0017,9.8066,-0.0013,0.0411,0.0672,-22.12,-37.06,23.56,251.56,-85.85,118.51
53.170624,-1.672195,223,9.15,2,131.37,20 / 20,596514,2019-11-06 16:16:16:976,1.02,-0.3224,10.6514,-0.0202,-0.0221,9.8065,0.0237,-0.0349,0.095,-22.5,-37.06,24,252.84,-86.19,119.46
53.170624,-1.672195,223,9.15,2,131.37,20 / 20,596614,2019-11-06 16:16:17:076,1.3661,-0.5476,10.3994,-0.0013,-0.0064,9.8066,-0.1148,-0.251,0.0183,-22.25,-36.69,23.44,253.3,-86.51,120.89
53.170624,-1.672195,223,9.15,2,131.37,20 / 20,596714,2019-11-06 16:16:17:176,2.5563,1.1248,11.0518,-0.0252,0.0317,9.8065,0.2239,-0.1836,0.3444,-22.94,-37.19,22.63,249.74,-86.66,118.28
53.170624,-1.672195,223,9.15,2,131.37,20 / 20,596814,2019-11-06 16:16:17:276,1.2647,1.0627,9.8475,0.01,0.0343,9.8065,0.0101,-0.4045,0.198,-22.62,-36.69,22.56,257.66,-87.1,125.87
53.170624,-1.672195,223,9.15,2,131.37,18 / 21,596914,2019-11-06 16:16:17:376,-5.032,-4.1269,11.1165,0.0046,0.041,9.8065,0.12,-0.6912,0.4094,-23.56,-36.81,23.13,251.45,-87.06,120.75
53.170624,-1.672195,223,9.15,2,131.37,18 / 21,597014,2019-11-06 16:16:17:476,1.6593,2.5986,10.9282,0.0976,0.0654,9.8059,0.0742,-0.1239,0.252,-23.06,-36.37,22.75,254.18,-86.78,122.58
53.170624,-1.672195,223,9.15,2,131.37,18 / 21,597113,2019-11-06 16:16:17:575,-4.5014,-3.0149,9.0228,0.094,0.0638,9.8059,-0.0105,-0.6734,0.1769,-23.37,-36.5,23.5,256.26,-86.57,123.63
53.170624,-1.672195,223,9.15,2,131.37,18 / 21,597213,2019-11-06 16:16:17:675,-0.4055,-1.9705,9.6243,-0.0436,-0.0312,9.8064,-0.1177,0.5153,-0.3675,-22.5,-36.75,23.19,252.12,-86.39,119.81
53.170624,-1.672195,223,9.15,2,131.37,18 / 21,597314,2019-11-06 16:16:17:776,-4.9763,-5.7325,10.626,0.0423,0.098,9.806,0.0255,-0.149,0.0301,-22.75,-37.19,22.94,245.23,-86.32,113.99
53.170624,-1.672195,223,9.15,2,131.37,18 / 21,597414,2019-11-06 16:16:17:876,-2.0698,-1.3745,8.8236,-0.0428,-0.0666,9.8063,-0.1047,1.0346,-0.3788,-22.56,-37.12,22.5,239.62,-85.83,108.65
53.170624,-1.672195,223,9.15,2,131.37,18 / 21,597514,2019-11-06 16:16:17:976,3.4381,5.3405,10.34,-0.0445,-0.0947,9.8061,-0.1472,1.1175,-0.5872,-23.44,-37.06,21.56,243.66,-86.3,113.74
53.170624,-1.672195,223,9.15,2,131.37,18 / 21,597613,2019-11-06 16:16:18:075,-1.0652,-3.901,10.2965,-0.0285,-0.0744,9.8062,0.0492,0.0304,-0.1351,-22.56,-36.69,21.75,241.14,-85.96,111.48
53.170624,-1.672195,223,9.15,2,131.37,18 / 21,597714,2019-11-06 16:16:18:176,2.3555,7.9449,7.9463,-0.0373,-0.0461,9.8064,-0.1083,0.8415,-0.0217,-23.44,-37.44,21.94,248.27,-86.31,118.49
53.170624,-1.672195,223,9.15,2,131.37,18 / 21,597813,2019-11-06 16:16:18:275,3.162,1.0739,10.1475,0.0193,0.0301,9.8065,-0.1532,-0.493,0.2475,-23,-37.56,22.81,259.89,-86.68,128.7
53.170624,-1.672195,223,9.15,2,131.37,19 / 23,597913,2019-11-06 16:16:18:375,1.2492,-0.0164,9.9368,-0.06,-0.0186,9.8064,0.0076,0.1004,-0.0983,-23.5,-37.19,22.19,254.01,-86.99,123.63
53.170624,-1.672195,223,9.15,2,131.37,19 / 23,598014,2019-11-06 16:16:18:476,-4.535,-0.131,9.7239,-0.0371,0.0099,9.8065,0.1087,-0.2312,0.1777,-23.94,-36.5,21.69,248.64,-87.05,119.14
53.170624,-1.672195,223,9.15,2,131.37,19 / 23,598113,2019-11-06 16:16:18:575,-2.4738,-0.7148,11.4438,-0.0127,-0.035,9.8065,-0.1926,0.6103,-0.1846,-24.06,-37.5,21,251.43,-87.2,123.3
53.170624,-1.672195,223,9.15,2,131.37,19 / 23,598213,2019-11-06 16:16:18:675,-3.316,-5.4249,8.7254,0.0822,0.0201,9.8063,-0.0994,-0.8104,0.5112,-23.5,-37,21.44,247.79,-87.34,118.3
53.170624,-1.672195,223,9.15,2,131.37,19 / 23,598314,2019-11-06 16:16:18:776,-0.7499,-5.2617,10.7373,0.0197,-0.0417,9.8065,0.0677,-0.5696,0.4465,-24.56,-37.06,21.44,252.54,-87.28,125.44
53.170624,-1.672195,223,9.15,2,131.37,19 / 23,598414,2019-11-06 16:16:18:876,1.865,4.4689,9.2229,0.0015,0.1427,9.8056,-0.2583,-0.5525,0.1421,-24.75,-37.25,20.44,259.12,-88.13,132.58
53.170624,-1.672195,223,9.15,2,131.37,19 / 23,598514,2019-11-06 16:16:18:976,-5.8179,-7.94,11.5632,-0.014,0.1687,9.8051,0.5966,-1.2989,0.4835,-23.94,-37.12,21.13,219.98,-87.59,90.57
53.170624,-1.672195,223,9.15,2,131.37,19 / 23,598614,2019-11-06 16:16:19:076,0.1816,4.1924,9.0996,-0.1665,-0.1153,9.8045,0.6574,1.3523,-1.0767,-24.62,-37.44,20,218.75,-88.64,91.06
53.170624,-1.672195,223,9.15,2,131.37,19 / 23,598714,2019-11-06 16:16:19:176,3.0846,4.0251,12.3739,0.0286,-0.0304,9.8065,0.3433,-0.4913,-0.0299,-24.56,-36.81,21.31,246.64,-87.7,118.99
53.170624,-1.672195,223,9.15,2,131.37,19 / 23,598814,2019-11-06 16:16:19:276,6.2103,7.991,11.9524,-0.0432,-0.1101,9.8059,-0.1145,0.5787,-0.6261,-24.5,-36.87,21.56,260.67,-86.52,132.05
53.170254,-1.671244,223.84,8.3,3,113.02,19 / 21,598913,2019-11-06 16:16:19:375,-0.2234,0.6429,11.6088,0.2033,0.0768,9.8042,-0.7428,0.2474,0.606,-24.12,-37,21.81,271.87,-87.67,142.01
53.170254,-1.671244,223.84,8.3,3,113.02,19 / 21,599013,2019-11-06 16:16:19:475,-7.4695,-3.2668,11.3361,0.0952,-0.0202,9.8061,-0.249,0.1703,0.3627,-24.81,-36.94,20.69,260.49,-87.04,133.76
53.170254,-1.671244,223.84,8.3,3,113.02,19 / 21,599114,2019-11-06 16:16:19:576,1.716,1.6821,8.849,-0.0792,-0.1242,9.8055,0.1273,1.5127,-0.8753,-24,-37.06,20.69,269.88,-87.41,141.7
53.170254,-1.671244,223.84,8.3,3,113.02,19 / 21,599214,2019-11-06 16:16:19:676,-5.1393,-7.6823,7.727,-0.0314,0.0018,9.8065,0.0814,-0.5775,0.332,-23.81,-36.75,21.44,265.3,-86.51,138.15
53.170254,-1.671244,223.84,8.3,3,113.02,19 / 21,599315,2019-11-06 16:16:19:777,3.1186,2.0956,9.5061,-0.1267,-0.1418,9.8048,-0.0894,0.5566,-0.1334,-25.19,-37.12,20.06,274.13,-87.14,148.78
53.170254,-1.671244,223.84,8.3,3,113.02,19 / 21,599414,2019-11-06 16:16:19:876,0.3747,3.0995,8.7725,-0.0387,0.1001,9.806,0.0912,-0.5051,0.3866,-24.56,-36.31,20.38,277.65,-87.71,151.55
53.170254,-1.671244,223.84,8.3,3,113.02,19 / 21,599514,2019-11-06 16:16:19:976,5.4167,7.5204,9.5675,-0.067,-0.074,9.8061,0.0346,0.6323,-0.1511,-25.75,-36.06,19.5,272.88,-88.47,146.99
53.170254,-1.671244,223.84,8.3,3,113.02,19 / 21,599614,2019-11-06 16:16:20:076,-1.5133,-2.3627,10.4197,0.0468,0.041,9.8064,0.199,-0.9323,0.5583,-25.75,-36.62,20.31,268.89,-88.43,143.09
53.170254,-1.671244,223.84,8.3,3,113.02,19 / 21,599713,2019-11-06 16:16:20:175,-2.4518,-2.3961,11.2483,-0.0035,-0.0897,9.8062,0.1953,0.1952,-0.198,-25.94,-36.81,20,297.85,-88.1,172.18
53.170254,-1.671244,223.84,8.3,3,113.02,19 / 21,599814,2019-11-06 16:16:20:276,-3.2361,-4.5497,9.5986,0.0358,0.0126,9.8065,0.2305,-0.7137,0.384,-25.44,-36.19,20.63,302.59,-87.32,175.09
53.170254,-1.671244,223.84,8.3,3,113.02,19 / 21,599913,2019-11-06 16:16:20:375,0.7947,-1.2374,10.9396,-0.0183,0.0039,9.8066,0.1217,-0.0007,-0.1122,-26.44,-36.56,20.88,303.86,-86.95,177.78
53.170254,-1.671244,223.84,8.3,3,113.02,19 / 21,600014,2019-11-06 16:16:20:476,3.5138,6.4537,8.3554,0.0458,0.125,9.8057,0.1092,-0.8544,0.2665,-26.19,-36,21.25,299.27,-86.83,173.36
53.170254,-1.671244,223.84,8.3,3,113.02,19 / 21,600113,2019-11-06 16:16:20:575,-1.5403,-1.7232,10.5526,0.0232,0.1109,9.8059,0.1535,-0.7001,0.2886,-24.81,-36.44,21.06,280.97,-86.81,154.5
53.170254,-1.671244,223.84,8.3,3,113.02,19 / 21,600213,2019-11-06 16:16:20:675,-0.3894,-0.2794,9.9082,0.0416,0.0951,9.8061,0.0944,-0.7327,0.1939,-25.44,-36.25,20.5,271.2,-86.49,145.05
53.170254,-1.671244,223.84,8.3,3,113.02,19 / 21,600314,2019-11-06 16:16:20:776,-5.3776,-6.5862,9.0732,0.0503,0.121,9.8057,0.0775,-1.0679,0.5023,-24.69,-36.81,21.06,265.47,-86.32,139.6
53.170254,-1.671244,223.84,8.3,3,113.02,19 / 21,600414,2019-11-06 16:16:20:876,1.9291,6.4761,9.2581,0.0062,0.0706,9.8063,-0.0378,-0.0907,0.0129,-25.19,-36.87,19.88,265.28,-86.39,140.77
53.170254,-1.671244,223.84,8.3,3,113.02,19 / 21,600514,2019-11-06 16:16:20:976,-5.4891,-6.7544,10.6038,0.0579,0.1107,9.8058,0.0601,-1.033,0.6005,-25.25,-36.37,20.13,257.81,-86.44,133.05
53.170254,-1.671244,223.84,8.3,3,113.02,19 / 21,600614,2019-11-06 16:16:21:076,3.7329,5.2762,9.7749,0.0137,-0.0033,9.8066,-0.067,0.7623,-0.3899,-24.25,-36.62,18.75,258.7,-86.61,134.34
53.170254,-1.671244,223.84,8.3,3,113.02,19 / 21,600715,2019-11-06 16:16:21:177,6.0248,3.598,8.9974,0.0804,0.0835,9.8059,0.186,-0.3464,0.1121,-24.5,-37.25,19.94,256.86,-85.83,131.85
53.170254,-1.671244,223.84,8.3,3,113.02,19 / 21,600814,2019-11-06 16:16:21:276,5.6374,4.8829,10.7785,-0.0206,-0.1301,9.8057,0.0195,1.0909,-0.5199,-24.81,-36.5,19.63,259.5,-85.28,136.04
53.170254,-1.671244,223.84,8.3,3,113.02,20 / 23,600914,2019-11-06 16:16:21:376,1.2281,1.0528,8.4399,0.0366,-0.0217,9.8065,-0.1238,0.3791,-0.1239,-25.12,-36.69,21.63,270.95,-84.98,145.21
53.170254,-1.671244,223.84,8.3,3,113.02,20 / 23,601014,2019-11-06 16:16:21:476,-3.3932,-4.7732,10.1687,-0.034,-0.0811,9.8062,-0.1558,0.6816,-0.2425,-24.12,-36.94,20.56,269.81,-84.97,144.49
53.170254,-1.671244,223.84,8.3,3,113.02,20 / 23,601114,2019-11-06 16:16:21:576,0.2371,-2.6377,10.4774,-0.0201,-0.0255,9.8065,-0.0752,0.3798,-0.2257,-24.87,-36.94,20,271.16,-85.42,147.81
53.170254,-1.671244,223.84,8.3,3,113.02,20 / 23,601214,2019-11-06 16:16:21:676,-2.3423,-5.6982,10.5547,-0.0488,-0.1106,9.8059,-0.1542,0.5905,-0.2534,-25.62,-36.69,19.81,274.1,-85.72,151.37
53.170254,-1.671244,223.84,8.3,3,113.02,20 / 23,601314,2019-11-06 16:16:21:776,0.116,5.3861,8.2837,-0.0398,-0.0591,9.8064,-0.1109,0.7143,-0.2285,-25.44,-36.81,19.06,273.64,-85.95,151.2
53.170254,-1.671244,223.84,8.3,3,113.02,20 / 23,601414,2019-11-06 16:16:21:876,-1.4026,-3.5568,9.5616,0.012,-0.0255,9.8065,-0.038,-0.106,-0.063,-25.5,-36.62,19.5,276.96,-85.98,152.95
53.170254,-1.671244,223.84,8.3,3,113.02,20 / 23,601513,2019-11-06 16:16:21:975,2.5578,0.0032,10.8992,-0.0419,0.0006,9.8065,0.1132,0.0923,0.0334,-25.56,-36.5,19.5,275.73,-85.97,152.6
53.170254,-1.671244,223.84,8.3,3,113.02,20 / 23,601613,2019-11-06 16:16:22:075,-0.5397,0.9082,9.1716,-0.0559,0.0029,9.8064,0.0026,-0.2704,0.0701,-25.69,-36.62,19.5,279.68,-86.14,156.43
53.170254,-1.671244,223.84,8.3,3,113.02,20 / 23,601713,2019-11-06 16:16:22:175,-0.7888,0.2248,8.1375,0.0061,0.0271,9.8065,-0.0948,0.0601,-0.1129,-25.5,-37.12,18.56,277.62,-86.5,154.5
53.170254,-1.671244,223.84,8.3,3,113.02,20 / 23,601813,2019-11-06 16:16:22:275,0.0864,1.8338,11.2148,0.0133,0.0337,9.8066,-0.0393,-0.2982,0.1128,-24.81,-36.62,18.75,265.59,-86.36,142.62
53.170254,-1.671244,223.84,8.3,3,113.02,21 / 22,601913,2019-11-06 16:16:22:375,-3.1896,-3.8513,9.0659,0.0069,0.0146,9.8066,0.0638,-0.4913,0.3643,-25.19,-36.44,18.25,264.5,-86.52,142.79
53.170254,-1.671244,223.84,8.3,3,113.02,21 / 22,602013,2019-11-06 16:16:22:475,3.2786,5.2387,9.1397,0.0526,0.1091,9.8058,0.0043,-0.2007,0.2735,-25.94,-37.25,18.25,267.91,-86.62,147.17
53.170254,-1.671244,223.84,8.3,3,113.02,21 / 22,602114,2019-11-06 16:16:22:576,-0.7244,-0.8712,11.4014,0.0017,0.0088,9.8066,0.2289,-0.2835,0.0217,-24.69,-36.31,18.38,264.45,-86.09,143.24
53.170254,-1.671244,223.84,8.3,3,113.02,21 / 22,602214,2019-11-06 16:16:22:676,-2.0215,2.6127,10.1696,-0.0366,-0.0262,9.8065,0.298,0.0649,-0.0609,-25.81,-36.62,17.56,264.49,-85.77,144.72
53.170254,-1.671244,223.84,8.3,3,113.02,21 / 22,602314,2019-11-06 16:16:22:776,0.7814,-0.5621,9.9464,0.0706,-0.0179,9.8063,-0.153,-0.0698,0.1343,-25.31,-36.31,17.88,271.8,-85.47,151.35
53.170254,-1.671244,223.84,8.3,3,113.02,21 / 22,602414,2019-11-06 16:16:22:876,0.0903,1.421,9.7929,0.0063,-0.0457,9.8065,-0.013,0.069,0.147,-25.94,-36.94,18.13,277.72,-85.55,158.23
53.170254,-1.671244,223.84,8.3,3,113.02,21 / 22,602514,2019-11-06 16:16:22:976,-1.9218,-2.9574,10.0007,-0.0254,-0.0239,9.8065,0.0036,-0.1543,0.2496,-26.56,-35.94,18.5,287.52,-85.85,166.76
53.170254,-1.671244,223.84,8.3,3,113.02,21 / 22,602614,2019-11-06 16:16:23:076,0.0953,1.6118,9.9058,-0.0074,0.0202,9.8066,-0.091,-0.4066,0.1742,-26.62,-36.25,17.81,292.75,-86.17,173.03
53.170254,-1.671244,223.84,8.3,3,113.02,21 / 22,602713,2019-11-06 16:16:23:175,-1.1545,-0.6448,9.5136,-0.0133,0.0243,9.8066,0.0989,-0.343,0.1835,-26.56,-36.37,18.13,292.8,-86.39,172.85
53.170254,-1.671244,223.84,8.3,3,113.02,21 / 22,602814,2019-11-06 16:16:23:276,0.9018,0.098,9.0655,-0.0082,0.0611,9.8064,0.1077,-0.1589,-0.0396,-26.94,-36.37,18.5,293.73,-86.35,172.29
53.170254,-1.671244,223.84,8.3,3,113.02,21 / 23,602913,2019-11-06 16:16:23:375,-0.6908,-1.9359,9.8779,0.0359,0.0336,9.8064,0.0388,-0.2572,0.0544,-26.37,-36.87,18.06,282.51,-86.29,162.09
53.170254,-1.671244,223.84,8.3,3,113.02,21 / 23,603013,2019-11-06 16:16:23:475,-3.3404,-0.3649,10.1789,0.0016,0.0332,9.8066,-0.1309,-0.4456,0.1483,-26,-36.62,18.19,278.78,-86.27,158.43
53.170254,-1.671244,223.84,8.3,3,113.02,21 / 23,603113,2019-11-06 16:16:23:575,-2.0851,-1.0496,10.4254,-0.0299,0.0551,9.8064,0.0323,-0.2183,0.1854,-26.19,-36.37,17.63,273.57,-86.85,152.47
53.170254,-1.671244,223.84,8.3,3,113.02,21 / 23,603213,2019-11-06 16:16:23:675,-1.0564,1.9219,8.1866,-0.0036,-0.0036,9.8066,0.1902,-0.6345,0.2588,-25.81,-36.44,18.44,275.18,-86.97,153.93
53.170254,-1.671244,223.84,8.3,3,113.02,21 / 23,603314,2019-11-06 16:16:23:776,0.5796,4.2151,9.0205,-0.0161,-0.031,9.8065,-0.0712,-0.1417,0.3,-26.5,-36.19,17.81,282.24,-86.97,160.94
53.170254,-1.671244,223.84,8.3,3,113.02,21 / 23,603414,2019-11-06 16:16:23:876,1.7651,1.0204,11.7871,0.0403,0.0932,9.8061,-0.1276,-1.045,0.6738,-26.75,-36,18.06,282.44,-87.33,161.65
53.170254,-1.671244,223.84,8.3,3,113.02,21 / 23,603514,2019-11-06 16:16:23:976,-10.3489,-12.0625,11.669,0.0385,0.0472,9.8064,0.059,-0.8001,0.4788,-26.75,-36.56,17.19,287.84,-87.76,168.13
53.170254,-1.671244,223.84,8.3,3,113.02,21 / 23,603614,2019-11-06 16:16:24:076,-1.2014,-3.2109,9.7965,0.1957,0.2699,9.8009,0.2927,-1.761,1.073,-26.25,-37,17.13,290.68,-87.47,170.34
53.170254,-1.671244,223.84,8.3,3,113.02,21 / 23,603714,2019-11-06 16:16:24:176,-5.4979,-4.1772,9.2403,0.113,0.024,9.8059,0.0437,-1.0774,0.7937,-26.37,-36.12,18.38,276.24,-86.33,155.73
53.170254,-1.671244,223.84,8.3,3,113.02,21 / 23,603814,2019-11-06 16:16:24:276,7.6339,8.4074,11.5362,0.1132,0.1291,9.8051,0.0759,-1.7576,1.0993,-26.31,-36.37,19.19,299.27,-86.28,176.79
53.170254,-1.671244,223.84,8.3,3,113.02,20 / 22,603913,2019-11-06 16:16:24:375,2.0369,0.8457,10.5188,0.0362,0.1298,9.8057,0.0765,-1.1838,0.7645,-26.06,-36.44,19.25,290.52,-86.36,168.22
53.170254,-1.671244,223.84,8.3,3,113.02,20 / 22,604013,2019-11-06 16:16:24:475,3.2918,8.0384,7.7461,0.0736,0.2186,9.8039,0.1786,-1.3448,0.7294,-26.44,-36.81,18.38,270.37,-86.42,149.88
53.170254,-1.671244,223.84,8.3,3,113.02,20 / 22,604114,2019-11-06 16:16:24:576,-4.1177,-10.2503,11.5183,0.0285,0.1328,9.8056,0.2114,-1.3599,0.6688,-26.12,-35.94,18.5,273.97,-86.46,151.78
53.170254,-1.671244,223.84,8.3,3,113.02,20 / 22,604214,2019-11-06 16:16:24:676,2.7836,2.9948,11.1219,0.0056,0.0694,9.8063,0.1625,-0.6418,0.3099,-26.69,-36,18.63,281.04,-86.37,159.82
53.170254,-1.671244,223.84,8.3,3,113.02,20 / 22,604315,2019-11-06 16:16:24:777,-3.8593,-7.2544,8.9251,0.0185,0.0797,9.8063,0.0753,-0.9424,0.4917,-26.44,-36.31,18.63,282.05,-86.47,159.78
53.170254,-1.671244,223.84,8.3,3,113.02,20 / 22,604413,2019-11-06 16:16:24:875,0.048,0.253,10.0882,-0.0039,0.0009,9.8066,-0.0879,0.17,-0.0116,-26.19,-36.06,18.25,286.11,-86.37,165.42
53.170254,-1.671244,223.84,8.3,3,113.02,20 / 22,604514,2019-11-06 16:16:24:976,-2.2572,-4.0378,10.7883,0.0224,0.0608,9.8063,0.0485,-0.4805,0.2158,-26.69,-36.19,18.69,287.01,-86.46,165.6
53.170254,-1.671244,223.84,8.3,3,113.02,20 / 22,604614,2019-11-06 16:16:25:076,1.334,0.3629,8.3821,-0.0116,-0.0105,9.8065,-0.2119,0.3564,-0.2434,-26.69,-36.44,17.75,287.72,-86.72,167.52
53.170254,-1.671244,223.84,8.3,3,113.02,20 / 22,604714,2019-11-06 16:16:25:176,1.4117,-2.6224,10.8669,0.0224,0.0407,9.8065,0.246,-0.4443,0.3007,-26.56,-36,18.25,281.1,-86.62,161.11
53.170254,-1.671244,223.84,8.3,3,113.02,20 / 22,604814,2019-11-06 16:16:25:276,1.3383,1.1249,11.4632,-0.0112,0.0002,9.8066,0.041,0.382,-0.1792,-26.69,-36.06,18.69,288.46,-86.25,167.25
53.170254,-1.671244,223.84,8.3,3,113.02,19 / 22,604914,2019-11-06 16:16:25:376,-0.3086,-2.9854,10.2043,0.0148,0.0134,9.8066,-0.1211,-0.1104,-0.0531,-26.44,-36.12,18.5,283.95,-86.34,161.8
53.170254,-1.671244,223.84,8.3,3,113.02,19 / 22,605013,2019-11-06 16:16:25:475,0.172,-3.2544,9.8572,-0.0094,-0.0068,9.8065,-0.0042,0.4874,-0.0211,-26.12,-37,18.56,277.06,-86.58,154.82
53.170254,-1.671244,223.84,8.3,3,113.02,19 / 22,605114,2019-11-06 16:16:25:576,-0.612,-0.4394,10.5766,0.0179,-0.0427,9.8065,-0.2794,0.2073,-0.2246,-26.5,-36.25,18.25,275.39,-86.66,154.49
53.170254,-1.671244,223.84,8.3,3,113.02,19 / 22,605214,2019-11-06 16:16:25:676,-0.8546,-1.3631,9.8925,0.0113,-0.0289,9.8066,0.0449,0.177,0.1393,-26.87,-36.44,18.25,271.9,-86.63,151.95
53.170254,-1.671244,223.84,8.3,3,113.02,19 / 22,605313,2019-11-06 16:16:25:775,-0.0928,-0.7435,9.3665,-0.0178,-0.0516,9.8064,0.0183,0.224,-0.1613,-26.25,-36.75,17.94,280.13,-86.57,159.41
53.170254,-1.671244,223.84,8.3,3,113.02,19 / 22,605413,2019-11-06 16:16:25:875,0.3635,-2.4182,9.7365,0.0181,0.0008,9.8066,0.1478,-0.0213,-0.002,-26.44,-36.56,18.69,279.37,-86.2,157.55
53.170254,-1.671244,223.84,8.3,3,113.02,19 / 22,605514,2019-11-06 16:16:25:976,3.7141,0.0859,7.8045,0.01,-0.0129,9.8066,-0.1125,0.2166,-0.1394,-26.94,-36.87,18.13,276.13,-85.75,157.29
53.170254,-1.671244,223.84,8.3,3,113.02,19 / 22,605614,2019-11-06 16:16:26:076,0.1363,-2.9363,9.5555,-0.0477,-0.0146,9.8065,-0.0238,0.1797,-0.1872,-26.19,-36.25,18.5,274.94,-86.06,153.19
53.170254,-1.671244,223.84,8.3,3,113.02,19 / 22,605714,2019-11-06 16:16:26:176,0.7328,-2.0469,10.227,-0.061,0.0134,9.8064,0.0072,0.2084,-0.1016,-26.12,-37.06,18.19,270.27,-86.78,149.36
53.170254,-1.671244,223.84,8.3,3,113.02,19 / 22,605814,2019-11-06 16:16:26:276,-3.3362,-2.2005,8.9905,-0.0127,0.0213,9.8065,0.0093,0.1491,-0.1949,-25.87,-36.5,17.38,260.94,-86.78,141.44
53.170254,-1.671244,223.84,8.3,3,113.02,20 / 21,605913,2019-11-06 16:16:26:375,3.0578,2.2163,9.9673,0.018,-0.0179,9.8066,0.1091,0.3065,-0.2712,-25.44,-36.81,18.25,260.26,-86.2,138.99
53.170254,-1.671244,223.84,8.3,3,113.02,20 / 21,606014,2019-11-06 16:16:26:476,1.5159,-2.204,9.2222,0.0578,-0.0709,9.8061,-0.1222,-0.0036,0.0655,-25.37,-36.37,18.19,260.71,-85.82,139.77
53.170254,-1.671244,223.84,8.3,3,113.02,20 / 21,606114,2019-11-06 16:16:26:576,2.1254,0.2435,8.6256,0.0162,-0.0082,9.8066,-0.0828,0.2417,0.0201,-25.75,-36.87,17.63,266.36,-85.62,146.79
53.170254,-1.671244,223.84,8.3,3,113.02,20 / 21,606213,2019-11-06 16:16:26:675,2.0884,1.8979,9.3672,-0.0133,0.0868,9.8062,-0.0974,-0.3374,0.1903,-25.12,-36.44,17.56,266.42,-85.93,145.42
53.170254,-1.671244,223.84,8.3,3,113.02,20 / 21,606313,2019-11-06 16:16:26:775,0.3443,1.5495,8.7116,-0.0281,-0.006,9.8066,-0.0756,-0.0838,0.0015,-25.37,-37.12,17.25,254.77,-86.28,134.92
53.170254,-1.671244,223.84,8.3,3,113.02,20 / 21,606414,2019-11-06 16:16:26:876,0.315,1.8604,10.2211,0.0136,0.0267,9.8066,0.1482,-0.4872,0.1654,-25.19,-36.75,18.13,253.14,-86.25,131.68
53.170254,-1.671244,223.84,8.3,3,113.02,20 / 21,606513,2019-11-06 16:16:26:975,-0.218,-3.2315,9.3202,0.0639,0.0356,9.8063,0.0137,-0.4145,0.3871,-25.56,-37.19,17.63,254.79,-85.94,134.65
53.170254,-1.671244,223.84,8.3,3,113.02,20 / 21,606614,2019-11-06 16:16:27:076,-0.6075,-3.8442,11.3282,0.0456,0.0816,9.8061,0.1669,-0.2691,0.3817,-25.56,-37,17.31,259.68,-86.17,140.97
53.170254,-1.671244,223.84,8.3,3,113.02,20 / 21,606714,2019-11-06 16:16:27:176,-3.438,-2.0204,9.7513,0.0143,-0.0031,9.8066,-0.0864,-0.4314,-0.0882,-25.37,-37.12,17.5,257.33,-85.65,136.65
53.170254,-1.671244,223.84,8.3,3,113.02,20 / 21,606814,2019-11-06 16:16:27:276,1.7747,4.7971,9.6583,0.0639,0.0648,9.8062,0.2189,-0.4385,0.3878,-24.5,-37.37,17.88,255.44,-85.43,134
53.170254,-1.671244,223.84,8.3,3,113.02,19 / 21,606914,2019-11-06 16:16:27:376,-2.8689,-6.1485,8.0361,0.0527,0.0113,9.8065,-0.1387,-0.6152,0.0172,-25.19,-37.25,17.88,256.54,-84.87,136.75
53.170254,-1.671244,223.84,8.3,3,113.02,19 / 21,607014,2019-11-06 16:16:27:476,-0.234,3.0824,8.579,0.0646,0.01,9.8064,-0.3605,-0.2815,0.1084,-24.81,-37.5,17,249.2,-84.29,131.45
53.170254,-1.671244,223.84,8.3,3,113.02,19 / 21,607113,2019-11-06 16:16:27:575,-2.1523,-3.5498,9.3953,0.0253,0.1023,9.806,-0.071,-0.5866,0.446,-24.81,-37.75,17.13,243.98,-84.72,125.65
53.170254,-1.671244,223.84,8.3,3,113.02,19 / 21,607213,2019-11-06 16:16:27:675,2.2923,6.2458,8.5993,0.0336,0.0703,9.8063,0.1139,-0.6337,0.3204,-24.56,-36.94,17.31,245.67,-85.14,126.82
53.170254,-1.671244,223.84,8.3,3,113.02,19 / 21,607313,2019-11-06 16:16:27:775,0.2642,-0.514,9.9129,0.0117,0.0211,9.8066,0.1289,-0.3367,0.2394,-24.75,-37.37,17.81,248.04,-84.93,127.87
53.170254,-1.671244,223.84,8.3,3,113.02,19 / 21,607413,2019-11-06 16:16:27:875,1.4534,-2.7529,10.7323,0.002,0.0244,9.8066,0.139,-0.3314,0.0111,-24.87,-37.25,17.81,252.02,-84.92,132.02
53.170254,-1.671244,223.84,8.3,3,113.02,19 / 21,607513,2019-11-06 16:16:27:975,-3.4276,-3.5833,11.0012,0.0015,0.0508,9.8065,0.0977,-0.4798,0.2513,-24.12,-36.75,17.56,247.65,-84.62,126.85
53.170254,-1.671244,223.84,8.3,3,113.02,19 / 21,607614,2019-11-06 16:16:28:076,3.9187,1.5642,12.5294,-0.0159,0.0334,9.8066,0.2109,0.415,-0.0064,-24.12,-36.94,18,247.36,-84.87,126.27
53.170254,-1.671244,223.84,8.3,3,113.02,19 / 21,607714,2019-11-06 16:16:28:176,0.4814,1.3511,7.389,0.0231,0.0003,9.8066,-0.0569,0.0814,-0.2033,-24.31,-37.62,17.5,249.54,-84.53,129.11
53.170254,-1.671244,223.84,8.3,3,113.02,19 / 21,607814,2019-11-06 16:16:28:276,5.3666,5.029,9.1649,-0.0008,0.0336,9.8065,0.1262,-0.4714,0.2567,-25,-37.12,16.56,247.52,-84.38,129.59
53.1701,-1.670193,224.93,9.74,3,101.22,18 / 19,607914,2019-11-06 16:16:28:376,-4.2807,-4.1398,8.7514,-0.0977,-0.0654,9.8059,-0.0029,0.3481,-0.1302,-24.44,-37.44,17.63,248.93,-84.53,128.29
53.1701,-1.670193,224.93,9.74,3,101.22,18 / 19,608014,2019-11-06 16:16:28:476,-0.1918,2.9388,11.1555,-0.0478,-0.1329,9.8056,0.008,0.575,-0.3076,-24.19,-37.37,17.25,251.16,-85.45,131.23
53.1701,-1.670193,224.93,9.74,3,101.22,18 / 19,608114,2019-11-06 16:16:28:576,-3.8361,-4.592,10.5873,-0.0296,-0.0694,9.8063,0.1094,0.1928,-0.4008,-25.25,-36.69,17.5,249.91,-85.36,129.35
53.1701,-1.670193,224.93,9.74,3,101.22,18 / 19,608213,2019-11-06 16:16:28:675,3.5177,1.9141,9.7622,0.0591,0.0254,9.8064,-0.0288,0.245,0.1394,-24.5,-37.56,17.5,251.55,-85.02,130.63
53.1701,-1.670193,224.93,9.74,3,101.22,18 / 19,608314,2019-11-06 16:16:28:776,-2.1107,-2.6593,9.6358,-0.038,0.0008,9.8065,0.1197,-0.2783,0.1686,-24.87,-36.87,17.13,254.15,-85,135.79
53.1701,-1.670193,224.93,9.74,3,101.22,18 / 19,608414,2019-11-06 16:16:28:876,1.4056,-0.4755,10.3681,-0.0336,0.005,9.8065,-0.0123,0.3758,-0.2598,-25,-37.62,17.94,254.54,-85.28,134.37
53.1701,-1.670193,224.93,9.74,3,101.22,18 / 19,608514,2019-11-06 16:16:28:976,-0.5055,-5.8154,10.5781,-0.0034,0.0894,9.8062,0.2354,-0.8554,0.3964,-25.12,-37.37,18.13,247.01,-84.93,126.8
53.1701,-1.670193,224.93,9.74,3,101.22,18 / 19,608614,2019-11-06 16:16:29:076,-2.0515,-3.4975,9.0494,0.0079,-0.0185,9.8066,-0.1877,-0.4021,0.1198,-24.75,-36.87,16.88,247.4,-85.08,128.69
53.1701,-1.670193,224.93,9.74,3,101.22,18 / 19,608714,2019-11-06 16:16:29:176,1.7867,5.9444,10.8604,0.0727,0.1041,9.8058,-0.0089,-0.5371,0.4851,-25,-37.62,16.94,245.48,-85.52,126.34
53.1701,-1.670193,224.93,9.74,3,101.22,18 / 19,608814,2019-11-06 16:16:29:276,1.0501,-1.5706,10.8912,0.0017,0.0352,9.8065,0.1235,-0.6673,0.1036,-24.69,-36.75,16.5,244.21,-85.25,125.16
53.1701,-1.670193,224.93,9.74,3,101.22,19 / 21,608913,2019-11-06 16:16:29:375,0.3723,3.4119,8.7499,-0.021,0.0293,9.8066,0.1277,-0.4592,0.0067,-23.94,-37.37,17.13,246.23,-85.19,126.39
53.1701,-1.670193,224.93,9.74,3,101.22,19 / 21,609013,2019-11-06 16:16:29:475,-1.1336,-4.8679,10.255,-0.0017,0.1001,9.8061,0.1144,-0.6032,0.4181,-24.69,-37.06,16.56,241.38,-85.04,122.42
53.1701,-1.670193,224.93,9.74,3,101.22,19 / 21,609114,2019-11-06 16:16:29:576,2.1914,-0.8004,12.9144,0.0328,0.0424,9.8065,0.1972,-0.4581,0.1926,-24.56,-37.62,16.63,243.66,-84.85,125.18
53.1701,-1.670193,224.93,9.74,3,101.22,19 / 21,609216,2019-11-06 16:16:29:678,-3.206,-3.9141,8.0872,0.0765,0.0237,9.8063,-0.115,-0.607,0.364,-24.56,-37.56,17.31,247.27,-84.76,129.07
53.1701,-1.670193,224.93,9.74,3,101.22,19 / 21,609315,2019-11-06 16:16:29:777,3.6187,2.1788,11.3674,0.0812,-0.0018,9.8063,-0.0386,-0.2776,-0.0362,-24.69,-37.5,17.81,251.76,-84.97,131.7
53.1701,-1.670193,224.93,9.74,3,101.22,19 / 21,609414,2019-11-06 16:16:29:876,1.5703,-0.1678,9.5454,0.069,0.1142,9.8057,-0.1706,-0.5791,0.698,-25,-37.87,17.44,249.83,-84.41,132.15
53.1701,-1.670193,224.93,9.74,3,101.22,19 / 21,609514,2019-11-06 16:16:29:976,-0.8073,1.6581,8.5089,-0.0385,0.0237,9.8065,-0.3134,0.342,0.1292,-25.19,-37.19,16.94,254.05,-85.43,135.18
53.1701,-1.670193,224.93,9.74,3,101.22,19 / 21,609616,2019-11-06 16:16:30:078,0.1884,3.4602,9.2905,-0.1076,-0.0293,9.806,0.0922,0.0504,-0.1901,-25.37,-36.81,16.38,249.35,-86.47,130.82
53.1701,-1.670193,224.93,9.74,3,101.22,19 / 21,609713,2019-11-06 16:16:30:175,1.7028,2.5405,10.2829,-0.0394,-0.1402,9.8055,0.125,0.3027,-0.0938,-25.87,-36.81,16.25,262.14,-86.92,144.22
53.1701,-1.670193,224.93,9.74,3,101.22,19 / 21,609813,2019-11-06 16:16:30:275,-1.5642,-4.8994,11.1343,0.0156,-0.0791,9.8063,-0.016,-0.1662,0.2729,-27.19,-36.87,17.56,280.63,-86.88,160.45
53.1701,-1.670193,224.93,9.74,3,101.22,22 / 22,609913,2019-11-06 16:16:30:375,-0.735,-1.2874,10.5614,0.0216,0.0152,9.8066,-0.0491,0.2954,-0.1048,-27.06,-36.44,17.44,282.62,-86.98,163.77
53.1701,-1.670193,224.93,9.74,3,101.22,22 / 22,610014,2019-11-06 16:16:30:476,-0.9011,-0.9617,10.5118,0.0154,-0.0121,9.8066,0.0043,0.0945,-0.1076,-26.62,-36.56,16.94,277.53,-86.61,159.25
53.1701,-1.670193,224.93,9.74,3,101.22,22 / 22,610114,2019-11-06 16:16:30:576,-0.8463,-1.7708,9.622,-0.0144,-0.0037,9.8066,0.0974,0.2339,-0.1857,-26.69,-36.19,17.25,277.67,-86.4,159.53
53.1701,-1.670193,224.93,9.74,3,101.22,22 / 22,610214,2019-11-06 16:16:30:676,-0.3595,2.9942,7.913,0.0097,0.0175,9.8066,-0.1584,0.2193,-0.1427,-26.25,-36.94,16.69,272.8,-86.34,154
53.1701,-1.670193,224.93,9.74,3,101.22,22 / 22,610314,2019-11-06 16:16:30:776,-4.2865,3.1454,9.498,-0.0263,0.0028,9.8066,-0.2873,0.35,-0.1335,-26.44,-37.25,16.81,264.45,-86.62,145.28
53.1701,-1.670193,224.93,9.74,3,101.22,22 / 22,610414,2019-11-06 16:16:30:876,-3.8679,3.6619,8.1338,0.0012,-0.0002,9.8066,-0.2404,0.3988,-0.2008,-25.5,-37.19,16.25,256.18,-86.92,137.27
53.1701,-1.670193,224.93,9.74,3,101.22,22 / 22,610514,2019-11-06 16:16:30:976,-3.6093,-3.9961,13.488,0.1247,-0.0839,9.8055,-0.074,0.7316,-0.3748,-26.44,-37.25,15.69,258.87,-85.88,142.15
53.1701,-1.670193,224.93,9.74,3,101.22,22 / 22,610614,2019-11-06 16:16:31:076,-1.6746,-6.0786,12.7019,0.1019,-0.0325,9.806,0.1541,0.2288,-0.2545,-25.5,-36.62,17.19,260.99,-84.94,142.88
53.1701,-1.670193,224.93,9.74,3,101.22,22 / 22,610714,2019-11-06 16:16:31:176,-1.3713,-0.8159,10.952,0.0223,-0.1131,9.8059,-0.1897,0.7956,-0.4803,-25.25,-36.87,17.5,259.46,-84.46,140.23
53.1701,-1.670193,224.93,9.74,3,101.22,22 / 22,610814,2019-11-06 16:16:31:276,1.2916,3.8502,6.6946,0.0016,0.0298,9.8066,-0.3282,0.0717,0.0624,-25,-36.94,17.38,259.86,-84.52,142.23
53.1701,-1.670193,224.93,9.74,3,101.22,21 / 23,610914,2019-11-06 16:16:31:376,-0.356,2.5284,9.3588,-0.064,-0.0377,9.8063,-0.1366,0.3378,0.0199,-25.37,-37.12,16.19,255.87,-85.61,138.53
53.1701,-1.670193,224.93,9.74,3,101.22,21 / 23,611014,2019-11-06 16:16:31:476,-4.478,-1.203,10.3678,-0.0339,-0.0349,9.8065,0.022,-0.334,0.2416,-26.44,-37.06,16.5,260.27,-86.1,141.66
53.1701,-1.670193,224.93,9.74,3,101.22,21 / 23,611114,2019-11-06 16:16:31:576,0.3162,3.7459,12.1766,0.0899,0.0147,9.8061,0.0357,-0.097,0.2698,-26.56,-36.44,16.38,269.14,-86.32,152.72
53.1701,-1.670193,224.93,9.74,3,101.22,21 / 23,611214,2019-11-06 16:16:31:676,0.5672,-2.6914,11.1547,0.0687,0.0278,9.8063,0.2659,-0.4996,0.2093,-26.5,-36.44,18.13,277.74,-85.23,158.47
53.1701,-1.670193,224.93,9.74,3,101.22,21 / 23,611314,2019-11-06 16:16:31:776,3.0041,3.7217,8.8008,0.0047,0.0329,9.8065,-0.0649,-0.4153,0.137,-26.5,-37.06,17.56,278.74,-84.86,160.05
53.1701,-1.670193,224.93,9.74,3,101.22,21 / 23,611414,2019-11-06 16:16:31:876,-1.1618,-3.4091,9.0003,-0.0139,0.1238,9.8058,-0.0457,-0.8862,0.3176,-26.69,-37.06,17.69,271.71,-85.16,153.57
53.1701,-1.670193,224.93,9.74,3,101.22,21 / 23,611514,2019-11-06 16:16:31:976,-0.3564,7.0251,6.9492,-0.0123,0.0565,9.8065,-0.1885,0.3399,-0.3505,-25.62,-37.62,16.44,261.62,-85.41,145.66
53.1701,-1.670193,224.93,9.74,3,101.22,21 / 23,611614,2019-11-06 16:16:32:076,-2.8228,-1.6181,9.7185,0.0124,0.1192,9.8059,0.11,-0.3312,0.0509,-24.62,-36.31,16.81,255.55,-85.08,136.98
53.1701,-1.670193,224.93,9.74,3,101.22,21 / 23,611714,2019-11-06 16:16:32:176,-1.1428,1.5549,9.4649,0.0069,0.0012,9.8066,0.0607,0.067,-0.2557,-24.69,-37.94,16.44,251.83,-84.56,135.79
53.1701,-1.670193,224.93,9.74,3,101.22,21 / 23,611814,2019-11-06 16:16:32:276,-2.8957,-6.9441,10.8394,0.0473,0.1077,9.8059,0.1215,-0.5536,0.3584,-24.69,-37.06,17.38,250.87,-84.04,133.49
53.1701,-1.670193,224.93,9.74,3,101.22,20 / 21,611914,2019-11-06 16:16:32:376,1.928,1.73,10.4211,-0.0013,-0.0327,9.8065,-0.0979,0.3478,-0.3273,-24.62,-37.69,16.94,253.62,-83.94,136.66
53.1701,-1.670193,224.93,9.74,3,101.22,20 / 21,612014,2019-11-06 16:16:32:476,-2.8692,1.6483,10.0123,0.001,0.0624,9.8063,-0.0485,-0.7368,0.3592,-24.56,-37.06,17.06,249.9,-83.94,132.59
53.1701,-1.670193,224.93,9.74,3,101.22,20 / 21,612114,2019-11-06 16:16:32:576,2.9543,7.479,9.0184,-0.0258,-0.1032,9.806,-0.1896,0.9394,-0.4955,-25.12,-36.75,16.69,250.84,-84.42,133.02
53.1701,-1.670193,224.93,9.74,3,101.22,20 / 21,612214,2019-11-06 16:16:32:676,-0.3506,-1.6361,8.9776,0.0444,0.0527,9.8063,-0.0451,0.0319,0.098,-24.06,-37,17.5,255.9,-84.6,135.47
53.1701,-1.670193,224.93,9.74,3,101.22,20 / 21,612314,2019-11-06 16:16:32:776,-0.8932,-2.0199,9.0054,0.0029,0.0183,9.8066,-0.1292,0.6417,-0.3289,-24.94,-37.56,16.75,252.34,-84.36,134.83
53.1701,-1.670193,224.93,9.74,3,101.22,20 / 21,612414,2019-11-06 16:16:32:876,-4.3471,-0.86,9.9365,-0.0219,0.0259,9.8065,-0.0925,0.0053,-0.07,-24.56,-37.75,16.19,245.54,-84.33,129.46
53.1701,-1.670193,224.93,9.74,3,101.22,20 / 21,612514,2019-11-06 16:16:32:976,-1.3022,4.0061,9.641,-0.0202,-0.0523,9.8064,0.0402,0.3658,-0.2325,-24.75,-37.69,16.31,245.69,-84.77,129.11
53.1701,-1.670193,224.93,9.74,3,101.22,20 / 21,612614,2019-11-06 16:16:33:076,2.3584,3.6652,9.1531,0.0135,0.0322,9.8065,0.012,0.0549,0.0798,-24.81,-37.19,16.5,249.25,-84.59,131.17
53.1701,-1.670193,224.93,9.74,3,101.22,20 / 21,612714,2019-11-06 16:16:33:176,0.8116,4.4198,9.1886,-0.0206,-0.0666,9.8064,-0.0064,0.4524,-0.3896,-24.81,-37.12,16.88,251.9,-84.44,134.11
53.1701,-1.670193,224.93,9.74,3,101.22,20 / 21,612814,2019-11-06 16:16:33:276,1.4656,-2.2002,9.6821,-0.0279,0.0198,9.8066,0.0324,-0.18,0.2199,-24.81,-36.94,17.31,254,-84.61,136.09
53.1701,-1.670193,224.93,9.74,3,101.22,21 / 22,612913,2019-11-06 16:16:33:375,0.6879,-0.2254,7.7479,-0.0741,-0.0327,9.8062,-0.0505,0.1943,-0.2028,-25.81,-37,15.94,254.45,-85.13,138.5
53.1701,-1.670193,224.93,9.74,3,101.22,21 / 22,613013,2019-11-06 16:16:33:475,-4.9761,-7.4605,11.0783,0.0277,-0.0283,9.8065,-0.0011,-0.4427,0.6877,-25.94,-36.37,15.88,262.4,-86,145.46
53.1701,-1.670193,224.93,9.74,3,101.22,21 / 22,613114,2019-11-06 16:16:33:576,-3.0108,-5.1568,9.1823,0.0595,-0.0306,9.8064,-0.4047,1.0853,-0.3202,-26.19,-37.25,15.63,263.98,-85.99,147.2
53.1701,-1.670193,224.93,9.74,3,101.22,21 / 22,613214,2019-11-06 16:16:33:676,1.0767,7.0465,7.5302,-0.0355,-0.0797,9.8062,0.0616,0.6422,-0.6457,-25.75,-37.12,15.69,259.37,-85.65,142.93
53.1701,-1.670193,224.93,9.74,3,101.22,21 / 22,613314,2019-11-06 16:16:33:776,-3.0428,-1.1472,10.0005,0.0039,-0.0494,9.8064,0.0875,0.3647,-0.2425,-25.25,-36.44,17.63,262.6,-84.75,142.92
