GPS LATITUDE (degrees), GPS LONGITUDE (degrees), GPS ALTITUDE (m), GPS SPEED (Kmh), GPS ACCURACY (m), GPS ORIENTATION (Â°),GPS SATELLITES IN RANGE, TIME SINCE START (ms), DATE (YYYY-MO-DD HH-MI-SS_SSS), ACCELEROMETER X (m/s²) , ACCELEROMETER Y (m/s²), ACCELEROMETER Z (m/s²), GRAVITY X (m/s²), GRAVITY Y (m/s²), GRAVITY Z (m/s²), GYROSCOPE Yaw (rad/s), GYROSCOPE Pitch (rad/s), GYROSCOPE Roll (rad/s), MAGNETIC FIELD X (Î¼T), MAGNETIC FIELD Y (Î¼T), MAGNETIC FIELD Z (Î¼T), ORIENTATION (Yaw) (Â°), ORIENTATION (Pitch) (Â°), ORIENTATION (Roll ) (Â°)
53.18432,-1.646709,188.01,0,6,225.96,17 / 20,14,2019-11-06 16:06:20:476,-0.1931,-0.1121,9.9464,0.0001,0.0003,9.8066,0.0055,0.0183,0.0187,-5.12,-32.81,24.63,328.15,-89.86,159.56
53.18432,-1.646709,188.01,0,6,225.96,17 / 20,113,2019-11-06 16:06:20:575,0.3289,-0.0459,9.7859,0.0056,0.0016,9.8066,0.002,0.0317,-0.0182,-4.81,-32.37,25.06,335.87,-89.87,167.25
53.18432,-1.646709,188.01,0,6,225.96,17 / 20,213,2019-11-06 16:06:20:675,-0.1314,0.0251,9.7872,-0.0014,-0.0013,9.8066,0.01,-0.0025,0.0047,-4.62,-33,24.56,331.37,-89.87,162.77
53.18432,-1.646709,188.01,0,6,225.96,17 / 20,313,2019-11-06 16:06:20:775,0.1127,-0.1401,9.9487,0.0012,0.0028,9.8066,-0.0122,0.0201,-0.0186,-4.69,-32.75,24.06,324.35,-89.87,156.22
53.18432,-1.646709,188.01,0,6,225.96,17 / 20,413,2019-11-06 16:06:20:875,-0.1735,-0.1346,9.7784,0.0019,0.0004,9.8066,-0.0058,0.0082,0.0124,-5.06,-32.25,24.63,331.09,-89.87,162.47
53.18432,-1.646709,188.01,0,6,225.96,17 / 20,513,2019-11-06 16:06:20:975,0.2216,0.004,9.8725,-0.0005,-0.0008,9.8066,0.0188,0.0133,-0.0223,-4.87,-32.56,24.63,327.56,-89.87,158.96
53.18432,-1.646709,188.01,0,6,225.96,17 / 20,613,2019-11-06 16:06:21:075,-0.0959,-0.1052,9.8617,0.0047,0.0006,9.8066,0.0076,-0.0304,-0.0034,-4.69,-32.75,24.13,321.91,-89.87,153.79
53.18432,-1.646709,188.01,0,6,225.96,17 / 20,713,2019-11-06 16:06:21:175,-0.1047,-0.0909,9.8822,-0.0007,-0.002,9.8066,-0.0075,0.0103,0.0033,-5,-32.62,24.94,328.47,-89.86,159.87
53.18432,-1.646709,188.01,0,6,225.96,17 / 20,813,2019-11-06 16:06:21:275,0.0724,-0.0349,9.9587,-0.001,0.003,9.8066,-0.0133,-0.005,0.0103,-5.56,-32.5,25,324.51,-89.87,158.1
53.18432,-1.646709,188.01,0,6,225.96,16 / 19,913,2019-11-06 16:06:21:375,-0.0842,-0.1756,9.8675,-0.0032,0.0009,9.8066,0.0005,-0.0079,0.0017,-5.5,-32.31,24.25,323.99,-89.86,155.87
53.18432,-1.646709,188.01,0,6,225.96,16 / 19,1015,2019-11-06 16:06:21:477,-0.0479,0.0601,9.7565,0.0016,-0.0015,9.8066,-0.0007,-0.0141,-0.0011,-4.75,-32.56,24.56,327.06,-89.88,158.45
53.18432,-1.646709,188.01,0,6,225.96,16 / 19,1113,2019-11-06 16:06:21:575,-0.0182,-0.0638,9.9357,0.0012,-0.0027,9.8066,-0.0108,0.0013,-0.0037,-4.94,-32.69,24.94,327.19,-89.89,158.58
53.18432,-1.646709,188.01,0,6,225.96,16 / 19,1213,2019-11-06 16:06:21:675,-0.0395,0.0737,9.8276,0.0012,0.0001,9.8066,0.0002,-0.0123,-0.0005,-4.44,-32.5,24.88,328.12,-89.88,157.3
53.18432,-1.646709,188.01,0,6,225.96,16 / 19,1314,2019-11-06 16:06:21:776,-0.0723,-0.0698,9.8419,-0.0014,-0.0012,9.8066,0.003,0.0114,-0.0048,-4.94,-32.19,24.81,325.82,-89.87,157.22
53.18432,-1.646709,188.01,0,6,225.96,16 / 19,1414,2019-11-06 16:06:21:876,-0.1276,0.0358,9.8192,0.0012,-0.0008,9.8066,-0.0046,0.0208,0.0008,-4.87,-32.19,24.75,324.04,-89.86,155.46
53.18432,-1.646709,188.01,0,6,225.96,16 / 19,1513,2019-11-06 16:06:21:975,0.0218,-0.1036,9.8131,-0.0019,0.0005,9.8066,0.0052,0.0083,-0.007,-5.19,-32.69,24.44,325.45,-89.87,157.32
53.18432,-1.646709,188.01,0,6,225.96,16 / 19,1613,2019-11-06 16:06:22:075,0.0439,0.0812,9.874,-0.0011,0.0001,9.8066,-0.002,-0.003,-0.0104,-4.44,-32.62,24.31,330.18,-89.87,159.72
53.18432,-1.646709,188.01,0,6,225.96,16 / 19,1714,2019-11-06 16:06:22:176,-0.0913,0.0365,9.8381,-0.0016,0.0005,9.8066,0.0039,0.0052,-0.007,-4.5,-32.69,24.63,326.46,-89.87,155.64
53.18432,-1.646709,188.01,0,6,225.96,16 / 19,1814,2019-11-06 16:06:22:276,-0.0052,-0.0154,9.7771,0.0005,-0.0017,9.8066,-0.0061,0.0208,0.0025,-5.37,-32.31,24.5,324.71,-89.87,156.12
53.18432,-1.646709,188.01,0,6,225.96,18 / 19,1914,2019-11-06 16:06:22:376,0.0454,-0.011,9.9328,0.001,-0.0005,9.8066,-0.0082,-0.0132,0.0099,-5.12,-32.62,24.25,319.69,-89.88,151.57
53.18432,-1.646709,188.01,0,6,225.96,18 / 19,2014,2019-11-06 16:06:22:476,-0.0802,-0.1691,9.9348,-0.0005,0.0009,9.8066,0.0041,-0.0188,-0.0025,-5,-33.06,24.38,326.7,-89.88,158.56
53.18432,-1.646709,188.01,0,6,225.96,18 / 19,2114,2019-11-06 16:06:22:576,0.0529,0.0674,9.8093,0,-0.0017,9.8066,0.0046,0.0195,0.0068,-5.37,-32.5,24.13,328.91,-89.88,160.76
53.18432,-1.646709,188.01,0,6,225.96,18 / 19,2215,2019-11-06 16:06:22:677,-0.037,0.0885,9.8132,0.0038,-0.0021,9.8066,0.0107,-0.0085,-0.0095,-4.5,-32.5,24.94,323.58,-89.86,152.77
53.18432,-1.646709,188.01,0,6,225.96,18 / 19,2314,2019-11-06 16:06:22:776,-0.0883,-0.1241,9.8612,-0.0028,0.0007,9.8066,0.0013,0.0028,-0.0034,-5.37,-32.5,24.31,328.9,-89.88,160.75
53.18432,-1.646709,188.01,0,6,225.96,18 / 19,2414,2019-11-06 16:06:22:876,0.0285,0.0046,9.8367,0.0013,0.0013,9.8066,-0.0131,0.0084,0.0011,-5.31,-32.5,24.75,326.76,-89.89,158.14
53.18432,-1.646709,188.01,0,6,225.96,18 / 19,2513,2019-11-06 16:06:22:975,0.003,-0.1169,9.9672,-0.0005,-0.0008,9.8066,-0.0068,0.0124,-0.001,-4.94,-32.06,24.56,325.23,-89.87,156.63
53.18432,-1.646709,188.01,0,6,225.96,18 / 19,2613,2019-11-06 16:06:23:075,-0.096,-0.0254,9.7932,-0.0012,-0.0004,9.8066,0.0142,0.001,-0.0114,-5.62,-32.31,24.88,313.17,-89.88,146.78
53.18432,-1.646709,188.01,0,6,225.96,18 / 19,2713,2019-11-06 16:06:23:175,-0.0388,-0.1019,9.8377,0.0041,-0.001,9.8066,0.0046,0.0002,-0.0147,-5.19,-32.44,24.81,315.78,-89.88,147.2
53.18432,-1.646709,188.01,0,6,225.96,18 / 19,2813,2019-11-06 16:06:23:275,-0.0198,0.1035,9.8836,-0.0012,-0.0001,9.8066,-0.004,0.0199,0.0116,-5.06,-32.81,24.13,314.1,-89.89,145.97
53.18432,-1.646709,188.01,0,6,225.96,18 / 19,2913,2019-11-06 16:06:23:375,0.0143,-0.1152,9.8814,-0.0006,0.0008,9.8066,-0.0077,-0.0198,-0.0049,-5.25,-32.69,24,316.35,-89.9,148.21
53.18432,-1.646709,188.01,0,6,225.96,18 / 19,3013,2019-11-06 16:06:23:475,-0.1236,-0.0647,9.811,-0.0019,0.0016,9.8066,-0.0049,-0.0167,0.0031,-4.56,-32.69,24.44,325.8,-89.89,157.65
53.18432,-1.646709,188.01,0,6,225.96,18 / 19,3114,2019-11-06 16:06:23:576,-0.028,0.1115,9.7964,-0.0009,0.0003,9.8066,-0.0139,0.0178,0.0087,-5.25,-32.81,24,328.06,-89.9,159.9
53.18432,-1.646709,188.01,0,6,225.96,18 / 19,3214,2019-11-06 16:06:23:676,0.2206,-0.2379,9.9667,0.0025,-0.0023,9.8066,0.0152,0.0191,-0.0156,-4.75,-32.62,24.69,319.74,-89.9,151.13
53.18432,-1.646709,188.01,0,6,225.96,18 / 19,3314,2019-11-06 16:06:23:776,0.0533,0.0941,9.8375,0.0023,0.0007,9.8066,-0.0079,0.0075,-0.024,-5.06,-32.25,24,319.38,-89.89,151.24
53.18432,-1.646709,188.01,0,6,225.96,18 / 19,3414,2019-11-06 16:06:23:876,0.0194,0.1368,9.8057,0.0008,-0.0007,9.8066,-0.0092,0.0045,-0.0014,-4.94,-32.69,24.31,317.43,-89.89,149.3
53.18432,-1.646709,188.01,0,6,225.96,18 / 19,3513,2019-11-06 16:06:23:975,-0.0959,-0.1907,9.8778,0.0016,0.0002,9.8066,-0.0126,0.0195,-0.001,-5.06,-32.62,24.69,317.43,-89.87,148.86
53.18432,-1.646709,188.01,0,6,225.96,18 / 19,3613,2019-11-06 16:06:24:075,0.1109,-0.0801,9.9035,0.0023,-0.0018,9.8066,0.0049,0.0206,-0.0055,-4.81,-32.56,24.38,314.19,-89.88,146.07
53.18432,-1.646709,188.01,0,6,225.96,18 / 19,3713,2019-11-06 16:06:24:175,-0.008,-0.0961,9.9126,0.0018,0.0017,9.8066,-0.0008,-0.0095,-0.008,-5,-32.69,24.44,308.94,-89.87,140.84
53.18432,-1.646709,188.01,0,6,225.96,18 / 19,3813,2019-11-06 16:06:24:275,-0.0712,0.0518,9.7692,-0.0002,0.0021,9.8066,-0.0171,0.0009,0.0003,-5.06,-33.06,24.69,308.94,-89.89,140.36
53.18432,-1.646709,188.01,0,6,225.96,16 / 18,3914,2019-11-06 16:06:24:376,-0.0078,0.0234,9.8382,-0.0011,0.0002,9.8066,-0.0036,0.0132,0.0087,-4.75,-32.44,25.13,314.12,-89.88,145.53
53.18432,-1.646709,188.01,0,6,225.96,16 / 18,4013,2019-11-06 16:06:24:475,0.2321,-0.0728,9.8988,0.003,-0.0011,9.8066,-0.0007,0.0187,-0.0121,-4.75,-32.12,24.69,309.03,-89.88,140.45
53.18432,-1.646709,188.01,0,6,225.96,16 / 18,4114,2019-11-06 16:06:24:576,0.0167,-0.15,9.7456,-0.0012,-0.0006,9.8066,-0.0041,0.0025,0.0017,-5.5,-32.62,24.94,320.83,-89.89,152.23
53.18432,-1.646709,188.01,0,6,225.96,16 / 18,4214,2019-11-06 16:06:24:676,0.1411,0.0887,9.8267,-0.0009,-0.0001,9.8066,0,0.0034,-0.0212,-5.31,-32.12,24.44,299.64,-89.91,131.51
53.18432,-1.646709,188.01,0,6,225.96,16 / 18,4314,2019-11-06 16:06:24:776,0.0062,0.0602,9.9113,0.0027,0.0007,9.8066,0.0006,-0.0165,-0.0064,-5.44,-32.25,24.56,305.25,-89.92,136.65
53.18432,-1.646709,188.01,0,6,225.96,16 / 18,4414,2019-11-06 16:06:24:876,0.0641,-0.0523,9.8304,-0.0036,0.0001,9.8066,-0.0081,0.011,0.009,-4.81,-32.19,24.5,311.08,-89.93,142.46
53.18432,-1.646709,188.01,0,6,225.96,16 / 18,4514,2019-11-06 16:06:24:976,0.0074,0.0689,9.8648,-0.0005,0.001,9.8066,-0.0007,0.0075,-0.0029,-4.75,-32.56,25.25,311.66,-89.92,143.05
53.18432,-1.646709,188.01,0,6,225.96,16 / 18,4614,2019-11-06 16:06:25:076,-0.0201,-0.0511,9.9001,0.001,-0.001,9.8066,0.0083,-0.0081,-0.0006,-4.94,-32.44,24.44,303.67,-89.91,135.53
53.18432,-1.646709,188.01,0,6,225.96,16 / 18,4714,2019-11-06 16:06:25:176,0.1319,-0.0605,9.8864,0.0009,-0.0013,9.8066,0.0116,-0.011,-0.024,-5.37,-32.5,25.19,299.87,-89.91,131.28
53.18432,-1.646709,188.01,0,6,225.96,16 / 18,4813,2019-11-06 16:06:25:275,-0.0266,-0.1183,9.9282,0.0011,0.001,9.8066,0.0012,-0.0027,0.0017,-5.06,-32,24.5,301.82,-89.91,133.23
53.18432,-1.646709,188.01,0,6,225.96,16 / 18,4913,2019-11-06 16:06:25:375,-0.1018,-0.0399,9.8795,0.0038,-0.0011,9.8066,-0.0029,0.0153,0.0012,-5.69,-32.12,24.81,297.08,-89.89,130.7
53.18432,-1.646709,188.01,0,6,225.96,16 / 18,5013,2019-11-06 16:06:25:475,0.083,0.0257,9.7923,0.0018,-0.0006,9.8066,0.0163,0.0314,-0.0053,-5,-32.12,24.25,312.32,-89.91,144.18
53.18432,-1.646709,188.01,0,6,225.96,16 / 18,5113,2019-11-06 16:06:25:575,-0.038,-0.0041,9.8868,0.0006,0.0005,9.8066,0.0019,0,-0.0006,-5.06,-32.31,24.88,302.61,-89.9,134.02
53.18432,-1.646709,188.01,0,6,225.96,16 / 18,5213,2019-11-06 16:06:25:675,0.0163,0.0057,9.7471,-0.0052,-0.0051,9.8066,-0.0126,-0.015,-0.0058,-4.69,-32.44,24.63,312.97,-89.93,144.34
53.18432,-1.646709,188.01,0,6,225.96,16 / 18,5313,2019-11-06 16:06:25:775,0.0624,-0.0978,9.9103,-0.0001,0.0008,9.8066,-0.0064,-0.0152,-0.0046,-4.69,-32.5,24.31,308.45,-89.92,140.3
53.18432,-1.646709,188.01,0,6,225.96,16 / 18,5413,2019-11-06 16:06:25:875,0.0138,-0.0546,9.9041,-0.0002,-0.0023,9.8066,0.0186,-0.0045,-0.0111,-4.81,-32.25,24.31,303.38,-89.91,135.25
53.18432,-1.646709,188.01,0,6,225.96,16 / 18,5513,2019-11-06 16:06:25:975,-0.06,0.0836,9.8543,0.0026,-0.0011,9.8066,-0.0018,-0.0003,-0.0139,-4.94,-32.87,24.88,312.2,-89.9,143.6
53.18432,-1.646709,188.01,0,6,225.96,16 / 18,5613,2019-11-06 16:06:26:075,0.0695,-0.095,9.7804,0.0009,0.0004,9.8066,-0.0132,0.0253,-0.0009,-4.81,-32.37,24.06,317.31,-89.91,149.16
53.18432,-1.646709,188.01,0,6,225.96,16 / 18,5714,2019-11-06 16:06:26:176,-0.1519,0.2682,9.8663,0.0004,0.0011,9.8066,-0.0023,0.0181,-0.0131,-4.75,-32.81,24.31,312.17,-89.9,144.04
53.18432,-1.646709,188.01,0,6,225.96,16 / 18,5814,2019-11-06 16:06:26:276,-0.0128,0.0196,9.7684,0.0009,-0.0006,9.8066,-0.0051,0.0179,0.0032,-4.94,-32.62,24.63,318.28,-89.86,149.71
53.18432,-1.646709,188.01,0,6,225.96,16 / 17,5914,2019-11-06 16:06:26:376,-0.2349,0.0932,9.6205,0.0011,-0.003,9.8066,-0.0263,-0.0262,0.0297,-4.94,-32.94,24.56,325.97,-89.81,157.42
53.18432,-1.646709,188.01,0,6,225.96,16 / 17,6014,2019-11-06 16:06:26:476,0.3048,0.1185,9.9985,-0.0064,-0.0035,9.8066,0.03,-0.0002,-0.0025,-5.37,-32.06,24.81,318.53,-89.79,150.02
53.18432,-1.646709,188.01,0,6,225.96,16 / 17,6114,2019-11-06 16:06:26:576,0.2046,0.1909,9.6062,0.0066,-0.0055,9.8066,0.0169,-0.0299,0.0217,-5.06,-32.44,25.5,326.57,-89.77,157.61
53.18432,-1.646709,188.01,0,6,225.96,16 / 17,6214,2019-11-06 16:06:26:676,-0.0511,0.0055,9.6687,-0.0032,-0.0085,9.8066,-0.0058,-0.0228,-0.0053,-4.75,-33,25,318.87,-89.79,150.35
53.18432,-1.646709,188.01,0,6,225.96,16 / 17,6314,2019-11-06 16:06:26:776,0.1914,-0.0811,9.9019,-0.0046,0.0037,9.8066,0.0022,-0.0495,0.0319,-4.94,-32.87,24.75,333,-89.78,164.43
53.18432,-1.646709,188.01,0,6,225.96,16 / 17,6414,2019-11-06 16:06:26:876,-0.0795,-0.0112,9.9141,-0.0011,-0.0002,9.8066,0.0071,-0.0072,0.0142,-5.12,-33.31,25.19,341.66,-89.77,173.06
53.18432,-1.646709,188.01,0,6,225.96,16 / 17,6514,2019-11-06 16:06:26:976,0.0836,0.0964,9.7357,0.0006,0.0036,9.8066,0.0241,-0.0564,0.0154,-5.44,-32.31,25.38,348.08,-89.76,179.45
53.18432,-1.646709,188.01,0,6,225.96,16 / 17,6614,2019-11-06 16:06:27:076,-0.2752,-0.0241,9.8294,0.0011,-0.0007,9.8066,-0.0128,0.052,-0.0145,-5.06,-33.25,24.31,351.73,-89.75,-176.45
53.18432,-1.646709,188.01,0,6,225.96,16 / 17,6714,2019-11-06 16:06:27:176,0.5489,-0.1857,9.9175,0.0047,0.0001,9.8066,0.0001,0.0539,-0.0233,-5.12,-32.44,25.5,5.51,-89.75,-163.63
53.18432,-1.646709,188.01,0,6,225.96,16 / 17,6813,2019-11-06 16:06:27:275,-0.2787,-0.2449,10.0416,0,0.004,9.8066,0.0014,0.0353,-0.0286,-5.44,-32.62,25.5,11.21,-89.72,-157.98
53.18432,-1.646709,188.01,0,6,225.96,16 / 18,6913,2019-11-06 16:06:27:375,0.0125,0.0934,9.7645,-0.0013,0.0038,9.8066,-0.0113,0.0561,0.0037,-5.56,-32.37,25.5,14.1,-89.69,-153
53.18432,-1.646709,188.01,0,6,225.96,16 / 18,7014,2019-11-06 16:06:27:476,-0.0745,0.014,9.8705,0.0042,-0.0016,9.8066,0.0038,0.0239,-0.0199,-5.62,-32.87,25.19,20.57,-89.67,-146.08
53.18432,-1.646709,188.01,0,6,225.96,16 / 18,7114,2019-11-06 16:06:27:576,0.0761,0.0465,9.9453,0.0038,-0.0024,9.8066,0.0038,0.0509,-0.0157,-5.37,-33.25,25.56,25.94,-89.62,-143.38
53.18432,-1.646709,188.01,0,6,225.96,16 / 18,7213,2019-11-06 16:06:27:675,-0.2508,0.1549,9.8879,0.0005,0.0018,9.8066,-0.0068,0.0194,0.0003,-5.37,-33.06,25.19,26.68,-89.58,-142.25
53.18432,-1.646709,188.01,0,6,225.96,16 / 18,7314,2019-11-06 16:06:27:776,0.444,0.086,9.8052,-0.0004,0.0018,9.8066,-0.0059,0.067,-0.018,-5.62,-33.12,25.75,27.88,-89.52,-139.4
53.18432,-1.646709,188.01,0,6,225.96,16 / 18,7413,2019-11-06 16:06:27:875,-0.3359,-0.144,9.8313,0.0042,0.0007,9.8066,0.0003,0.0117,-0.0054,-5.81,-32.12,25.38,29.96,-89.5,-136.85
53.18432,-1.646709,188.01,0,6,225.96,16 / 18,7513,2019-11-06 16:06:27:975,-0.2538,0.202,9.915,0.002,0.0019,9.8066,-0.0049,0.068,-0.0296,-5.56,-33.25,25.31,33.97,-89.48,-132.91
53.18432,-1.646709,188.01,0,6,225.96,16 / 18,7613,2019-11-06 16:06:28:075,-0.4938,0.2029,9.8813,0.0047,0.0033,9.8066,-0.0042,0.0072,0.0054,-5.75,-32.69,25.31,35.87,-89.46,-131.04
53.18432,-1.646709,188.01,0,6,225.96,16 / 18,7713,2019-11-06 16:06:28:175,0.4628,0.1596,9.8136,0.0009,0.0003,9.8066,-0.0057,0.0761,-0.0313,-5.69,-32.87,24.56,37.6,-89.42,-129.36
53.18432,-1.646709,188.01,0,6,225.96,16 / 18,7814,2019-11-06 16:06:28:276,-0.4671,-0.2192,9.9369,0.0067,0,9.8066,0.0153,-0.0242,0.0141,-5.12,-33.12,25.31,38.79,-89.42,-130.37
53.18432,-1.646709,188.01,0,6,225.96,18 / 18,7914,2019-11-06 16:06:28:376,0.4285,0.0645,9.7664,-0.0023,-0.0006,9.8066,-0.0047,0.07,-0.0209,-5.75,-32.87,25.13,37.71,-89.38,-129.28
53.18432,-1.646709,188.01,0,6,225.96,18 / 18,8014,2019-11-06 16:06:28:476,0.1181,-0.4215,9.8366,0.0049,0,9.8066,0.009,-0.0337,0.0253,-5.5,-33.44,25.31,40.36,-89.35,-128.88
53.18432,-1.646709,188.01,0,6,225.96,18 / 18,8114,2019-11-06 16:06:28:576,0.4374,0.1755,9.7593,-0.0022,-0.0026,9.8066,-0.0033,0.0605,-0.0208,-5.56,-33.06,25.06,39.58,-89.3,-127.5
53.18432,-1.646709,188.01,0,6,225.96,18 / 18,8214,2019-11-06 16:06:28:676,-0.1755,-0.5063,9.9547,0.0027,0.002,9.8066,0.007,-0.0476,0.0236,-5.25,-32.87,25.25,42.19,-89.29,-127.12
53.18432,-1.646709,188.01,0,6,225.96,18 / 18,8313,2019-11-06 16:06:28:775,0.4623,-0.3663,9.8763,-0.0053,-0.0032,9.8066,0.0093,0.0379,-0.0173,-5.25,-33.37,24.88,41.02,-89.25,-128.31
53.18432,-1.646709,188.01,0,6,225.96,18 / 18,8413,2019-11-06 16:06:28:875,0.1564,-0.0117,9.7465,0.0035,0.0006,9.8066,0.016,-0.035,0.0306,-5.62,-32.75,24.5,39.53,-89.2,-127.63
53.18432,-1.646709,188.01,0,6,225.96,18 / 18,8513,2019-11-06 16:06:28:975,-0.1669,-0.1545,9.9126,-0.0066,-0.0074,9.8066,0.0043,0.0167,-0.0031,-5.81,-32.87,24.31,39.01,-89.14,-127.68
53.18432,-1.646709,188.01,0,6,225.96,18 / 18,8613,2019-11-06 16:06:29:075,-0.2346,-0.7221,10.0082,-0.0004,-0.0017,9.8066,0.0138,-0.0344,0.0487,-5.62,-34,24.94,39.77,-89.04,-127.55
53.18432,-1.646709,188.01,0,6,225.96,18 / 18,8713,2019-11-06 16:06:29:175,0.0928,-0.1468,9.8898,-0.0114,-0.0075,9.8066,0.0086,0.024,0.0149,-5.69,-33.25,24.75,41.39,-88.9,-126.06
53.18432,-1.646709,188.01,0,6,225.96,18 / 18,8814,2019-11-06 16:06:29:276,0.5502,-0.4097,9.6993,-0.0017,-0.0055,9.8066,0.019,-0.0647,0.0406,-5.56,-33.37,24.69,41.49,-88.84,-126.01
53.18432,-1.646709,188.01,0,6,225.96,19 / 19,8913,2019-11-06 16:06:29:375,0.1436,0.2637,9.7718,-0.0135,-0.0052,9.8066,0.0084,0.0106,0.0222,-6.12,-34,25.19,43.59,-88.77,-124.04
53.18432,-1.646709,188.01,0,6,225.96,19 / 19,9013,2019-11-06 16:06:29:475,0.0539,0.1752,9.8825,-0.005,0.0005,9.8066,-0.0084,-0.0578,0.0351,-5.31,-33.62,25.38,49.87,-88.67,-120.18
53.18432,-1.646709,188.01,0,6,225.96,19 / 19,9113,2019-11-06 16:06:29:575,-0.6222,0.2496,9.9308,-0.0069,-0.0018,9.8066,0.0045,-0.0279,0.0135,-6.12,-34.19,24.56,49.49,-88.64,-118.38
53.18432,-1.646709,188.01,0,6,225.96,19 / 19,9214,2019-11-06 16:06:29:676,0.3592,0.317,9.7443,-0.004,-0.0011,9.8066,0.0036,-0.047,0.0218,-5.37,-33.62,25.44,52.63,-88.65,-117.5
53.18432,-1.646709,188.01,0,6,225.96,19 / 19,9314,2019-11-06 16:06:29:776,0.0644,-0.0083,9.8886,-0.0087,-0.0039,9.8066,0.0066,-0.0157,0.0314,-6.12,-33.94,24.88,49.93,-88.64,-117.96
53.18432,-1.646709,188.01,0,6,225.96,19 / 19,9414,2019-11-06 16:06:29:876,0.036,0.0534,9.8163,-0.0029,-0.0029,9.8066,-0.0047,-0.025,0.0166,-5.62,-33.69,25,50.04,-88.58,-117.91
53.18432,-1.646709,188.01,0,6,225.96,19 / 19,9514,2019-11-06 16:06:29:976,-0.021,-0.0003,9.9147,-0.0095,-0.003,9.8066,0.0138,-0.0329,0.0424,-5.69,-34.25,25.63,51.22,-88.52,-117.27
53.18432,-1.646709,188.01,0,6,225.96,19 / 19,9614,2019-11-06 16:06:30:076,0.4075,0.0433,9.8325,-0.0084,-0.0026,9.8066,-0.0019,-0.0194,-0.0007,-5.81,-34.37,25.44,52.03,-88.48,-116.07
53.18432,-1.646709,188.01,0,6,225.96,19 / 19,9714,2019-11-06 16:06:30:176,-0.2674,-0.1099,9.8677,-0.0062,-0.0021,9.8066,0.007,-0.0359,0.0402,-6.19,-34.5,25.06,53.15,-88.42,-115.04
53.18432,-1.646709,188.01,0,6,225.96,19 / 19,9813,2019-11-06 16:06:30:275,-0.0524,0.0039,9.9019,-0.0078,-0.0017,9.8066,-0.0089,0.0176,-0.0111,-5.56,-34.44,25.06,54.04,-88.39,-114.2
53.18432,-1.646709,188.01,0,6,225.96,17 / 19,9913,2019-11-06 16:06:30:375,-0.4969,0.315,9.913,-0.0015,0.0005,9.8066,0.0056,-0.027,0.035,-5.87,-34.12,24.88,54.16,-88.39,-114.08
53.18432,-1.646709,188.01,0,6,225.96,17 / 19,10014,2019-11-06 16:06:30:476,0.283,0.3758,9.8173,-0.0028,-0.0025,9.8066,0.0028,0.0138,-0.0226,-5.81,-34.44,24.94,53.61,-88.4,-114.61
53.18432,-1.646709,188.01,0,6,225.96,17 / 19,10114,2019-11-06 16:06:30:576,-0.0591,-0.0337,9.8748,0,0.0006,9.8066,0.0035,-0.0308,0.0249,-5.75,-34.12,24.81,52.97,-88.42,-115.21
53.18432,-1.646709,188.01,0,6,225.96,17 / 19,10214,2019-11-06 16:06:30:676,0.0298,-0.0378,9.8623,-0.0002,-0.0022,9.8066,0.001,0.0239,-0.0127,-6.06,-34.12,24.81,52.41,-88.44,-115.74
53.18432,-1.646709,188.01,0,6,225.96,17 / 19,10314,2019-11-06 16:06:30:776,0.0171,-0.2011,9.8909,0.0048,0.0008,9.8066,0.0019,-0.0281,0.0236,-5.25,-34.56,25,53.48,-88.44,-116.94
53.18432,-1.646709,188.01,0,6,225.96,17 / 19,10414,2019-11-06 16:06:30:876,0.0263,-0.2456,9.8808,0.0003,-0.001,9.8066,-0.0001,0.0595,-0.0208,-5.62,-34.25,25.06,50.72,-88.42,-117.42
53.18432,-1.646709,188.01,0,6,225.96,17 / 19,10514,2019-11-06 16:06:30:976,-0.358,-0.4459,9.941,-0.0003,-0.0005,9.8066,0.0093,-0.0315,0.0272,-5.56,-34,24.88,50.04,-88.39,-118.1
53.18432,-1.646709,188.01,0,6,225.96,17 / 19,10614,2019-11-06 16:06:31:076,-0.1656,-0.5216,9.936,-0.0051,-0.0057,9.8066,-0.004,0.0389,-0.0076,-5.44,-34.62,25,51.32,-88.36,-119.14
53.18432,-1.646709,188.01,0,6,225.96,17 / 19,10714,2019-11-06 16:06:31:176,0.4786,-0.4075,9.8155,0.0004,-0.0014,9.8066,0.0067,-0.0118,0.0198,-5.69,-34.5,25.75,49.87,-88.35,-118.76
53.18432,-1.646709,188.01,0,6,225.96,17 / 19,10814,2019-11-06 16:06:31:276,0.4062,-0.47,9.8672,-0.0046,-0.0029,9.8066,-0.0045,0.0624,-0.0127,-5.44,-35,24.81,51.95,-88.32,-118.58
53.18432,-1.646709,188.01,0,6,225.96,18 / 19,10913,2019-11-06 16:06:31:375,-0.2224,-0.5853,9.9692,0.0007,-0.0005,9.8066,0.0201,0.017,-0.0002,-5.69,-34.69,25.44,48.83,-88.32,-119.41
53.18432,-1.646709,188.01,0,6,225.96,18 / 19,11013,2019-11-06 16:06:31:475,0.1995,-0.2754,9.7548,-0.002,-0.0061,9.8065,0.0054,0.0498,-0.0154,-6,-35,25.06,47.1,-88.31,-121.1
53.18432,-1.646709,188.01,0,6,225.96,18 / 19,11113,2019-11-06 16:06:31:575,0.192,-0.4424,9.8626,0.0035,-0.0013,9.8066,0.005,-0.0111,0.0151,-5.37,-34.69,25.38,49.13,-88.34,-121.3
53.18432,-1.646709,188.01,0,6,225.96,18 / 19,11213,2019-11-06 16:06:31:675,-0.4534,-0.3196,9.8374,-0.0022,-0.0038,9.8065,0.0064,0.0635,-0.0266,-5.44,-34.62,25.06,47.82,-88.33,-122.58
53.18432,-1.646709,188.01,0,6,225.96,18 / 19,11313,2019-11-06 16:06:31:775,-0.3194,-0.1043,9.9128,0.0053,0.0003,9.8066,-0.0007,-0.0035,0.0059,-5.37,-35.06,25.44,45.47,-88.39,-124.8
53.18432,-1.646709,188.01,0,6,225.96,18 / 19,11413,2019-11-06 16:06:31:875,0.1855,0.5054,9.7432,0.0012,-0.0014,9.8066,0.0052,0.0491,-0.0183,-5,-35.31,25.38,43.87,-88.43,-126.32
53.18432,-1.646709,188.01,0,6,225.96,18 / 19,11514,2019-11-06 16:06:31:976,-0.3452,0.392,10.0203,0.0042,0.0014,9.8066,-0.0009,-0.0044,0.0095,-5.75,-35.25,25.69,41.78,-88.46,-126.58
53.18432,-1.646709,188.01,0,6,225.96,18 / 19,11613,2019-11-06 16:06:32:075,0.1227,0.4356,9.9348,-0.0032,-0.0007,9.8066,0.0009,0.0528,-0.0102,-4.94,-35.56,25.25,43.24,-88.51,-126.91
53.18432,-1.646709,188.01,0,6,225.96,18 / 19,11713,2019-11-06 16:06:32:175,-0.4493,0.4307,9.7585,0.0016,-0.0002,9.8066,0.0029,-0.0059,0.0121,-5.25,-35.19,25.31,43.75,-88.48,-126.39
53.18432,-1.646709,188.01,0,6,225.96,18 / 19,11813,2019-11-06 16:06:32:275,-0.151,0.0209,9.8185,-0.0038,-0.0025,9.8066,-0.0013,0.0443,-0.0097,-5.62,-35.56,25.44,41.06,-88.46,-126.87
53.18432,-1.646709,188.01,0,6,225.96,19 / 21,11914,2019-11-06 16:06:32:376,-0.2341,0.167,9.9855,0.0027,0.001,9.8066,0.0046,0.0194,0.0062,-5.06,-35.5,25.75,43.49,-88.46,-127.04
53.18432,-1.646709,188.01,0,6,225.96,19 / 21,12014,2019-11-06 16:06:32:476,0.0936,0.1499,9.8536,-0.0023,-0.0004,9.8066,0.0077,0.028,-0.0118,-4.81,-35.56,25.13,43.5,-88.46,-126.7
53.18432,-1.646709,188.01,0,6,225.96,19 / 21,12114,2019-11-06 16:06:32:576,0.0158,0.278,9.7372,0.0002,-0.0017,9.8066,-0.0018,-0.0111,0.0082,-5.69,-35.81,25.75,42.08,-88.43,-126.35
53.18432,-1.646709,188.01,0,6,225.96,19 / 21,12214,2019-11-06 16:06:32:676,0.1094,0.1356,9.8256,-0.004,-0.0002,9.8066,-0.0179,0.0515,-0.0001,-5.06,-36.31,25.31,44.23,-88.4,-126.04
53.18432,-1.646709,188.01,0,6,225.96,19 / 21,12314,2019-11-06 16:06:32:776,-0.155,0.202,9.8903,0.0037,0.0021,9.8066,0.0071,-0.0022,-0.0168,-5.25,-36.5,25.13,44.62,-88.42,-125.65
53.18432,-1.646709,188.01,0,6,225.96,19 / 21,12414,2019-11-06 16:06:32:876,-0.2046,-0.0813,9.8734,0.0014,0.0003,9.8066,-0.0078,0.0488,-0.0238,-5.31,-35.69,25.75,44.92,-88.44,-125.7
53.18432,-1.646709,188.01,0,6,225.96,19 / 21,12514,2019-11-06 16:06:32:976,0.2931,0.1735,9.8694,0.0043,0.0008,9.8066,-0.0011,0.0208,-0.0082,-4.69,-36.06,26.06,44.03,-88.47,-126.54
53.18432,-1.646709,188.01,0,6,225.96,19 / 21,12614,2019-11-06 16:06:33:076,-0.3061,0.1698,9.892,0.0017,0.0008,9.8066,-0.0014,0.0397,-0.0269,-4.5,-36.19,25.31,45.32,-88.49,-127.12
53.18432,-1.646709,188.01,0,6,225.96,19 / 21,12714,2019-11-06 16:06:33:176,-0.2346,0.0346,9.8545,0.0021,0.0019,9.8066,-0.0093,0.0165,-0.0017,-4.69,-35.94,25.5,43.86,-88.49,-126.69
53.18432,-1.646709,188.01,0,6,225.96,19 / 21,12814,2019-11-06 16:06:33:276,-0.1965,0.0543,9.8665,0.0014,0.0003,9.8066,-0.005,0.0447,-0.0192,-5.19,-36.69,25.25,43.24,-88.49,-126.95
53.18432,-1.646709,188.01,0,6,225.96,19 / 21,12913,2019-11-06 16:06:33:375,0.1337,0.164,9.8665,-0.0002,-0.0002,9.8066,0.008,0.0275,-0.0136,-5.19,-36.19,25.44,42.81,-88.51,-127.32
53.18432,-1.646709,188.01,0,6,225.96,19 / 21,13014,2019-11-06 16:06:33:476,-0.2899,0.1373,9.8235,-0.0042,-0.0008,9.8065,0.0063,0.0241,-0.0156,-5.25,-36.19,25.44,42.13,-88.52,-127.97
53.18432,-1.646709,188.01,0,6,225.96,19 / 21,13114,2019-11-06 16:06:33:576,0.2345,0.0561,9.8547,-0.0031,-0.0014,9.8066,0.0023,0.0494,-0.0213,-4.87,-35.62,25.44,42.33,-88.5,-127.79
53.18432,-1.646709,188.01,0,6,225.96,19 / 21,13214,2019-11-06 16:06:33:676,-0.2187,-0.1825,9.9199,-0.0032,-0.0005,9.8066,-0.0005,0.0034,-0.0162,-4.5,-36.5,25.88,44.42,-88.52,-128.27
53.18432,-1.646709,188.01,0,6,225.96,19 / 21,13313,2019-11-06 16:06:33:775,0.2296,0.0654,9.9139,-0.0014,-0.0003,9.8066,-0.0023,0.0452,-0.0028,-4.94,-36.62,25.25,42.02,-88.52,-128.12
53.18432,-1.646709,188.01,0,6,225.96,19 / 21,13414,2019-11-06 16:06:33:876,-0.3102,-0.1692,9.8208,0.0002,0.0013,9.8066,0.0096,-0.0156,-0.0174,-4.56,-36.87,25.69,42.43,-88.52,-128.08
53.18432,-1.646709,188.01,0,6,225.96,19 / 21,13513,2019-11-06 16:06:33:975,-0.0276,-0.0862,9.9181,-0.0012,0,9.8066,0.0028,0.0211,0.0002,-5.31,-36.44,25.69,41.49,-88.54,-128.94
53.18432,-1.646709,188.01,0,6,225.96,19 / 21,13614,2019-11-06 16:06:34:076,0.0369,-0.1052,9.9704,0.0021,-0.0004,9.8066,-0.0166,-0.0039,0.0085,-4.62,-36.31,25.5,41.21,-88.55,-129.21
53.18432,-1.646709,188.01,0,6,225.96,19 / 21,13714,2019-11-06 16:06:34:176,-0.0125,-0.0943,9.9805,-0.0003,-0.0002,9.8066,0.0116,0.0002,-0.0007,-5.06,-36.75,25.38,41.35,-88.55,-128.73
53.18432,-1.646709,188.01,0,6,225.96,19 / 21,13814,2019-11-06 16:06:34:276,-0.1688,-0.0993,9.8776,0.003,0.0023,9.8066,0.0063,-0.0101,0.0036,-5.06,-36.06,25.63,40.89,-88.57,-129.5
53.18432,-1.646709,188.01,0,6,225.96,17 / 19,13914,2019-11-06 16:06:34:376,-0.113,-0.0269,9.8229,0.0004,0.001,9.8066,0.0042,-0.015,0.0025,-4.81,-35.87,25.19,40.08,-88.57,-129.92
53.18432,-1.646709,188.01,0,6,225.96,17 / 19,14014,2019-11-06 16:06:34:476,0.203,0.0368,9.9336,0.0054,0,9.8065,-0.0188,-0.0005,0.0173,-4.81,-36.94,25.69,40.54,-88.57,-129.88
53.18432,-1.646709,188.01,0,6,225.96,17 / 19,14113,2019-11-06 16:06:34:575,-0.2182,-0.006,9.8379,0.0003,-0.0027,9.8066,0.0129,-0.0237,0.001,-5.31,-36.19,25.13,40.14,-88.6,-129.83
53.18432,-1.646709,188.01,0,6,225.96,17 / 19,14213,2019-11-06 16:06:34:675,0.155,-0.0143,9.824,-0.0009,-0.0012,9.8066,0.0051,0.0006,0.0015,-4.75,-36.5,25.44,39.52,-88.6,-130.43
53.18432,-1.646709,188.01,0,6,225.96,17 / 19,14313,2019-11-06 16:06:34:775,-0.0681,-0.2244,9.8752,-0.001,-0.0016,9.8066,-0.0047,-0.0051,0.016,-5.12,-36.5,25.69,40.06,-88.61,-130.28
53.18432,-1.646709,188.01,0,6,225.96,17 / 19,14413,2019-11-06 16:06:34:875,0.196,-0.439,9.9049,-0.0021,0.0002,9.8066,-0.0025,-0.0091,-0.0013,-4.31,-36.62,25.13,41.96,-88.61,-130.32
53.18432,-1.646709,188.01,0,6,225.96,17 / 19,14514,2019-11-06 16:06:34:976,-0.0384,-0.3782,9.9038,-0.0026,0.0007,9.8066,0.0025,0.0062,0.0117,-5.37,-36.5,25.88,40.03,-88.6,-130.32
53.18432,-1.646709,188.01,0,6,225.96,17 / 19,14614,2019-11-06 16:06:35:076,0.1715,-0.3361,9.8924,0.0001,-0.001,9.8066,0.0102,0.0045,-0.0137,-5.19,-36.94,25.38,39.51,-88.62,-130.46
53.18432,-1.646709,188.01,0,6,225.96,17 / 19,14714,2019-11-06 16:06:35:176,0.0576,-0.4571,9.8766,0.0006,0.0006,9.8066,-0.0054,0.006,0.0078,-5.06,-36.87,25.38,39.36,-88.62,-130.61
53.18432,-1.646709,188.01,0,6,225.96,17 / 19,14814,2019-11-06 16:06:35:276,-0.0074,-0.3903,9.9532,0.0008,0.0004,9.8066,-0.0045,0.0206,-0.0151,-4.62,-36.94,25.19,38.19,-88.65,-131.73
53.184223,-1.646764,192.76,0,4,225.96,16 / 17,14914,2019-11-06 16:06:35:376,-0.0973,-0.1443,9.8102,0.0038,0.0034,9.8066,0.0003,0.0236,-0.0008,-4.56,-36.94,25.56,36.88,-88.69,-133.34
53.184223,-1.646764,192.76,0,4,225.96,16 / 17,15014,2019-11-06 16:06:35:476,0.0707,-0.307,9.8316,0.0036,0.0038,9.8066,-0.0024,0.0083,-0.0192,-4.87,-37.31,26.13,36.99,-88.74,-133.19
53.184223,-1.646764,192.76,0,4,225.96,16 / 17,15113,2019-11-06 16:06:35:575,0.0838,-0.1727,9.8246,0.0035,0.0008,9.8066,-0.0003,0.0254,-0.0039,-4.81,-37,25.69,36.82,-88.79,-133.32
53.184223,-1.646764,192.76,0,4,225.96,16 / 17,15213,2019-11-06 16:06:35:675,0.0138,-0.0351,9.9021,0.0044,0.0049,9.8066,-0.0096,0.0228,-0.0127,-5.06,-36.81,26.19,35.56,-88.87,-134.48
53.184223,-1.646764,192.76,0,4,225.96,16 / 17,15314,2019-11-06 16:06:35:776,-0.04,0.1296,9.9238,0.0014,0.0011,9.8066,-0.0043,0.0329,-0.0014,-5.5,-36.81,25.38,36.29,-88.89,-133.36
53.184223,-1.646764,192.76,0,4,225.96,16 / 17,15414,2019-11-06 16:06:35:876,-0.2296,-0.0994,9.9661,-0.0006,0.0005,9.8066,0.0042,0.0239,-0.0018,-5.44,-37.25,25.81,37.44,-88.9,-132.61
53.184223,-1.646764,192.76,0,4,225.96,16 / 17,15514,2019-11-06 16:06:35:976,0.025,0.0868,9.7485,0.0031,0.0025,9.8066,-0.0102,0.0304,-0.0193,-5.37,-36.81,26.13,37.8,-88.89,-132.27
53.184223,-1.646764,192.76,0,4,225.96,16 / 17,15614,2019-11-06 16:06:36:076,-0.1503,-0.0779,9.9497,0.0028,0.0049,9.8066,-0.0111,0.0425,-0.0047,-5,-37.31,26.31,37.83,-88.95,-132.19
53.184223,-1.646764,192.76,0,4,225.96,16 / 17,15714,2019-11-06 16:06:36:176,0.0691,0.2186,9.8715,0.0052,0.0039,9.8066,-0.0036,0.0429,-0.0176,-5.19,-37.25,25.63,38.09,-88.99,-131.89
53.184223,-1.646764,192.76,0,4,225.96,16 / 17,15814,2019-11-06 16:06:36:276,-0.3045,0.2217,9.8103,0.0012,0.0022,9.8066,-0.0033,0.0005,-0.0009,-5.19,-37.62,25.56,37.77,-89.05,-132.19
53.184223,-1.646764,192.76,0,4,225.96,17 / 20,15914,2019-11-06 16:06:36:376,0.1701,-0.0494,9.8559,0.0033,0.0009,9.8066,-0.0037,0.0472,-0.022,-4.75,-37.62,26.88,38.6,-89.06,-131.72
53.184223,-1.646764,192.76,0,4,225.96,17 / 20,16014,2019-11-06 16:06:36:476,-0.0685,0.1265,9.8657,0.003,0.0013,9.8066,-0.0065,0.0224,-0.002,-4.75,-38.06,26.81,37.77,-89.1,-132.51
53.184223,-1.646764,192.76,0,4,225.96,17 / 20,16113,2019-11-06 16:06:36:575,0.321,-0.2384,9.8801,-0.0002,0.0014,9.8066,-0.0063,0.0343,-0.0111,-5,-38.31,26.44,37.63,-89.14,-132.24
53.184223,-1.646764,192.76,0,4,225.96,17 / 20,16213,2019-11-06 16:06:36:675,-0.1046,-0.0472,9.7913,0.0016,-0.0016,9.8066,0.0061,0.0193,-0.0054,-5.37,-37.81,26.81,36.86,-89.15,-133.36
53.184223,-1.646764,192.76,0,4,225.96,17 / 20,16313,2019-11-06 16:06:36:775,0.1166,-0.2339,9.7779,0.0017,0.0001,9.8066,0.0025,0.0496,-0.0197,-5.19,-37.5,26.56,34.65,-89.16,-135.51
53.184223,-1.646764,192.76,0,4,225.96,17 / 20,16413,2019-11-06 16:06:36:875,0.074,-0.587,9.9396,0.0044,-0.0009,9.8066,-0.006,0.0339,-0.0259,-5.25,-37.81,26.38,29.87,-89.19,-139.83
53.184223,-1.646764,192.76,0,4,225.96,17 / 20,16513,2019-11-06 16:06:36:975,0.5045,-0.3655,9.8241,0.0077,0,9.8065,0.001,0.0287,-0.0173,-5,-38.44,26.63,25.72,-89.23,-144.26
53.184223,-1.646764,192.76,0,4,225.96,17 / 20,16613,2019-11-06 16:06:37:075,0.2031,-0.197,9.7869,-0.0001,0.0007,9.8066,0.0003,0.0474,0.0073,-5.19,-37.87,27.25,18.01,-89.27,-151.82
53.184223,-1.646764,192.76,0,4,225.96,17 / 20,16714,2019-11-06 16:06:37:176,0.0079,-0.1062,9.8829,0.0021,0.0002,9.8066,0.0022,0.0213,-0.0102,-4.87,-37.94,26.5,16.7,-89.3,-153.09
53.184223,-1.646764,192.76,0,4,225.96,17 / 20,16813,2019-11-06 16:06:37:275,-0.2869,0.075,9.8841,0.0017,-0.0017,9.8066,0.0133,0.0531,-0.0049,-4.94,-38.31,26.44,15.02,-89.31,-154.35
53.184223,-1.646764,192.76,0,4,225.96,16 / 22,16913,2019-11-06 16:06:37:375,-0.1675,0.1708,9.8735,0.0029,-0.0001,9.8066,-0.0024,0.0289,-0.0101,-5.19,-38.44,26.63,11.55,-89.33,-158.14
53.184223,-1.646764,192.76,0,4,225.96,16 / 22,17013,2019-11-06 16:06:37:475,-0.2088,0.2388,9.8634,0,0.0001,9.8066,-0.004,0.0514,0.012,-5.25,-38.81,26.75,10.08,-89.36,-159.59
53.184223,-1.646764,192.76,0,4,225.96,16 / 22,17113,2019-11-06 16:06:37:575,0.0789,0.0688,9.8349,0.0058,0.0003,9.8066,-0.0008,0.0071,-0.0039,-5.12,-38.12,26.88,8.22,-89.37,-161.41
53.184223,-1.646764,192.76,0,4,225.96,16 / 22,17213,2019-11-06 16:06:37:675,-0.0017,0.3292,9.94,0.0034,-0.0001,9.8066,0.0197,0.034,0.0052,-5.44,-37.87,26.88,2.38,-89.37,-167.17
53.184223,-1.646764,192.76,0,4,225.96,16 / 22,17313,2019-11-06 16:06:37:775,0.0744,-0.0462,9.7191,0.0045,0.0006,9.8066,0.0047,0.0224,0.001,-5.06,-38.5,26.69,0.83,-89.34,-168.69
53.184223,-1.646764,192.76,0,4,225.96,16 / 22,17413,2019-11-06 16:06:37:875,-0.3785,0.0297,9.9529,-0.0017,-0.005,9.8066,0.0087,0.0171,0.0101,-5.37,-38.81,26.44,357.02,-89.32,-172.04
53.184223,-1.646764,192.76,0,4,225.96,16 / 22,17513,2019-11-06 16:06:37:975,-0.0674,0.0561,9.8544,0.0013,0.0003,9.8066,0.007,0.0095,-0.0051,-4.62,-38.87,27.25,354.69,-89.32,-174.73
53.184223,-1.646764,192.76,0,4,225.96,16 / 22,17613,2019-11-06 16:06:38:075,-0.1488,0.0903,9.8022,0,0.0026,9.8066,-0.003,0.0117,0.0163,-4.81,-38.69,26.56,350.48,-89.32,-178.87
53.184223,-1.646764,192.76,0,4,225.96,16 / 22,17713,2019-11-06 16:06:38:175,-0.1343,0.2868,9.7561,0.0035,0.0008,9.8066,-0.0044,0.0031,-0.0127,-5,-38.37,25.94,343.42,-89.32,174.59
53.184223,-1.646764,192.76,0,4,225.96,16 / 22,17813,2019-11-06 16:06:38:275,-0.1349,0.1052,9.9121,0.0033,-0.0003,9.8066,0.0141,0.0117,0.0016,-4.75,-38.75,27.13,337.18,-89.32,168.05
53.184223,-1.646764,192.76,0,4,225.96,18 / 22,17914,2019-11-06 16:06:38:376,0.0605,0.3787,9.873,0.0008,-0.0007,9.8066,0.0031,0.033,-0.0159,-4.5,-38.69,26.88,334.13,-89.31,162.99
53.184223,-1.646764,192.76,0,4,225.96,18 / 22,18014,2019-11-06 16:06:38:476,-0.3468,0.2235,9.8263,-0.0011,0.0003,9.8066,0.0079,0.0352,-0.007,-4.31,-38.56,26.75,331.97,-89.29,160.88
53.184223,-1.646764,192.76,0,4,225.96,18 / 22,18114,2019-11-06 16:06:38:576,0.0275,0.081,9.8034,-0.0013,-0.001,9.8066,-0.0001,0.0318,-0.013,-5.12,-38.37,27.31,329.27,-89.28,160.27
53.184223,-1.646764,192.76,0,4,225.96,18 / 22,18213,2019-11-06 16:06:38:675,-0.3183,0.136,9.9706,0.0017,0,9.8066,-0.0047,0.0168,-0.0065,-5,-38.62,27.38,327.07,-89.27,158.13
53.184223,-1.646764,192.76,0,4,225.96,18 / 22,18314,2019-11-06 16:06:38:776,-0.0087,0.2115,9.8421,0.0008,-0.0014,9.8066,0.0083,-0.0032,-0.0099,-4.56,-38.37,27.13,324.47,-89.26,155.56
53.184223,-1.646764,192.76,0,4,225.96,18 / 22,18414,2019-11-06 16:06:38:876,-0.2303,0.025,9.8571,-0.0002,-0.0023,9.8066,-0.0015,0.0066,0.018,-5.19,-38,26.94,324.61,-89.27,155.69
53.184223,-1.646764,192.76,0,4,225.96,18 / 22,18514,2019-11-06 16:06:38:976,-0.0444,0.0507,9.9048,-0.0026,0.0018,9.8066,-0.0012,-0.006,-0.0001,-5,-38.31,26.81,324.89,-89.27,155.96
53.184223,-1.646764,192.76,0,4,225.96,18 / 22,18614,2019-11-06 16:06:39:076,-0.1577,0.103,9.8239,-0.0013,0.0024,9.8066,0.0015,-0.0216,0.0036,-5.06,-38.5,27.06,325.01,-89.25,156.1
53.184223,-1.646764,192.76,0,4,225.96,18 / 22,18713,2019-11-06 16:06:39:175,0.0852,0.0342,9.8464,0.0002,-0.0018,9.8066,-0.0015,0.0029,0.0014,-5.06,-38.5,27.31,324.42,-89.25,155.52
53.184223,-1.646764,192.76,0,4,225.96,18 / 22,18813,2019-11-06 16:06:39:275,-0.0594,-0.1152,9.9025,-0.0005,-0.0015,9.8066,0.0114,-0.0226,0.0004,-4.94,-38.62,27.25,323.17,-89.24,154.32
53.184223,-1.646764,192.76,0,4,225.96,16 / 21,18914,2019-11-06 16:06:39:376,0.0789,-0.1572,9.9332,-0.003,-0.0002,9.8066,-0.0046,0.0039,0.0002,-5.25,-38.56,26.56,324.4,-89.24,155.52
53.184223,-1.646764,192.76,0,4,225.96,16 / 21,19014,2019-11-06 16:06:39:476,-0.0433,-0.284,9.8773,-0.002,-0.0002,9.8066,-0.0069,-0.0007,0.0083,-5.5,-39,26.81,324.46,-89.22,155.59
53.184223,-1.646764,192.76,0,4,225.96,16 / 21,19114,2019-11-06 16:06:39:576,0.0327,0.0918,9.7754,-0.0004,-0.0011,9.8066,0.0001,0.0152,-0.0081,-5.37,-39.06,26.5,324.46,-89.21,155.61
53.184223,-1.646764,192.76,0,4,225.96,16 / 21,19214,2019-11-06 16:06:39:676,0.1224,-0.2015,9.8648,0.0024,-0.0017,9.8066,0.0042,-0.002,-0.0079,-4.81,-38.37,26.69,323.67,-89.22,154.8
53.184223,-1.646764,192.76,0,4,225.96,16 / 21,19313,2019-11-06 16:06:39:775,-0.037,-0.2243,9.9374,-0.0005,0.0013,9.8066,-0.0127,0.0273,-0.008,-4.69,-38.5,26.88,323.3,-89.21,154.44
53.184223,-1.646764,192.76,0,4,225.96,16 / 21,19413,2019-11-06 16:06:39:875,-0.0808,-0.1294,9.9262,0,0.0025,9.8066,-0.0094,0.0134,0.0011,-4.56,-39,27.5,321.61,-89.22,152.4
53.184223,-1.646764,192.76,0,4,225.96,16 / 21,19514,2019-11-06 16:06:39:976,0.0297,-0.044,9.8197,0.0017,-0.0022,9.8066,0.0081,0.0098,-0.0107,-4.62,-38.12,27.56,321.37,-89.2,152.17
53.184223,-1.646764,192.76,0,4,225.96,16 / 21,19614,2019-11-06 16:06:40:076,0.0419,-0.0686,9.7703,0.003,0,9.8066,-0.0047,0.0184,-0.0112,-5.06,-38.25,27.19,320.03,-89.2,151.23
53.184223,-1.646764,192.76,0,4,225.96,16 / 21,19714,2019-11-06 16:06:40:176,-0.0346,-0.1531,9.9209,-0.0016,0.0026,9.8066,-0.0089,0.0191,-0.0008,-4.56,-38.44,27.31,319.39,-89.2,150.6
53.184223,-1.646764,192.76,0,4,225.96,16 / 21,19814,2019-11-06 16:06:40:276,0.0247,0.0338,9.8062,0,0.003,9.8066,-0.0053,0.0093,-0.0105,-4.94,-38.19,27.69,317.4,-89.19,148.25
53.184223,-1.646764,192.76,0,4,225.96,18 / 20,19914,2019-11-06 16:06:40:376,-0.1086,-0.0806,9.8893,0.0011,0.0003,9.8066,0.0033,0.0324,-0.0026,-4.37,-38.94,27.63,319.53,-89.19,148.38
53.184223,-1.646764,192.76,0,4,225.96,18 / 20,20013,2019-11-06 16:06:40:475,-0.0966,-0.0363,9.8176,0.0034,-0.0011,9.8066,-0.0072,0.0035,0.0169,-4.56,-39.31,28.06,316.72,-89.2,147.61
53.184223,-1.646764,192.76,0,4,225.96,18 / 20,20113,2019-11-06 16:06:40:575,-0.1079,0.2262,9.859,-0.0004,-0.0008,9.8066,0.001,0.0062,-0.0101,-4.81,-39.19,27.81,316.65,-89.18,147.55
53.184223,-1.646764,192.76,0,4,225.96,18 / 20,20213,2019-11-06 16:06:40:675,0.2288,-0.0837,9.9492,0.0075,-0.0004,9.8066,-0.0104,-0.0277,0.0272,-4.62,-38.31,27.25,316.38,-89.19,147.65
53.184223,-1.646764,192.76,0,4,225.96,18 / 20,20313,2019-11-06 16:06:40:775,-0.2409,0.0491,9.9693,0.0031,-0.0001,9.8066,-0.0029,-0.0128,0.0053,-5.56,-38.37,27.25,312.33,-89.17,145.7
53.184223,-1.646764,192.76,0,4,225.96,18 / 20,20413,2019-11-06 16:06:40:875,-0.0727,0.1371,9.8607,0.0015,0.0015,9.8066,0.0044,0.0083,-0.0039,-5.25,-38.62,27.63,312.74,-89.17,143.7
53.184223,-1.646764,192.76,0,4,225.96,18 / 20,20513,2019-11-06 16:06:40:975,-0.0138,0.2057,9.8394,0.0012,0.0017,9.8066,0.0075,-0.0283,-0.0102,-4.69,-39.25,27.25,311.24,-89.16,142.64
53.184223,-1.646764,192.76,0,4,225.96,18 / 20,20613,2019-11-06 16:06:41:075,0.0107,0.096,9.8599,-0.0015,0.0005,9.8066,-0.002,0.0234,0.0052,-4.75,-39,26.94,310.6,-89.15,142.01
53.184223,-1.646764,192.76,0,4,225.96,18 / 20,20714,2019-11-06 16:06:41:176,-0.1971,-0.2742,9.8578,0.0027,-0.0005,9.8066,0.0066,-0.0117,0.0103,-4.87,-38.69,27.25,311.46,-89.16,142.85
53.184223,-1.646764,192.76,0,4,225.96,18 / 20,20814,2019-11-06 16:06:41:276,-0.0538,0.0977,9.7295,-0.0056,-0.0009,9.8066,-0.0001,0.0213,-0.0144,-4.87,-39,27.63,312.91,-89.16,143.88
53.184223,-1.646764,192.76,0,4,225.96,17 / 20,20914,2019-11-06 16:06:41:376,-0.1873,0.0335,9.8532,0.0023,-0.0001,9.8066,-0.0036,-0.0287,0.0041,-5.19,-38.56,26.44,312.89,-89.16,144.68
53.184223,-1.646764,192.76,0,4,225.96,17 / 20,21014,2019-11-06 16:06:41:476,-0.0687,-0.0449,9.7922,0.0013,0.0005,9.8066,-0.0009,0.0009,0.0085,-5.44,-38.75,27.13,313.03,-89.16,144.4
53.184223,-1.646764,192.76,0,4,225.96,17 / 20,21114,2019-11-06 16:06:41:576,0.2796,-0.1589,9.9045,0.0021,-0.0007,9.8066,-0.0092,-0.0281,0.0043,-5.12,-38.75,27.31,313.56,-89.16,144.92
53.184223,-1.646764,192.76,0,4,225.96,17 / 20,21214,2019-11-06 16:06:41:676,-0.0368,0.0506,9.8337,0.0013,0.0011,9.8066,0.0023,-0.0057,0.0167,-4.94,-39,27.25,313.57,-89.16,144.93
53.184223,-1.646764,192.76,0,4,225.96,17 / 20,21313,2019-11-06 16:06:41:775,0.1529,-0.2168,9.8613,0.002,-0.0001,9.8066,0.003,-0.0178,0.0015,-4.37,-38.69,27.56,317.18,-89.15,146.1
53.184223,-1.646764,192.76,0,4,225.96,17 / 20,21413,2019-11-06 16:06:41:875,-0.1672,-0.2293,9.8273,0.0033,0.002,9.8066,0.0007,-0.0097,0.0145,-4.87,-39.25,27.69,314.78,-89.15,145.73
53.184223,-1.646764,192.76,0,4,225.96,17 / 20,21513,2019-11-06 16:06:41:975,0.061,0.0037,9.7714,0.0022,0.0014,9.8066,0.0087,-0.0025,-0.0022,-4.87,-39.06,27.13,314.29,-89.13,145.67
53.184223,-1.646764,192.76,0,4,225.96,17 / 20,21613,2019-11-06 16:06:42:075,-0.0936,-0.0658,9.8556,0.0019,-0.0003,9.8066,-0.0003,-0.0139,0.0068,-4.81,-38.5,27.25,313.82,-89.11,145.21
53.184223,-1.646764,192.76,0,4,225.96,17 / 20,21713,2019-11-06 16:06:42:175,0.225,-0.2577,9.8504,0.0033,-0.0003,9.8066,-0.0076,-0.0005,0.0137,-5,-38.62,27.31,314.27,-89.13,145.65
53.184223,-1.646764,192.76,0,4,225.96,17 / 20,21813,2019-11-06 16:06:42:275,-0.1323,-0.0425,9.8964,0.0006,0.003,9.8066,0.0094,-0.0033,0.0018,-4.62,-38.5,27.19,313.34,-89.13,144.71
53.184223,-1.646764,192.76,0,4,225.96,18 / 21,21913,2019-11-06 16:06:42:375,-0.2134,0.2681,9.8037,-0.0013,0.0025,9.8066,-0.0019,0.0303,-0.0064,-4.75,-38.56,27.56,313.66,-89.15,144.64
53.184223,-1.646764,192.76,0,4,225.96,18 / 21,22013,2019-11-06 16:06:42:475,-0.2463,0.2844,9.7889,0.004,0.0021,9.8066,-0.0069,0.0141,-0.0077,-5.25,-38.94,27.31,311.64,-89.16,143.03
53.184223,-1.646764,192.76,0,4,225.96,18 / 21,22113,2019-11-06 16:06:42:575,0.097,0.0745,9.8267,0.0013,0.0006,9.8066,-0.0002,0.0355,-0.0062,-5.06,-38.5,27.44,311.47,-89.18,142.81
53.184223,-1.646764,192.76,0,4,225.96,18 / 21,22214,2019-11-06 16:06:42:676,-0.1118,0.0081,9.9099,0.0022,0.0016,9.8066,-0.0025,-0.0042,-0.0115,-4.81,-38.37,27.88,310.42,-89.19,141.37
53.184223,-1.646764,192.76,0,4,225.96,18 / 21,22314,2019-11-06 16:06:42:776,-0.1299,0.0967,9.8381,-0.0007,-0.0001,9.8066,0.0064,0.027,0.003,-4.31,-38.94,27.81,312.82,-89.17,141.78
53.184223,-1.646764,192.76,0,4,225.96,18 / 21,22414,2019-11-06 16:06:42:876,0.0842,0.0415,9.864,0.0024,0.0013,9.8066,-0.0041,0.0099,-0.0186,-4.62,-38.44,27.56,310.17,-89.17,141.14
53.184223,-1.646764,192.76,0,4,225.96,18 / 21,22514,2019-11-06 16:06:42:976,-0.1451,-0.1654,9.9068,-0.0015,0.0009,9.8066,-0.0001,0.0118,0.0304,-4.5,-38.81,27.56,313.74,-89.17,142.7
53.184223,-1.646764,192.76,0,4,225.96,18 / 21,22614,2019-11-06 16:06:43:076,-0.1029,-0.0776,9.8013,0.003,-0.0031,9.8066,0.0099,-0.0002,-0.0015,-5.12,-39.25,27.31,310.34,-89.13,141.78
53.184223,-1.646764,192.76,0,4,225.96,18 / 21,22714,2019-11-06 16:06:43:176,-0.0964,-0.1546,9.9715,0.0039,-0.0001,9.8066,0.015,0.0081,0.0022,-4.81,-38.69,27.81,311.96,-89.15,142.96
53.184223,-1.646764,192.76,0,4,225.96,18 / 21,22814,2019-11-06 16:06:43:276,0.1469,-0.0279,9.9468,-0.0018,0.0008,9.8066,-0.0004,0.0244,-0.0106,-5.25,-38.94,27.19,309.99,-89.16,141.4
53.184223,-1.646764,192.76,0,4,225.96,17 / 20,22914,2019-11-06 16:06:43:376,-0.0836,-0.0072,9.8996,0.0003,0.0029,9.8066,-0.0067,0.0133,0.0101,-4.37,-39,27.31,310.85,-89.16,140.19
53.184223,-1.646764,192.76,0,4,225.96,17 / 20,23013,2019-11-06 16:06:43:475,0.0324,-0.143,9.8911,-0.0014,-0.001,9.8066,-0.0024,0.0287,-0.0007,-4.62,-38.31,27.44,309.02,-89.16,140.41
53.184223,-1.646764,192.76,0,4,225.96,17 / 20,23114,2019-11-06 16:06:43:576,0.0053,-0.1716,9.9155,-0.0023,0.0007,9.8066,0.003,0.0035,0.0118,-4.69,-38.75,27.38,308.69,-89.18,140.1
53.184223,-1.646764,192.76,0,4,225.96,17 / 20,23214,2019-11-06 16:06:43:676,0.2326,-0.378,9.9288,0,-0.0004,9.8066,0.0097,0.0338,-0.0207,-5.06,-39.62,27.75,309.26,-89.2,140.25
53.184223,-1.646764,192.76,0,4,225.96,17 / 20,23313,2019-11-06 16:06:43:775,-0.0437,-0.194,9.8904,0.002,0,9.8066,-0.0071,0.0082,0.0119,-5.5,-38.75,27.88,308.44,-89.22,139.4
53.184223,-1.646764,192.76,0,4,225.96,17 / 20,23413,2019-11-06 16:06:43:875,-0.0665,0.014,9.8735,-0.0021,0.0026,9.8066,-0.0167,0.0572,-0.012,-4.69,-39.12,28.38,306.96,-89.24,137.92
53.184223,-1.646764,192.76,0,4,225.96,17 / 20,23513,2019-11-06 16:06:43:975,0.1109,0.1104,9.877,-0.0001,-0.0005,9.8066,-0.0005,0.0181,0.0041,-4.94,-39.37,28.63,306.6,-89.27,137.17
53.184223,-1.646764,192.76,0,4,225.96,17 / 20,23613,2019-11-06 16:06:44:075,-0.1981,0.1573,9.7886,-0.0036,0.0014,9.8066,-0.0046,0.0402,-0.0121,-5.06,-39.25,28.69,308.04,-89.32,138.53
53.184223,-1.646764,192.76,0,4,225.96,17 / 20,23714,2019-11-06 16:06:44:176,0.0622,-0.044,9.8353,-0.0016,0.0022,9.8066,-0.0066,0.0296,0.0133,-5.25,-39.5,28.81,309.5,-89.38,139.92
53.184223,-1.646764,192.76,0,4,225.96,17 / 20,23814,2019-11-06 16:06:44:276,-0.0316,-0.1524,9.9249,-0.0029,0.0024,9.8066,-0.0213,0.0446,0.0045,-4.37,-39.62,28.25,310.55,-89.42,139.3
53.184223,-1.646764,192.76,0,4,225.96,17 / 21,23914,2019-11-06 16:06:44:376,-0.1677,-0.0816,9.8878,-0.0008,0.0032,9.8066,-0.0064,0.0439,-0.0023,-5.06,-39.31,28.31,308.94,-89.45,139.66
53.184223,-1.646764,192.76,0,4,225.96,17 / 21,24013,2019-11-06 16:06:44:475,-0.0939,0.0542,9.9126,-0.0023,0.0024,9.8066,0.0001,0.0434,-0.0017,-5.31,-40.12,28.38,308.25,-89.51,138.92
53.184223,-1.646764,192.76,0,4,225.96,17 / 21,24113,2019-11-06 16:06:44:575,0.2849,0.0796,9.8904,0.0022,0.0007,9.8066,-0.0026,0.059,-0.0246,-5.25,-39.37,27.94,308.9,-89.54,139.52
53.184223,-1.646764,192.76,0,4,225.96,17 / 21,24213,2019-11-06 16:06:44:675,0.1035,-0.3403,9.8274,-0.0019,0.0016,9.8066,0.0091,0.048,0.0103,-5.75,-39.5,28.69,309.18,-89.57,141.32
53.184223,-1.646764,192.76,0,4,225.96,17 / 21,24313,2019-11-06 16:06:44:775,0.3249,-0.2078,9.7763,-0.0041,0.0042,9.8066,-0.025,0.0779,-0.0047,-5.25,-39.81,28.13,313.96,-89.6,144.49
53.184223,-1.646764,192.76,0,4,225.96,17 / 21,24414,2019-11-06 16:06:44:876,0.071,-0.3862,9.8421,-0.0038,0.0003,9.8066,-0.0083,0.0531,0.022,-5.06,-39.37,28.19,324.34,-89.67,154.72
53.184223,-1.646764,192.76,0,4,225.96,17 / 21,24513,2019-11-06 16:06:44:975,0.012,-0.2703,9.7974,-0.0029,0.003,9.8066,-0.0146,0.0573,-0.0068,-5.12,-39.87,27.94,332.97,-89.76,163.25
53.184223,-1.646764,192.76,0,4,225.96,17 / 21,24614,2019-11-06 16:06:45:076,-0.0404,-0.051,9.8777,-0.0034,0.0038,9.8066,-0.0006,0.0628,0.0012,-5.19,-39.81,28.31,339.76,-89.8,169.98
53.184223,-1.646764,192.76,0,4,225.96,17 / 21,24714,2019-11-06 16:06:45:176,0.2347,-0.0763,9.9418,0.0009,0.0003,9.8066,-0.0066,0.0599,-0.0183,-5.44,-39.94,28.19,325.59,-89.84,155.84
53.184223,-1.646764,192.76,0,4,225.96,17 / 21,24814,2019-11-06 16:06:45:276,0.1635,-0.1332,9.8566,-0.001,0.0036,9.8066,-0.0188,0.0841,-0.0036,-5.25,-39.5,28.06,320.64,-89.89,150.86
53.184223,-1.646764,192.76,0,4,225.96,15 / 21,24913,2019-11-06 16:06:45:375,0.0355,0.0052,9.7337,-0.0066,0.003,9.8066,-0.0213,0.0738,0.011,-5.56,-39.75,28.38,297.99,-90,130.1
53.184223,-1.646764,192.76,0,4,225.96,15 / 21,25013,2019-11-06 16:06:45:475,-0.1155,-0.2795,9.8331,-0.0017,0.0009,9.8066,-0.0079,0.0786,-0.0028,-5.5,-39.25,27.94,83.13,-89.95,-86.82
53.184223,-1.646764,192.76,0,4,225.96,15 / 21,25113,2019-11-06 16:06:45:575,0.2413,-0.1166,9.7265,0.0048,-0.001,9.8066,0.0015,0.0934,-0.0237,-5.94,-39.62,28.56,86.95,-89.92,-81.47
53.184223,-1.646764,192.76,0,4,225.96,15 / 21,25213,2019-11-06 16:06:45:675,0.146,-0.2837,9.9336,0.0066,0.0024,9.8066,-0.0182,0.0935,-0.0104,-5.37,-40,28.94,39.62,-90,-130.6
53.184223,-1.646764,192.76,0,4,225.96,15 / 21,25313,2019-11-06 16:06:45:775,0.4469,-0.2968,9.9867,-0.0007,0.0018,9.8066,-0.0086,0.1,-0.0022,-5.87,-39.44,28.5,269.57,-89.97,101.31
53.184223,-1.646764,192.76,0,4,225.96,15 / 21,25413,2019-11-06 16:06:45:875,0.1171,-0.4856,9.8499,0.0039,-0.0008,9.8066,-0.0156,0.1096,0.002,-6.5,-39.75,28.88,268.26,-89.93,100.04
53.184223,-1.646764,192.76,0,4,225.96,15 / 21,25513,2019-11-06 16:06:45:975,0.0874,-0.3734,9.6837,0.0015,0.0015,9.8066,0.0026,0.1011,-0.0139,-5.44,-39.5,28.75,283.84,-89.91,113.74
53.184223,-1.646764,192.76,0,4,225.96,15 / 21,25613,2019-11-06 16:06:46:075,0.0796,-0.089,9.7746,0.0063,0.0038,9.8066,0.0025,0.1101,-0.0202,-5.94,-39.19,28.56,264.78,-89.86,96.65
53.184223,-1.646764,192.76,0,4,225.96,15 / 21,25714,2019-11-06 16:06:46:176,-0.0261,-0.1334,9.7906,0.0112,0.0035,9.8066,-0.0054,0.1354,-0.0319,-5.87,-39.87,28.63,260.96,-89.8,92.93
53.184223,-1.646764,192.76,0,4,225.96,15 / 21,25814,2019-11-06 16:06:46:276,0.4476,-0.3219,9.8789,0.0122,0.0045,9.8065,-0.0191,0.1118,-0.0157,-6.31,-38.69,28.69,257.37,-89.59,89.59
53.184223,-1.646764,192.76,0,4,225.96,18 / 21,25914,2019-11-06 16:06:46:376,0.3169,-0.554,9.9264,0.008,0.0027,9.8066,0.0012,0.1372,-0.0343,-5.87,-39.12,28.75,255.17,-89.41,87.61
53.184223,-1.646764,192.76,0,4,225.96,18 / 21,26014,2019-11-06 16:06:46:476,0.1918,-0.4427,9.9641,0.0181,-0.0084,9.8065,0.0015,0.0924,-0.0419,-6.06,-38.94,29.75,262.31,-89.24,94.58
53.184223,-1.646764,192.76,0,4,225.96,18 / 21,26114,2019-11-06 16:06:46:576,0.8081,-2.554,9.6382,0.0248,0.0011,9.8065,0.0228,0.1328,-0.0626,-5.94,-38.87,29.56,261.84,-88.88,94.56
53.184223,-1.646764,192.76,0,4,225.96,18 / 21,26214,2019-11-06 16:06:46:676,0.1659,-0.5036,9.8521,0.054,-0.0264,9.8064,0.1017,0.2204,-0.1612,-5.19,-39.75,30.25,273.21,-88.12,105.14
53.184223,-1.646764,192.76,0,4,225.96,18 / 21,26314,2019-11-06 16:06:46:776,0.8249,-1.2367,10.4126,0.06,-0.0183,9.8064,-0.053,0.1869,-0.0978,-5.5,-39.75,30,278.35,-87.21,111.46
53.184223,-1.646764,192.76,0,4,225.96,18 / 21,26414,2019-11-06 16:06:46:876,3.0017,-0.99,10.6076,0.0036,-0.0097,9.8066,-0.0673,0.2647,-0.1848,-5.25,-40.37,30.56,278.25,-86.6,111.72
53.184223,-1.646764,192.76,0,4,225.96,18 / 21,26514,2019-11-06 16:06:46:976,1.1959,-2.4514,10.6474,0.0348,0.0074,9.8065,0.0144,0.2165,-0.0253,-6,-40.44,30.5,273.96,-86.38,109.51
53.184223,-1.646764,192.76,0,4,225.96,18 / 21,26614,2019-11-06 16:06:47:076,-0.3852,0.1648,10.7739,-0.036,-0.0339,9.8065,0.0709,0.4056,0.0868,-6.62,-38.94,30.81,275.35,-86.41,112.47
53.184223,-1.646764,192.76,0,4,225.96,18 / 21,26714,2019-11-06 16:06:47:176,4.853,-0.8482,8.9427,0.0253,-0.011,9.8066,0.1872,-0.3105,0.3859,-7.75,-39.62,32,285.41,-86.81,123.21
53.184223,-1.646764,192.76,0,4,225.96,18 / 21,26814,2019-11-06 16:06:47:276,-3.7748,-4.7428,10.4357,-0.0288,-0.0357,9.8065,0.1037,0.0878,0.1348,-8.19,-37.87,33.31,300.88,-86.82,137.61
53.184223,-1.646764,192.76,0,4,225.96,16 / 20,26914,2019-11-06 16:06:47:376,1.1518,-3.7236,9.5453,0.0589,-0.0151,9.8064,0.1025,0.645,-0.2762,-9,-38.31,33.63,305.82,-86.72,143.57
53.184223,-1.646764,192.76,0,4,225.96,16 / 20,27014,2019-11-06 16:06:47:476,-0.3683,-1.9591,10.0057,0.0788,0.03,9.8062,-0.0236,0.527,-0.4022,-9.19,-38.44,34.75,300.77,-86.2,138.69
53.184223,-1.646764,192.76,0,4,225.96,16 / 20,27114,2019-11-06 16:06:47:576,-0.0818,-0.8417,10.3138,0.0821,0.0072,9.8063,-0.0456,0.7049,-0.3229,-8.37,-38.56,34.44,297.9,-85.96,135.19
53.184223,-1.646764,192.76,0,4,225.96,16 / 20,27214,2019-11-06 16:06:47:676,-1.3734,-1.7326,10.2865,0.0815,0.0296,9.8062,0.0182,0.1252,-0.1747,-8.81,-38.19,34.88,289.75,-85.15,129.05
53.184223,-1.646764,192.76,0,4,225.96,16 / 20,27314,2019-11-06 16:06:47:776,3.069,0.654,10.2808,-0.004,0.0109,9.8066,-0.0644,0.4328,-0.1146,-9.25,-38.25,34.13,289.21,-84.81,129.43
53.184223,-1.646764,192.76,0,4,225.96,16 / 20,27414,2019-11-06 16:06:47:876,1.1225,1.0336,10.3209,0.0035,0.0501,9.8065,0.0062,-0.0499,0.1358,-9.31,-38.06,34.63,284.9,-85.07,124.4
53.184223,-1.646764,192.76,0,4,225.96,16 / 20,27514,2019-11-06 16:06:47:976,1.0031,-1.029,9.9224,-0.0254,-0.0164,9.8066,0.0012,0.1538,0.0359,-9.69,-38.06,34.88,285.76,-85.53,126.26
53.184223,-1.646764,192.76,0,4,225.96,16 / 20,27614,2019-11-06 16:06:48:076,-2.1894,0.1419,9.6422,-0.0078,-0.0263,9.8065,0.0535,-0.1457,0.1626,-10.56,-37.81,35.06,291.39,-85.73,133.03
53.184223,-1.646764,192.76,0,4,225.96,16 / 20,27714,2019-11-06 16:06:48:176,1.3504,-1.0272,9.6702,0.0021,-0.0212,9.8066,0.0677,0.1101,-0.0731,-10.62,-37.62,35.06,294.33,-85.64,135.96
53.184223,-1.646764,192.76,0,4,225.96,16 / 20,27814,2019-11-06 16:06:48:276,-0.7547,-0.7217,9.6537,0.0366,-0.0024,9.8065,0.0609,-0.1765,0.0438,-10.62,-37.56,35.19,294.84,-85.25,136.84
53.184223,-1.646764,192.76,0,4,225.96,16 / 18,27914,2019-11-06 16:06:48:376,0.7446,-0.8754,9.8887,-0.0018,-0.0018,9.8066,0.0016,-0.0264,-0.038,-10.31,-37.62,34.81,294.18,-85.08,134.9
53.184223,-1.646764,192.76,0,4,225.96,16 / 18,28013,2019-11-06 16:06:48:475,-0.0293,-0.2962,9.8199,0.0016,-0.0054,9.8066,0.068,-0.2667,0.1818,-11.37,-37.12,34.75,292.76,-85.07,134.89
53.184223,-1.646764,192.76,0,4,225.96,16 / 18,28114,2019-11-06 16:06:48:576,-0.7929,-4.3708,9.5857,-0.0541,-0.0372,9.8063,0.0453,-0.1583,0.1197,-10.81,-36.94,34.81,300.4,-85.18,142.13
53.184223,-1.646764,192.76,0,4,225.96,16 / 18,28213,2019-11-06 16:06:48:675,2.3205,-2.2591,9.8795,-0.0443,-0.0065,9.8065,-0.0005,-0.44,0.2204,-11.31,-36.37,35.38,304.26,-85.49,145.46
53.184223,-1.646764,192.76,0,4,225.96,16 / 18,28313,2019-11-06 16:06:48:775,-0.5163,-2.6272,10.1001,-0.0581,-0.009,9.8065,-0.0199,-0.4201,0.2057,-11.06,-37.12,35.81,305.66,-85.79,146.09
53.184223,-1.646764,192.76,0,4,225.96,16 / 18,28413,2019-11-06 16:06:48:875,0.7347,-2.368,9.6418,-0.0544,0.0104,9.8064,-0.0528,-0.4579,0.1867,-11.56,-37.31,35.25,308.4,-86.47,150.14
53.184223,-1.646764,192.76,0,4,225.96,16 / 18,28514,2019-11-06 16:06:48:976,-2.4969,-3.6678,9.9282,-0.0524,0.014,9.8065,-0.0497,-0.4911,0.1656,-11.37,-37.37,35.19,307.9,-86.86,147.89
53.184223,-1.646764,192.76,0,4,225.96,16 / 18,28614,2019-11-06 16:06:49:076,0.6594,-0.4576,9.7394,-0.0517,0.0068,9.8064,-0.0231,-0.5451,0.1795,-11.25,-37.37,34.94,310.53,-87.51,149.91
53.184223,-1.646764,192.76,0,4,225.96,16 / 18,28714,2019-11-06 16:06:49:176,-3.7305,-1.0387,9.4126,-0.0321,-0.0121,9.8065,0.0377,-0.5938,0.2063,-10.31,-36.87,35.13,315.07,-87.84,152.59
53.184223,-1.646764,192.76,0,4,225.96,16 / 18,28813,2019-11-06 16:06:49:275,-1.0318,-1.4202,10.0805,-0.0398,-0.0143,9.8065,-0.0376,-0.3721,0.0528,-10.31,-37.25,34.38,318.41,-87.9,156.28
53.18413,-1.646717,191.58,3.01,4,225.96,18 / 19,28913,2019-11-06 16:06:49:375,-1.5355,-2.5049,10.5176,0.0031,0.0044,9.8066,0.0129,-0.3932,0.1329,-10.37,-36.81,34.44,317.45,-88.08,155.22
53.18413,-1.646717,191.58,3.01,4,225.96,18 / 19,29013,2019-11-06 16:06:49:475,-0.0574,-2.1483,10.4556,-0.0036,0.0123,9.8066,0.0025,-0.4759,0.1188,-9.69,-36.69,35.38,325,-88.25,161.98
53.18413,-1.646717,191.58,3.01,4,225.96,18 / 19,29113,2019-11-06 16:06:49:575,-2.2292,-2.6223,10.0974,-0.0111,0.0105,9.8066,0.0144,-0.5029,0.2094,-9.25,-36.94,35.31,337.73,-88.5,172.74
53.18413,-1.646717,191.58,3.01,4,225.96,18 / 19,29213,2019-11-06 16:06:49:675,-3.9995,-2.1906,9.8164,-0.0163,0.0042,9.8066,0.0066,-0.5582,0.1582,-9.25,-37.06,34.31,2.21,-88.57,-163.02
53.18413,-1.646717,191.58,3.01,4,225.96,18 / 19,29313,2019-11-06 16:06:49:775,-2.4694,-2.433,9.8142,0.0136,-0.0049,9.8066,0.0006,-0.1288,-0.1096,-8.12,-36.75,34.38,8.9,-88.47,-158.11
53.18413,-1.646717,191.58,3.01,4,225.96,18 / 19,29414,2019-11-06 16:06:49:876,0.3457,-0.8592,9.5011,0.0443,0.0057,9.8065,-0.0325,-0.0734,-0.1625,-7.87,-35.94,34.88,6.58,-88.33,-160.74
53.18413,-1.646717,191.58,3.01,4,225.96,18 / 19,29514,2019-11-06 16:06:49:976,-1.7925,-2.5093,10.7743,0.0406,0.0064,9.8065,-0.0374,-0.2478,-0.0559,-6.31,-35.81,33.13,352.06,-88.24,-177.37
53.18413,-1.646717,191.58,3.01,4,225.96,18 / 19,29614,2019-11-06 16:06:50:076,1.6827,-1.4496,9.9181,0.0135,0.0026,9.8066,-0.0082,-0.2662,-0.0706,-5.69,-35.25,33.88,345.34,-88.27,175.8
53.18413,-1.646717,191.58,3.01,4,225.96,18 / 19,29713,2019-11-06 16:06:50:175,-4.7844,-1.9166,9.3187,0.0063,-0.0068,9.8066,0.0762,0.1654,-0.2381,-5.87,-36.5,33.5,356.4,-88.36,-173.48
53.18413,-1.646717,191.58,3.01,4,225.96,18 / 19,29813,2019-11-06 16:06:50:275,-1.6087,-1.4189,8.9604,0.0747,-0.0208,9.8063,-0.0357,0.1156,-0.2257,-5.37,-36.56,32.56,7.37,-88.42,-164.24
53.18413,-1.646717,191.58,3.01,4,225.96,17 / 19,29913,2019-11-06 16:06:50:375,0.6302,-2.8355,9.7697,0.0105,0.004,9.8066,0.0398,-0.05,-0.0494,-5.5,-37.37,33.88,352.71,-88.29,-178.69
53.18413,-1.646717,191.58,3.01,4,225.96,17 / 19,30013,2019-11-06 16:06:50:475,2.8665,-2.361,8.3593,-0.0376,-0.0201,9.8065,-0.108,0.1979,-0.0082,-5.31,-37,33.88,349.92,-88.09,178.65
53.18413,-1.646717,191.58,3.01,4,225.96,17 / 19,30113,2019-11-06 16:06:50:575,-5.2526,-2.9188,10.0372,0.039,0.0247,9.8065,-0.0256,-0.4516,0.0789,-5.44,-35.87,34.5,354.74,-87.89,-176.93
53.18413,-1.646717,191.58,3.01,4,225.96,17 / 19,30213,2019-11-06 16:06:50:675,-3.7743,-3.2449,11.2394,-0.0154,-0.0027,9.8066,0.1153,-0.152,-0.1055,-5.06,-36.31,33.56,354.8,-88.03,-176.64
53.18413,-1.646717,191.58,3.01,4,225.96,17 / 19,30313,2019-11-06 16:06:50:775,1.7409,-1.0263,9.4291,0.0343,-0.0045,9.8066,0.0931,-0.5126,0.0102,-3.94,-36.37,33.38,344.01,-88.26,171.44
53.18413,-1.646717,191.58,3.01,4,225.96,17 / 19,30413,2019-11-06 16:06:50:875,-3.2862,-1.8329,9.9433,0.0483,0.0106,9.8065,0.0146,-0.3802,0.1432,-4.06,-36.94,33.5,331.5,-88.16,159.18
53.18413,-1.646717,191.58,3.01,4,225.96,17 / 19,30513,2019-11-06 16:06:50:975,1.9239,-2.0876,9.9479,0.0631,-0.0022,9.8064,-0.0007,-0.2716,0.0614,-3.12,-37,32.63,319.54,-87.66,146.46
53.18413,-1.646717,191.58,3.01,4,225.96,17 / 19,30614,2019-11-06 16:06:51:076,-1.2076,-2.0366,10.5612,0.0337,0.006,9.8065,0.0859,-0.2487,0.0198,-2.81,-36.25,33,315.55,-87.51,142.67
53.18413,-1.646717,191.58,3.01,4,225.96,17 / 19,30714,2019-11-06 16:06:51:176,1.6407,-0.9346,9.2915,0.0419,0.0297,9.8065,0.0521,-0.3367,0.1318,-2.31,-36.75,32.69,309.95,-87.35,135.72
53.18413,-1.646717,191.58,3.01,4,225.96,17 / 19,30814,2019-11-06 16:06:51:276,1.2225,-1.1304,9.444,0.0139,0.0167,9.8065,0.0052,-0.1749,-0.0117,-3,-36.5,32.94,306.22,-87.33,133.79
53.18413,-1.646717,191.58,3.01,4,225.96,20 / 21,30914,2019-11-06 16:06:51:376,-1.2859,-0.2368,9.6955,0.0097,0.0112,9.8065,-0.09,0.1309,-0.1216,-2.25,-36.37,33.06,301.53,-87.17,127.66
53.18413,-1.646717,191.58,3.01,4,225.96,20 / 21,31014,2019-11-06 16:06:51:476,0.3613,0.2008,10.1879,-0.0192,0.0053,9.8066,0.0354,-0.292,0.0878,-1.75,-36.37,32.75,294.68,-87.18,120.98
53.18413,-1.646717,191.58,3.01,4,225.96,20 / 21,31113,2019-11-06 16:06:51:575,2.0689,0.5862,9.8007,-0.0157,0.0001,9.8066,0.0241,-0.3044,0.1278,-2.44,-36.12,31.81,290.19,-87.03,116.92
53.18413,-1.646717,191.58,3.01,4,225.96,20 / 21,31213,2019-11-06 16:06:51:675,-2.5965,0.4948,10.2399,-0.0247,-0.012,9.8065,0.0351,-0.3179,0.1252,-2.06,-35.94,31.94,288.76,-86.87,115.69
53.18413,-1.646717,191.58,3.01,4,225.96,20 / 21,31314,2019-11-06 16:06:51:776,0.6842,-0.3976,10.091,-0.04,-0.0393,9.8064,0.0914,-0.1905,0.1128,-2.19,-36.19,32.19,290.34,-86.78,117.34
53.18413,-1.646717,191.58,3.01,4,225.96,20 / 21,31414,2019-11-06 16:06:51:876,-3.3597,-1.0016,10.1459,-0.0238,-0.0152,9.8065,0.0561,-0.3462,0.1691,-1.37,-35.87,32.88,303,-86.82,127.69
53.18413,-1.646717,191.58,3.01,4,225.96,20 / 21,31514,2019-11-06 16:06:51:976,1.4358,0.1096,9.6449,-0.0509,-0.0227,9.8065,-0.0088,-0.0961,0.0029,-2.44,-36.44,32.5,303.91,-86.76,130.35
53.18413,-1.646717,191.58,3.01,4,225.96,20 / 21,31614,2019-11-06 16:06:52:076,-4.0013,-0.5938,10.2262,-0.0118,0.0094,9.8065,0.0476,-0.3794,0.1394,-1.75,-36,31.5,311.25,-86.99,137.41
53.18413,-1.646717,191.58,3.01,4,225.96,20 / 21,31714,2019-11-06 16:06:52:176,-0.6673,0.3495,9.0824,-0.0124,-0.0161,9.8066,-0.0219,0.287,-0.1993,-1.12,-36.37,31.56,314.03,-87.01,138.28
53.18413,-1.646717,191.58,3.01,4,225.96,20 / 21,31814,2019-11-06 16:06:52:276,-1.6325,0.0157,9.3695,0.0517,0.0011,9.8065,0.0309,-0.1388,-0.0675,-1,-35.81,31.88,313.79,-87.02,138.04
53.18413,-1.646717,191.58,3.01,4,225.96,18 / 20,31914,2019-11-06 16:06:52:376,-2.3254,0.1184,10.2064,0.0041,0.0148,9.8065,-0.0563,0.2968,-0.274,-0.81,-36.56,32,307.85,-86.91,132.5
53.18413,-1.646717,191.58,3.01,4,225.96,18 / 20,32014,2019-11-06 16:06:52:476,0.0872,0.9519,9.0977,0.0616,0.0276,9.8063,-0.1142,0.0425,-0.1241,-0.5,-36.56,30.81,306.69,-86.9,129.7
53.18413,-1.646717,191.58,3.01,4,225.96,18 / 20,32114,2019-11-06 16:06:52:576,-4.3957,0.1602,10.3029,0.0365,0.0158,9.8065,-0.0658,0.2607,-0.221,-0.06,-36.62,30.56,298.35,-86.57,122
53.18413,-1.646717,191.58,3.01,4,225.96,18 / 20,32214,2019-11-06 16:06:52:676,-0.6584,-0.2409,9.3541,0.0498,0.0057,9.8065,-0.005,0.2344,-0.2171,1,-36,30.81,300.17,-86.28,122.11
53.18413,-1.646717,191.58,3.01,4,225.96,18 / 20,32313,2019-11-06 16:06:52:775,-3.6031,-1.5222,10.1069,0.0648,0.01,9.8064,0.0365,-0.2121,-0.0433,1.31,-35.37,30.69,293.9,-85.86,116.39
53.18413,-1.646717,191.58,3.01,4,225.96,18 / 20,32413,2019-11-06 16:06:52:875,0.668,1.0428,8.5202,0.0024,0.0284,9.8066,-0.2175,0.1721,-0.0883,1.19,-35.56,29.88,289.16,-85.89,111.96
53.18413,-1.646717,191.58,3.01,4,225.96,18 / 20,32513,2019-11-06 16:06:52:975,-2.1051,0.2911,10.2378,0.0509,0.0419,9.8063,-0.0174,-0.3303,0.1182,1.56,-35,29.56,282.97,-85.57,104.23
53.18413,-1.646717,191.58,3.01,4,225.96,18 / 20,32613,2019-11-06 16:06:53:075,-3.9,0.302,10.4795,-0.018,-0.0268,9.8066,0.0612,-0.2203,-0.0302,1.94,-36.31,29.88,283.79,-85.45,105.33
53.18413,-1.646717,191.58,3.01,4,225.96,18 / 20,32713,2019-11-06 16:06:53:175,1.4935,-2.071,11.6212,0.0213,0.0026,9.8065,0.0477,-0.5361,0.1669,2.5,-36.31,29.5,283.86,-85.1,103.9
