GPS LATITUDE (degrees), GPS LONGITUDE (degrees), GPS ALTITUDE (m), GPS SPEED (Kmh), GPS ACCURACY (m), GPS ORIENTATION (Â°),GPS SATELLITES IN RANGE, TIME SINCE START (ms), DATE (YYYY-MO-DD HH-MI-SS_SSS), ACCELEROMETER X (m/s²) , ACCELEROMETER Y (m/s²), ACCELEROMETER Z (m/s²), GRAVITY X (m/s²), GRAVITY Y (m/s²), GRAVITY Z (m/s²), GYROSCOPE Yaw (rad/s), GYROSCOPE Pitch (rad/s), GYROSCOPE Roll (rad/s), MAGNETIC FIELD X (Î¼T), MAGNETIC FIELD Y (Î¼T), MAGNETIC FIELD Z (Î¼T), ORIENTATION (Yaw) (Â°), ORIENTATION (Pitch) (Â°), ORIENTATION (Roll ) (Â°)
52.98011,-1.750089,235.52,16.75,6,34.96,21 / 21,1686812,2019-11-06 12:14:00:693,-2.7647,3.1737,9.5783,0.0637,-0.0302,9.8063,-0.0424,-0.3738,0.3112,-9.75,-42.31,-13.75,313.53,-85.49,-73.91
52.98011,-1.750089,235.52,16.75,6,34.96,21 / 21,1686912,2019-11-06 12:14:00:793,0.4138,-0.2165,8.8551,-0.0051,-0.0712,9.8063,-0.2096,-0.3656,0.2691,-9.87,-42.12,-14.06,319.19,-85.42,-68.94
52.98011,-1.750089,235.52,16.75,6,34.96,21 / 21,1687014,2019-11-06 12:14:00:895,-1.9872,1.3619,9.6145,0.0435,0.0067,9.8065,0.1197,-0.1455,0.0693,-9.37,-42,-14.06,312.11,-85.55,-72.17
52.98011,-1.750089,235.52,16.75,6,34.96,21 / 21,1687112,2019-11-06 12:14:00:993,1.1,-1.7862,9.8107,-0.051,-0.0118,9.8065,-0.0134,-0.0896,-0.0233,-10,-42.69,-14.19,317.56,-85.52,-70.31
52.98011,-1.750089,235.52,16.75,6,34.96,21 / 21,1687212,2019-11-06 12:14:01:093,-0.5673,2.2273,9.0835,-0.0189,-0.0049,9.8065,-0.1444,0.069,0.0093,-9.19,-42.31,-14.69,316.19,-85.61,-67.37
52.98011,-1.750089,235.52,16.75,6,34.96,21 / 21,1687312,2019-11-06 12:14:01:193,-0.7469,-0.6399,10.2008,-0.0114,0.0107,9.8066,-0.0714,0.1163,0.0118,-9,-41.75,-14.75,317.84,-85.72,-66.14
52.98011,-1.750089,235.52,16.75,6,34.96,21 / 21,1687412,2019-11-06 12:14:01:293,-0.8563,0.9031,9.6476,0.0251,0.0134,9.8065,0.0433,-0.1393,0.0502,-9.06,-41.94,-14.06,320.05,-85.59,-65.43
52.98011,-1.750089,235.52,16.75,6,34.96,20 / 21,1687512,2019-11-06 12:14:01:393,0.7413,0.2007,8.6923,-0.0048,0.0161,9.8066,0.083,0.0339,0.0215,-10.37,-41.12,-13.75,321.66,-85.54,-67.19
52.98011,-1.750089,235.52,16.75,6,34.96,20 / 21,1687612,2019-11-06 12:14:01:493,-0.2278,0.2685,10.4936,0.0103,-0.0149,9.8066,-0.1185,0.0215,-0.0431,-9.69,-42,-14.37,323.64,-85.46,-65.23
52.98011,-1.750089,235.52,16.75,6,34.96,20 / 21,1687712,2019-11-06 12:14:01:593,0.2886,1.2065,10.6877,-0.0202,0.0017,9.8066,-0.065,0.1797,-0.0067,-9.62,-41.81,-14.44,323.03,-85.75,-66.18
52.98011,-1.750089,235.52,16.75,6,34.96,20 / 21,1687811,2019-11-06 12:14:01:692,-0.4593,-0.6611,9.6762,-0.0253,0.0524,9.8065,0.0442,0.3535,-0.2753,-10.5,-42.12,-14.44,319.31,-86.06,-69.88
52.98011,-1.750089,235.52,16.75,6,34.96,20 / 21,1687912,2019-11-06 12:14:01:793,-3.1059,3.4643,10.1835,-0.0382,0.0382,9.8065,0.1309,0.3845,-0.2864,-9.69,-41.87,-14.69,315.14,-86.05,-71.97
52.98011,-1.750089,235.52,16.75,6,34.96,20 / 21,1688012,2019-11-06 12:14:01:893,1.7593,-0.6118,9.2633,-0.0142,-0.003,9.8065,0.0421,0.2072,-0.1664,-10.12,-41.62,-14,316.7,-85.55,-71.28
52.98011,-1.750089,235.52,16.75,6,34.96,20 / 21,1688112,2019-11-06 12:14:01:993,0.1664,1.1615,9.6087,-0.0101,0.0108,9.8066,-0.0739,0.1765,-0.0857,-11,-41.69,-13.75,316.03,-85.07,-73.91
52.98011,-1.750089,235.52,16.75,6,34.96,20 / 21,1688212,2019-11-06 12:14:02:093,2.1709,-0.6615,10.8058,-0.0166,0.0089,9.8066,-0.0446,0.1581,-0.1513,-10,-41.44,-14.94,309.55,-85.12,-75.43
52.98011,-1.750089,235.52,16.75,6,34.96,20 / 21,1688312,2019-11-06 12:14:02:193,-2.1,1.4124,9.5027,-0.0255,0.0115,9.8065,-0.0013,-0.0427,-0.044,-9.5,-42.44,-14.06,308.24,-85.61,-75.67
52.98011,-1.750089,235.52,16.75,6,34.96,20 / 21,1688412,2019-11-06 12:14:02:293,-0.2642,-0.6363,9.8096,-0.0542,0.0126,9.8064,0.1202,-0.0831,0.0525,-9,-42.69,-14.25,313.69,-86.07,-71.61
52.98011,-1.750089,235.52,16.75,6,34.96,21 / 22,1688512,2019-11-06 12:14:02:393,-0.9745,2.0231,9.695,0.018,-0.0062,9.8065,-0.0873,-0.2314,0.0596,-9.37,-42.56,-14.44,314.77,-86.19,-70.9
52.98011,-1.750089,235.52,16.75,6,34.96,21 / 22,1688612,2019-11-06 12:14:02:493,-0.7073,0.6444,9.132,0.0236,-0.0383,9.8065,0.1166,-0.0503,0.1233,-10,-41.87,-14.19,320.27,-86.04,-69.01
52.98011,-1.750089,235.52,16.75,6,34.96,21 / 22,1688712,2019-11-06 12:14:02:593,-2.0629,0.0556,8.9467,0.0263,-0.0177,9.8066,0.1436,-0.1878,0.0624,-9.5,-41.94,-14.12,315.36,-85.8,-69.83
52.98011,-1.750089,235.52,16.75,6,34.96,21 / 22,1688812,2019-11-06 12:14:02:693,-0.8373,0.4153,11.2643,0.0316,-0.0119,9.8065,0.2714,-0.0368,-0.009,-9.94,-41.69,-14.56,313.72,-85.61,-72.46
52.98011,-1.750089,235.52,16.75,6,34.96,21 / 22,1688911,2019-11-06 12:14:02:792,3.3913,0.6053,10.1209,-0.0002,-0.0494,9.8065,-0.0097,-0.1233,-0.0663,-9.87,-41.62,-15.19,315.49,-85.68,-71.04
52.98011,-1.750089,235.52,16.75,6,34.96,21 / 22,1689013,2019-11-06 12:14:02:894,-1.2322,0.3142,9.937,0.0489,-0.0171,9.8064,-0.1539,0.1671,-0.0003,-9.5,-41.69,-14.81,314.94,-85.82,-68.82
52.98011,-1.750089,235.52,16.75,6,34.96,21 / 22,1689112,2019-11-06 12:14:02:993,0.6838,0.8256,11.0661,-0.0242,-0.0008,9.8066,-0.0377,0.3486,-0.0388,-9.31,-42.37,-15.19,321.61,-85.95,-63.23
52.98011,-1.750089,235.52,16.75,6,34.96,21 / 22,1689212,2019-11-06 12:14:03:093,2.9053,-0.8823,10.1552,0.0106,0.0326,9.8066,-0.2739,0.0257,0.0871,-9.69,-41.31,-15.19,320.5,-85.75,-66.96
52.98011,-1.750089,235.52,16.75,6,34.96,21 / 22,1689313,2019-11-06 12:14:03:194,-5.5066,3.8266,9.3137,-0.0447,0.0094,9.8065,0.0084,-0.3285,0.3292,-9.75,-42.06,-14.44,316.9,-85.45,-70.93
52.98011,-1.750089,235.52,16.75,6,34.96,21 / 22,1689412,2019-11-06 12:14:03:293,3.4868,-1.422,9.5009,-0.1103,0.0283,9.8059,-0.0117,-0.5609,0.3378,-9.31,-41.94,-15,312.9,-85.78,-70.53
52.98011,-1.750089,235.52,16.75,6,34.96,20 / 22,1689511,2019-11-06 12:14:03:392,-5.8332,2.1059,9.0279,-0.029,0.0115,9.8066,0.0273,-0.6798,0.4607,-9.56,-42.62,-14.75,314.92,-85.73,-71.46
52.98011,-1.750089,235.52,16.75,6,34.96,20 / 22,1689612,2019-11-06 12:14:03:493,3.7884,-0.563,10.7692,-0.1034,0.0117,9.806,-0.0131,-0.7332,0.3682,-9.56,-41.69,-15.06,316.33,-85.96,-70.78
52.98011,-1.750089,235.52,16.75,6,34.96,20 / 22,1689712,2019-11-06 12:14:03:593,-4.114,0.1602,9.2083,0.0643,0.011,9.8064,0.1194,-0.0955,0.1487,-9.31,-41.94,-14.62,309.57,-85.75,-73.41
52.98011,-1.750089,235.52,16.75,6,34.96,20 / 22,1689812,2019-11-06 12:14:03:693,-1.125,0.8723,9.4111,-0.01,0.0083,9.8066,-0.0176,0.0332,-0.0605,-9.19,-41.81,-14.62,310.82,-85.91,-72.61
52.98011,-1.750089,235.52,16.75,6,34.96,20 / 22,1689912,2019-11-06 12:14:03:793,0.5953,1.3315,8.9964,0.0489,-0.014,9.8064,0.0133,0.0711,0.0233,-9.25,-42.19,-15.25,311.07,-86.03,-72.62
52.98011,-1.750089,235.52,16.75,6,34.96,20 / 22,1690012,2019-11-06 12:14:03:893,-1.9797,0.222,9.4207,-0.0014,-0.0321,9.8066,0.0381,0.0032,-0.0374,-10,-41.94,-15.44,315.95,-85.7,-70.67
52.98011,-1.750089,235.52,16.75,6,34.96,20 / 22,1690112,2019-11-06 12:14:03:993,-5.8557,0.5544,9.7125,0.0779,-0.0173,9.8063,-0.0215,0.4652,-0.3978,-9.19,-42.19,-15.19,310.81,-85.42,-71.7
52.98011,-1.750089,235.52,16.75,6,34.96,20 / 22,1690212,2019-11-06 12:14:04:093,-0.443,0.2993,10.2575,0.0704,0.0211,9.8064,0.0564,0.4929,-0.3458,-9.06,-41.87,-14.94,310.08,-85.89,-73.23
52.98011,-1.750089,235.52,16.75,6,34.96,20 / 22,1690312,2019-11-06 12:14:04:193,2.8236,-0.1815,10.5451,0.0567,-0.0151,9.8064,-0.0663,0.3923,-0.2808,-9.06,-42.25,-14.75,310.59,-86.67,-74.23
52.98011,-1.750089,235.52,16.75,6,34.96,20 / 22,1690412,2019-11-06 12:14:04:293,-0.6132,-0.3239,10.204,0.0108,-0.0428,9.8065,-0.0547,0.4504,-0.2932,-9,-42.31,-14.19,315.89,-86.59,-70.8
52.98011,-1.750089,235.52,16.75,6,34.96,21 / 22,1690512,2019-11-06 12:14:04:393,-0.8143,0.4206,9.6465,0.0248,-0.0014,9.8066,-0.0946,0.0794,-0.046,-9.06,-41.5,-14.69,316.41,-86.53,-68.88
52.98011,-1.750089,235.52,16.75,6,34.96,21 / 22,1690612,2019-11-06 12:14:04:493,-0.9267,-1.4964,9.4162,0.0374,0.0405,9.8064,-0.0101,0.024,-0.0067,-8.81,-41.94,-15.19,315.33,-86.57,-69.79
52.98011,-1.750089,235.52,16.75,6,34.96,21 / 22,1690712,2019-11-06 12:14:04:593,-3.5838,0.4007,8.5397,0.1006,0.0263,9.806,-0.0453,0.14,-0.0546,-9.31,-41.19,-14.81,311.18,-86.68,-73.88
52.98011,-1.750089,235.52,16.75,6,34.96,21 / 22,1690811,2019-11-06 12:14:04:692,-0.0521,-1.1887,10.9429,-0.0016,-0.0141,9.8066,-0.1545,0.3351,-0.2268,-9.12,-41.31,-14.69,307,-86.34,-77.03
52.98011,-1.750089,235.52,16.75,6,34.96,21 / 22,1690912,2019-11-06 12:14:04:793,-0.1133,-1.0804,10.5533,0.0183,-0.008,9.8066,0.1628,0.3589,-0.1667,-9.12,-41.56,-14.62,310.55,-86.16,-73.32
52.98011,-1.750089,235.52,16.75,6,34.96,21 / 22,1691011,2019-11-06 12:14:04:892,1.4933,-1.4116,10.6873,0.0331,0.0053,9.8066,0.0439,0.3752,-0.2106,-8.75,-42,-15.81,309.58,-86.26,-73.1
52.98011,-1.750089,235.52,16.75,6,34.96,21 / 22,1691111,2019-11-06 12:14:04:992,0.3123,-1.2849,10.0964,0.0546,0.0452,9.8063,0.021,0.2808,-0.1152,-8.81,-42,-15.37,305.76,-86.47,-78.26
52.98011,-1.750089,235.52,16.75,6,34.96,21 / 22,1691211,2019-11-06 12:14:05:092,-4.8273,2.0752,8.6003,0.0356,0.0133,9.8066,0.1443,0.3753,-0.1668,-8.69,-42.19,-15.25,306.12,-86.62,-78.23
52.98011,-1.750089,235.52,16.75,6,34.96,21 / 22,1691314,2019-11-06 12:14:05:195,-0.6473,-0.3691,10.9763,0.0065,-0.0189,9.8066,0.0258,-0.0299,0.0495,-8.94,-42.25,-15.44,306.53,-86.75,-78.11
52.98011,-1.750089,235.52,16.75,6,34.96,21 / 22,1691412,2019-11-06 12:14:05:293,-2.8236,2.1661,8.4832,-0.0061,0.0082,9.8066,-0.0021,-0.0325,0.1797,-9.06,-41.69,-15.44,308.35,-86.62,-76.18
52.98011,-1.750089,235.52,16.75,6,34.96,21 / 22,1691512,2019-11-06 12:14:05:393,-3.5197,0.5255,8.8792,-0.0456,-0.012,9.8065,-0.0387,-0.2692,0.115,-8.31,-41.75,-15.44,307.54,-86.2,-73.01
52.98011,-1.750089,235.52,16.75,6,34.96,21 / 22,1691612,2019-11-06 12:14:05:493,-2.9257,2.0571,8.7184,-0.0071,-0.0144,9.8066,0.0658,-0.207,0.0668,-8.87,-41.94,-15.56,315.15,-86.23,-68.04
52.98011,-1.750089,235.52,16.75,6,34.96,21 / 22,1691712,2019-11-06 12:14:05:593,-1.114,0.5934,11.4619,-0.0489,0.0143,9.8065,0.0297,-0.3255,0.197,-9.25,-42.81,-14.5,318.62,-86.39,-67.88
52.98011,-1.750089,235.52,16.75,6,34.96,21 / 22,1691812,2019-11-06 12:14:05:693,-6.2563,2.3499,9.5621,0.0104,0.0201,9.8066,0.0652,-0.5608,0.2444,-8.87,-42.44,-14.81,314,-86.31,-70.52
52.98011,-1.750089,235.52,16.75,6,34.96,21 / 22,1691912,2019-11-06 12:14:05:793,-1.8349,3.4761,9.1875,-0.0774,0.0089,9.8063,0.0273,-0.154,0.2341,-9.44,-42.06,-14.44,313.85,-86.44,-72.33
52.98011,-1.750089,235.52,16.75,6,34.96,21 / 22,1692012,2019-11-06 12:14:05:893,1.1288,-2.9096,10.2238,-0.0502,0.0202,9.8064,0.0014,0.1162,0.0039,-9.44,-42.06,-15.37,308.9,-86.26,-74.99
52.98011,-1.750089,235.52,16.75,6,34.96,21 / 22,1692112,2019-11-06 12:14:05:993,-1.1824,3.0886,9.2093,0.004,0.0294,9.8066,-0.1561,0.3535,-0.0512,-8.69,-41.5,-15.25,307.48,-86.03,-76
52.98011,-1.750089,235.52,16.75,6,34.96,21 / 22,1692211,2019-11-06 12:14:06:092,1.6137,-0.3292,9.7653,-0.0028,0.0014,9.8066,0.0031,0.3047,0.0299,-9.56,-41.69,-15.5,305.19,-85.87,-80.54
52.98011,-1.750089,235.52,16.75,6,34.96,21 / 22,1692313,2019-11-06 12:14:06:194,-2.9323,0.6878,8.965,0.0289,0.0208,9.8065,-0.2074,0.4365,-0.2366,-9.44,-41.69,-16.12,299.04,-85.89,-82
52.98011,-1.750089,235.52,16.75,6,34.96,21 / 22,1692412,2019-11-06 12:14:06:293,-3.4039,2.4834,9.5961,-0.0367,-0.0346,9.8065,-0.2045,0.4501,-0.1604,-8.87,-41.56,-16.19,304.5,-85.98,-77.18
52.98011,-1.750089,235.52,16.75,6,34.96,23 / 23,1692511,2019-11-06 12:14:06:392,-3.5445,0.6066,9.8055,0.0634,0.0255,9.8063,-0.1609,0.3386,-0.146,-9.37,-42.06,-16.12,297.15,-85.95,-83.87
52.98011,-1.750089,235.52,16.75,6,34.96,23 / 23,1692613,2019-11-06 12:14:06:494,-2.5989,-0.0192,10.2778,0.0055,0.0115,9.8066,-0.0253,0.1397,-0.0552,-9.25,-41.56,-15.75,297.46,-86.09,-83.87
52.98011,-1.750089,235.52,16.75,6,34.96,23 / 23,1692711,2019-11-06 12:14:06:592,-0.7198,2.0091,8.8721,0.0606,-0.0268,9.8064,-0.1563,-0.123,0.2937,-9,-42.19,-14.94,297.33,-86.14,-85.31
52.98011,-1.750089,235.52,16.75,6,34.96,23 / 23,1692812,2019-11-06 12:14:06:693,-1.9812,-0.4482,8.7749,0.0136,0.0292,9.8065,0.1861,0.032,-0.0096,-9.31,-41.44,-15.25,293.74,-85.44,-87.3
52.98011,-1.750089,235.52,16.75,6,34.96,23 / 23,1692912,2019-11-06 12:14:06:793,-1.1163,0.6968,9.7396,0.0341,-0.0134,9.8066,-0.1556,0.0448,0.0483,-9.06,-41.5,-16.25,293.11,-85.1,-86.04
52.98011,-1.750089,235.52,16.75,6,34.96,23 / 23,1693012,2019-11-06 12:14:06:893,-2.064,-0.1399,9.0839,-0.0231,-0.016,9.8066,0.0426,0.0815,-0.0746,-9.31,-41.44,-15.62,293.76,-85.09,-85.41
52.98011,-1.750089,235.52,16.75,6,34.96,23 / 23,1693112,2019-11-06 12:14:06:993,-0.8894,1.1177,10.1281,-0.0496,0.0682,9.8062,-0.0004,0.3576,-0.1471,-9.31,-41.5,-15.94,290.31,-85.33,-89.13
52.98011,-1.750089,235.52,16.75,6,34.96,23 / 23,1693213,2019-11-06 12:14:07:094,-1.6711,-0.602,8.754,-0.0136,0.0144,9.8065,0.2102,0.0424,0.0009,-9.25,-41.75,-16.56,289.54,-85.25,-88.46
52.98011,-1.750089,235.52,16.75,6,34.96,23 / 23,1693312,2019-11-06 12:14:07:193,-3.835,2.5462,10.3603,-0.0039,0.0222,9.8066,0.0164,-0.0797,0.0759,-8.81,-41.87,-17.31,289.79,-85.02,-87.74
52.98011,-1.750089,235.52,16.75,6,34.96,23 / 23,1693413,2019-11-06 12:14:07:294,-5.9015,0.5479,9.6116,0.034,-0.0173,9.8066,-0.0337,0.0561,0.0637,-9.69,-41.87,-16.37,290.21,-84.51,-90.14
52.98011,-1.750089,235.52,16.75,6,34.96,23 / 23,1693512,2019-11-06 12:14:07:393,1.3653,-0.1963,11.1426,-0.0858,0.0108,9.8063,0.0755,0.253,-0.1215,-10.06,-41.19,-15.87,291.09,-84.73,-90.06
52.98011,-1.750089,235.52,16.75,6,34.96,23 / 23,1693612,2019-11-06 12:14:07:493,-6.4965,2.0462,9.5837,-0.0771,-0.0225,9.8062,-0.1946,0.8979,-0.5629,-8.87,-41.87,-15.69,291.04,-84.67,-86.74
52.98011,-1.750089,235.52,16.75,6,34.96,23 / 23,1693712,2019-11-06 12:14:07:593,-5.7355,3.8722,7.5764,-0.1181,0.0051,9.8059,-0.1604,1.0576,-0.5756,-8.62,-41.56,-16.81,288.9,-84.36,-87.15
52.98011,-1.750089,235.52,16.75,6,34.96,23 / 23,1693812,2019-11-06 12:14:07:693,5.7803,-3.6167,11.1427,-0.1414,-0.0125,9.8056,-0.0418,0.8985,-0.5131,-8.44,-41.37,-16.25,290.63,-85.13,-85.34
52.98011,-1.750089,235.52,16.75,6,34.96,23 / 23,1693912,2019-11-06 12:14:07:793,-4.1215,2.2035,8.9829,0.014,0.0368,9.8065,0.0486,0.5969,-0.354,-8.62,-41.75,-16.37,288.17,-84.94,-90.03
52.98011,-1.750089,235.52,16.75,6,34.96,23 / 23,1694012,2019-11-06 12:14:07:893,5.349,-1.4819,11.2082,-0.1057,-0.0086,9.806,0.098,0.0927,-0.0438,-8.69,-41.12,-16.75,289.54,-85.16,-88.5
52.98011,-1.750089,235.52,16.75,6,34.96,23 / 23,1694114,2019-11-06 12:14:07:995,-2.0033,1.1002,9.6666,0.0704,0.0128,9.8064,0.0271,-0.0991,0.0623,-7.75,-41.69,-16.44,286.76,-85.19,-88.85
52.98011,-1.750089,235.52,16.75,6,34.96,23 / 23,1694212,2019-11-06 12:14:08:093,-6.4466,1.2427,7.9905,-0.0295,-0.0099,9.8065,0.1078,-0.4527,0.2953,-8.62,-42,-16.75,289.34,-85.18,-88.5
52.98011,-1.750089,235.52,16.75,6,34.96,23 / 23,1694312,2019-11-06 12:14:08:193,4.6338,-0.0209,10.1699,0.0973,-0.0019,9.8061,0.0322,-0.5849,0.3009,-8.25,-41.62,-16.81,285.6,-84.74,-88.12
52.98011,-1.750089,235.52,16.75,6,34.96,23 / 23,1694412,2019-11-06 12:14:08:293,-0.318,-0.1511,10.1947,0.0474,0.0046,9.8065,0.0593,-0.6009,0.4046,-8.31,-41.31,-16.75,286.54,-84.84,-87.72
52.98011,-1.750089,235.52,16.75,6,34.96,21 / 21,1694512,2019-11-06 12:14:08:393,3.6264,-1.4355,10.8898,0.0848,0.003,9.8063,-0.0281,-0.4941,0.3681,-8.37,-42.06,-15.87,288.32,-85.08,-87.12
52.981316,-1.748838,235.26,17.26,4,22.88,21 / 21,1694611,2019-11-06 12:14:08:492,-4.2235,-0.9548,8.7626,0.0526,0.0338,9.8063,0.1443,-0.2873,0.1901,-8.44,-42,-17.12,281.6,-84.77,-91.99
52.981316,-1.748838,235.26,17.26,4,22.88,21 / 21,1694712,2019-11-06 12:14:08:593,1.137,0.7442,9.7729,0.0136,0.0057,9.8066,0.0165,-0.1426,0.0895,-8.44,-42,-16.62,281.08,-84.94,-92.87
52.981316,-1.748838,235.26,17.26,4,22.88,21 / 21,1694813,2019-11-06 12:14:08:694,-1.1468,3.1153,10.2664,0.0363,-0.0078,9.8065,-0.054,-0.1027,0.0413,-8.56,-42.25,-16.37,285.12,-85.27,-93.67
52.981316,-1.748838,235.26,17.26,4,22.88,21 / 21,1694912,2019-11-06 12:14:08:793,-3.3753,0.2731,9.8555,-0.0055,0.0134,9.8066,-0.048,-0.047,-0.0026,-7.75,-41.81,-15.87,281.36,-85.33,-94.34
52.981316,-1.748838,235.26,17.26,4,22.88,21 / 21,1695012,2019-11-06 12:14:08:893,-4.304,2.1391,9.3736,0.0472,0.0029,9.8065,0.0118,0.169,-0.1194,-7.87,-41.56,-16.44,278.47,-85.49,-97.51
52.981316,-1.748838,235.26,17.26,4,22.88,21 / 21,1695112,2019-11-06 12:14:08:993,2.1903,-1.3106,9.72,-0.033,0.0122,9.8065,0.0063,0.2515,-0.2465,-7.5,-41.75,-16.25,274.75,-85.73,-98.56
52.981316,-1.748838,235.26,17.26,4,22.88,21 / 21,1695212,2019-11-06 12:14:09:093,-0.1883,-0.6751,10.6785,0.0309,-0.0162,9.8065,-0.1091,0.4447,-0.1613,-7.5,-41.75,-16.62,273.26,-85.98,-99.88
52.981316,-1.748838,235.26,17.26,4,22.88,21 / 21,1695312,2019-11-06 12:14:09:193,-1.6997,1.8365,9.6538,-0.0657,0.0093,9.8064,-0.0156,0.4,-0.2266,-6.81,-42.25,-16.87,274.69,-86.56,-99.8
52.981316,-1.748838,235.26,17.26,4,22.88,21 / 21,1695412,2019-11-06 12:14:09:293,0.7905,0.9919,10.0816,-0.0265,-0.0027,9.8066,-0.0097,0.258,-0.2124,-6.87,-41.94,-16.44,275.48,-86.64,-100.07
52.981316,-1.748838,235.26,17.26,4,22.88,21 / 22,1695512,2019-11-06 12:14:09:393,-1.5972,2.5308,8.9397,-0.0603,0.0177,9.8064,0.026,0.2207,-0.0839,-7.25,-41.69,-16.06,273.63,-87.12,-103.05
52.981316,-1.748838,235.26,17.26,4,22.88,21 / 22,1695612,2019-11-06 12:14:09:493,0.5532,1.4193,9.7564,0.0351,-0.0114,9.8065,0.0212,0.0014,-0.0485,-6.75,-42.75,-16.37,272.02,-87.15,-104.56
52.981316,-1.748838,235.26,17.26,4,22.88,21 / 22,1695713,2019-11-06 12:14:09:594,-5.6143,3.09,9.1989,-0.0654,0.0073,9.8064,-0.0454,-0.0852,0.0904,-7,-42.12,-17.19,272.01,-87.08,-103.69
52.981316,-1.748838,235.26,17.26,4,22.88,21 / 22,1695811,2019-11-06 12:14:09:692,3.5506,-0.4251,10.6468,0.0105,0.0043,9.8066,0.0081,-0.3165,0.2097,-6.31,-42.25,-16.56,268.56,-87.3,-104.58
52.981316,-1.748838,235.26,17.26,4,22.88,21 / 22,1695912,2019-11-06 12:14:09:793,2.7224,-1.7838,9.8011,0.0948,0.0011,9.8061,0.0126,-0.4548,0.3377,-6.5,-42.25,-16.12,271.37,-87.77,-103.68
52.981316,-1.748838,235.26,17.26,4,22.88,21 / 22,1696012,2019-11-06 12:14:09:893,2.5776,0.326,9.5412,-0.0155,-0.015,9.8066,0.0044,-0.5279,0.3477,-6.5,-41.75,-16.37,270.17,-87.39,-103.96
52.981316,-1.748838,235.26,17.26,4,22.88,21 / 22,1696111,2019-11-06 12:14:09:992,-4.4269,1.1412,9.1589,-0.0058,-0.015,9.8066,-0.0237,-0.4819,0.3305,-6.12,-42.31,-16.37,272.02,-87.58,-102.59
52.981316,-1.748838,235.26,17.26,4,22.88,21 / 22,1696212,2019-11-06 12:14:10:093,1.75,1.4309,9.495,-0.0109,0.004,9.8066,0.0417,-0.1511,0.1016,-6.62,-41.94,-16.44,276.71,-87.55,-101.06
52.981316,-1.748838,235.26,17.26,4,22.88,21 / 22,1696311,2019-11-06 12:14:10:192,1.1578,-0.4645,11.0302,0.0452,-0.0071,9.8065,-0.103,-0.0233,-0.0067,-5.69,-41.62,-17.12,267.18,-87.69,-106.88
52.981316,-1.748838,235.26,17.26,4,22.88,21 / 22,1696414,2019-11-06 12:14:10:295,-3.2908,1.3969,9.6663,0.0192,0.019,9.8066,-0.0999,0.173,-0.0507,-6.81,-42.19,-17.31,266.91,-87.68,-110.18
52.981316,-1.748838,235.26,17.26,4,22.88,21 / 22,1696512,2019-11-06 12:14:10:393,2.5889,1.5942,11.0803,0.0334,0.0141,9.8065,-0.0816,0.1495,-0.0671,-6.25,-41.19,-16.69,264.79,-87.76,-109.57
52.981316,-1.748838,235.26,17.26,4,22.88,21 / 22,1696611,2019-11-06 12:14:10:492,-1.7677,0.5459,9.8058,0.0176,0.0064,9.8066,-0.0007,0.2781,-0.133,-6,-42,-17.44,267.04,-87.93,-107.58
52.981316,-1.748838,235.26,17.26,4,22.88,21 / 22,1696713,2019-11-06 12:14:10:594,1.688,0.1023,8.9308,-0.0135,-0.0167,9.8066,0.0757,0.1547,-0.1906,-5.69,-42.06,-17.37,275.43,-88.2,-99.84
52.981316,-1.748838,235.26,17.26,4,22.88,21 / 22,1696812,2019-11-06 12:14:10:693,-1.2962,1.3759,10.0308,0.0153,-0.0022,9.8066,-0.0307,0.1555,-0.0668,-6.25,-41.62,-17.75,273.82,-88.32,-100.9
52.981316,-1.748838,235.26,17.26,4,22.88,21 / 22,1696912,2019-11-06 12:14:10:793,2.1557,-0.1902,9.929,0.0184,0.0114,9.8066,-0.0701,0.1484,-0.0748,-6.56,-42.06,-17.69,277.19,-88.58,-100.99
52.981316,-1.748838,235.26,17.26,4,22.88,21 / 22,1697012,2019-11-06 12:14:10:893,2.1557,-0.1902,9.929,0.0184,0.0114,9.8066,-0.0701,0.1484,-0.0748,-6.56,-42.06,-17.69,277.19,-88.58,-100.99
52.981316,-1.748838,235.26,17.26,4,22.88,21 / 22,1697112,2019-11-06 12:14:10:993,2.1557,-0.1902,9.929,0.0184,0.0114,9.8066,-0.0701,0.1484,-0.0748,-6.56,-42.06,-17.69,277.19,-88.58,-100.99
52.981316,-1.748838,235.26,17.26,4,22.88,21 / 22,1697212,2019-11-06 12:14:11:093,0.2652,-0.4303,9.5158,0.008,-0.0113,9.8066,-0.048,0.0755,-0.0212,-6.12,-42.06,-17.37,271.9,-88.48,-104
52.981316,-1.748838,235.26,17.26,4,22.88,21 / 22,1697312,2019-11-06 12:14:11:193,0.2652,-0.4303,9.5158,0.008,-0.0113,9.8066,-0.048,0.0755,-0.0212,-6.12,-42.06,-17.37,271.9,-88.48,-104
52.981316,-1.748838,235.26,17.26,4,22.88,21 / 22,1697412,2019-11-06 12:14:11:293,1.3119,0.7759,10.8269,-0.0471,0.0346,9.8065,-0.0511,-0.0824,0.0684,-5.31,-42.19,-17.37,260.59,-88.75,-112.87
52.981316,-1.748838,235.26,17.26,4,22.88,21 / 22,1697512,2019-11-06 12:14:11:393,1.3119,0.7759,10.8269,-0.0471,0.0346,9.8065,-0.0511,-0.0824,0.0684,-5.31,-42.19,-17.37,260.59,-88.75,-112.87
52.981316,-1.748838,235.26,17.26,4,22.88,21 / 22,1697613,2019-11-06 12:14:11:494,1.3119,0.7759,10.8269,-0.0471,0.0346,9.8065,-0.0511,-0.0824,0.0684,-5.31,-42.19,-17.37,260.59,-88.75,-112.87
52.981316,-1.748838,235.26,17.26,4,22.88,21 / 22,1697715,2019-11-06 12:14:11:596,1.3119,0.7759,10.8269,-0.0471,0.0346,9.8065,-0.0511,-0.0824,0.0684,-5.31,-42.19,-17.37,260.59,-88.75,-112.87
52.981316,-1.748838,235.26,17.26,4,22.88,21 / 22,1697812,2019-11-06 12:14:11:693,3.0514,-1.6173,9.9869,0.0066,-0.0017,9.8066,0.0544,-0.3608,0.1517,-6.19,-41.69,-16.37,264.62,-88.75,-112.87
52.981316,-1.748838,235.26,17.26,4,22.88,21 / 22,1697912,2019-11-06 12:14:11:793,3.0514,-1.6173,9.9869,0.0066,-0.0017,9.8066,0.0544,-0.3608,0.1517,-6.19,-41.69,-16.37,264.62,-88.75,-112.87
52.981316,-1.748838,235.26,17.26,4,22.88,21 / 22,1698014,2019-11-06 12:14:11:895,0.0717,1.1226,9.1636,-0.0309,-0.0522,9.8064,0.0721,-0.2478,0.0909,-5.12,-41.5,-17.19,276.39,-88.92,-97.5
52.981316,-1.748838,235.26,17.26,4,22.88,21 / 23,1698112,2019-11-06 12:14:11:993,-0.2576,1.2275,9.6188,-0.0131,0.0004,9.8066,-0.0001,0.0055,-0.032,-5.44,-42.56,-16.56,228.79,-89.2,-146.14
52.981316,-1.748838,235.26,17.26,4,22.88,21 / 23,1698215,2019-11-06 12:14:12:096,0.2515,-0.2421,9.7452,0.0247,-0.0207,9.8065,0.0119,0.028,0.0186,-5.37,-42.44,-17,213.35,-89.28,-162.11
52.981316,-1.748838,235.26,17.26,4,22.88,21 / 23,1698312,2019-11-06 12:14:12:193,1.1386,-1.3051,9.5537,0.0122,-0.0195,9.8065,0.0031,0.1136,-0.195,-5.44,-42.19,-16.94,225.23,-89.38,-150.12
52.981316,-1.748838,235.26,17.26,4,22.88,21 / 23,1698412,2019-11-06 12:14:12:293,1.4495,-0.5633,9.7499,-0.0288,0.0005,9.8065,-0.004,0.1634,-0.1813,-5.37,-42.12,-16.56,198,-89.45,-177.99
52.981316,-1.748838,235.26,17.26,4,22.88,20 / 21,1698512,2019-11-06 12:14:12:393,-0.7781,1.5483,10.71,-0.0032,0.0194,9.8066,-0.0916,0.2068,-0.0425,-5.31,-42.31,-16.69,200.25,-89.51,-175.73
52.981316,-1.748838,235.26,17.26,4,22.88,20 / 21,1698611,2019-11-06 12:14:12:492,0.1969,-0.4078,9.3022,-0.0086,0.0236,9.8066,-0.1358,-0.0365,-0.0898,-4.5,-42.37,-17.12,184.46,-89.41,171.33
52.981316,-1.748838,235.26,17.26,4,22.88,20 / 21,1698712,2019-11-06 12:14:12:593,4.4635,-0.0164,9.1141,-0.0818,0.0084,9.8063,-0.0209,-0.4138,0.4632,-5.44,-42.25,-16.44,157.99,-89.45,140.12
52.981316,-1.748838,235.26,17.26,4,22.88,20 / 21,1698812,2019-11-06 12:14:12:693,-2.6447,2.4726,10.8248,0.0875,-0.0413,9.8061,0.129,-0.5625,0.6049,-5.06,-42.37,-16.62,216.06,-89.45,-159.56
52.981316,-1.748838,235.26,17.26,4,22.88,20 / 21,1698912,2019-11-06 12:14:12:793,5.8861,0.9193,10.8755,-0.0397,-0.0142,9.8065,0.1904,-0.6809,0.228,-5.06,-42.56,-16.81,178.21,-89.39,161.77
52.981316,-1.748838,235.26,17.26,4,22.88,20 / 21,1699012,2019-11-06 12:14:12:893,-2.3425,0.0719,9.1514,-0.0111,0.0221,9.8066,0.1562,-0.4701,0.29,-5.25,-42.69,-16.94,202.1,-89.27,-173.63
52.981316,-1.748838,235.26,17.26,4,22.88,20 / 21,1699112,2019-11-06 12:14:12:993,-3.1044,2.5079,9.5336,-0.0677,-0.0065,9.8064,0.0574,-0.2233,0.0719,-5.81,-42,-16.56,199.46,-89.46,-179.57
52.981316,-1.748838,235.26,17.26,4,22.88,20 / 21,1699212,2019-11-06 12:14:13:093,-2.2885,-0.7602,8.8671,-0.0669,-0.0132,9.8064,-0.1149,0.0316,-0.0634,-5.37,-42.62,-17.31,207.5,-89.63,-168.48
52.981316,-1.748838,235.26,17.26,4,22.88,20 / 21,1699312,2019-11-06 12:14:13:193,-2.4047,0.9723,10.0277,-0.0454,-0.0148,9.8064,0.0384,0.3242,-0.1951,-5.06,-42.31,-17,177.16,-89.59,160.72
52.981316,-1.748838,235.26,17.26,4,22.88,20 / 21,1699412,2019-11-06 12:14:13:293,3.2701,0.6793,10.218,-0.0857,0.011,9.8063,0.0367,0.34,-0.3316,-4.75,-42.25,-16.81,167.35,-89.45,150.67
52.981316,-1.748838,235.26,17.26,4,22.88,21 / 21,1699511,2019-11-06 12:14:13:392,-0.7499,0.2697,9.9633,-0.0154,0.0064,9.8066,-0.0078,0.4656,-0.2393,-4.69,-42.06,-16.94,204.22,-89.48,-171.67
52.981316,-1.748838,235.26,17.26,4,22.88,21 / 21,1699612,2019-11-06 12:14:13:493,2.4156,1.8094,10.401,-0.0453,0.0329,9.8064,-0.0434,0.2663,-0.1942,-5.44,-41.94,-17.06,193.7,-89.32,177.69
52.981316,-1.748838,235.26,17.26,4,22.88,21 / 21,1699712,2019-11-06 12:14:13:593,-1.1418,0.4234,9.4882,0.0012,0.0013,9.8066,-0.0359,0.3018,-0.1074,-5.31,-42.06,-17.06,205.91,-89.23,-169.68
52.981316,-1.748838,235.26,17.26,4,22.88,21 / 21,1699812,2019-11-06 12:14:13:693,-0.5439,-0.2749,9.5013,-0.0154,0.0116,9.8066,-0.0011,0.2447,-0.1457,-4.69,-42.12,-17.31,198.04,-89.19,-177.76
52.981316,-1.748838,235.26,17.26,4,22.88,21 / 21,1699912,2019-11-06 12:14:13:793,-1.5266,0.3951,10.9695,0.0337,0.0013,9.8065,0.0112,0.055,-0.0102,-4.75,-42.31,-17.44,191.41,-89.26,175.36
52.981316,-1.748838,235.26,17.26,4,22.88,21 / 21,1700012,2019-11-06 12:14:13:893,0.697,0.2205,9.9724,0.0076,0.0048,9.8066,-0.0182,0.0998,-0.0945,-5.25,-41.94,-17.44,190.28,-89.2,174.23
52.981316,-1.748838,235.26,17.26,4,22.88,21 / 21,1700112,2019-11-06 12:14:13:993,2.3908,0.2678,10.6746,0.0376,-0.013,9.8066,-0.0708,-0.087,0.007,-5.5,-42.62,-17.06,205.82,-89.21,-169.73
52.981316,-1.748838,235.26,17.26,4,22.88,21 / 21,1700212,2019-11-06 12:14:14:093,0.6736,-1.43,9.2592,0.0077,-0.021,9.8066,-0.0157,-0.2228,0.1802,-5.44,-41.94,-17.06,201.18,-89.21,-174.54
52.981316,-1.748838,235.26,17.26,4,22.88,21 / 21,1700313,2019-11-06 12:14:14:194,2.4139,0.2431,9.6012,0.049,-0.055,9.8063,-0.0823,-0.2042,0.2323,-4.94,-41.62,-17.56,215.78,-89.51,-159.09
52.981316,-1.748838,235.26,17.26,4,22.88,21 / 21,1700412,2019-11-06 12:14:14:293,0.4757,0.1242,10.7122,0.0007,0.0097,9.8065,0.1577,-0.2655,0.0314,-5,-42.19,-16.75,179.46,-89.45,163.06
52.981316,-1.748838,235.26,17.26,4,22.88,21 / 23,1700512,2019-11-06 12:14:14:393,1.5025,0.6045,10.2634,0.0122,0.017,9.8066,0.0549,-0.2848,0.1541,-5.12,-42.06,-17.25,175.03,-89.55,158.54
52.981316,-1.748838,235.26,17.26,4,22.88,21 / 23,1700611,2019-11-06 12:14:14:492,-0.873,-0.8284,10.472,0.0473,0.0149,9.8064,-0.0309,-0.055,0.0197,-5.25,-41.94,-17.62,180.96,-89.34,165.46
52.981316,-1.748838,235.26,17.26,4,22.88,21 / 23,1700712,2019-11-06 12:14:14:593,0.7342,0.3259,9.9088,0.0005,-0.0119,9.8066,-0.0649,-0.107,0.0135,-5.62,-42.44,-16.69,184.87,-89.3,165.57
52.981316,-1.748838,235.26,17.26,4,22.88,21 / 23,1700812,2019-11-06 12:14:14:693,0.8967,0.4317,9.7054,0.0021,0.006,9.8066,0.1381,0.0464,-0.0513,-5.12,-42.5,-16.81,183.02,-89.35,166.71
52.981316,-1.748838,235.26,17.26,4,22.88,21 / 23,1700912,2019-11-06 12:14:14:793,-1.2117,0.996,10.0176,-0.0066,0.0202,9.8066,0.0727,0.0761,-0.087,-4.81,-42.87,-16.75,196.17,-89.56,-179.92
52.981316,-1.748838,235.26,17.26,4,22.88,21 / 23,1701012,2019-11-06 12:14:14:893,0.1226,0.1243,11.2125,-0.0088,0.0146,9.8066,0.0924,0.0282,-0.0755,-4.75,-41.81,-16.69,204.88,-89.43,-170.94
52.981316,-1.748838,235.26,17.26,4,22.88,21 / 23,1701112,2019-11-06 12:14:14:993,-0.7246,0.7873,9.7555,0.0078,0.0236,9.8066,0.0175,-0.0546,0.0457,-5.19,-42.06,-17,205.62,-89.23,-169.98
52.981316,-1.748838,235.26,17.26,4,22.88,21 / 23,1701212,2019-11-06 12:14:15:093,-0.078,0.4243,9.7591,-0.0048,0.0109,9.8066,-0.0276,-0.1257,0.054,-5,-42.44,-17.12,195.54,-89.18,179.68
52.981316,-1.748838,235.26,17.26,4,22.88,21 / 23,1701312,2019-11-06 12:14:15:193,1.5086,-2.338,10.0951,0.0195,-0.0043,9.8066,0.02,-0.1884,0.0971,-4.94,-42.62,-16.81,196.2,-89.14,-179.61
52.981316,-1.748838,235.26,17.26,4,22.88,21 / 23,1701411,2019-11-06 12:14:15:292,0.3004,-0.2862,9.9402,0.0013,0.0022,9.8066,0.0064,-0.2074,0.1713,-5.62,-42.44,-16.31,189.71,-89.11,169.52
52.981316,-1.748838,235.26,17.26,4,22.88,21 / 23,1701512,2019-11-06 12:14:15:393,0.806,-0.7485,10.4755,0.0156,-0.0044,9.8066,0.0086,-0.1101,0.0985,-5.19,-41.69,-16.56,173.3,-89.04,156.65
52.981316,-1.748838,235.26,17.26,4,22.88,21 / 23,1701612,2019-11-06 12:14:15:493,0.9705,-1.2297,9.0817,0.0199,0.0116,9.8065,-0.046,-0.1912,0.0202,-5.69,-42.37,-16.56,181.42,-89.09,162.03
52.981316,-1.748838,235.26,17.26,4,22.88,21 / 23,1701711,2019-11-06 12:14:15:592,0.4819,-0.1273,10.6927,0.0382,-0.0436,9.8064,-0.0624,-0.0813,0.1416,-5.31,-41.75,-17.37,192.65,-89.33,176.6
52.981316,-1.748838,235.26,17.26,4,22.88,21 / 23,1701812,2019-11-06 12:14:15:693,-0.5423,0.3226,8.3541,0.01,0.003,9.8066,0.0347,-0.1753,0.0524,-5.25,-42.69,-17.75,185.95,-89.37,170.58
52.981316,-1.748838,235.26,17.26,4,22.88,21 / 23,1701912,2019-11-06 12:14:15:793,-0.1231,-0.487,9.5194,0.0089,0.0166,9.8066,0.0603,-0.1036,-0.064,-5.31,-42.94,-16.87,203.61,-89.49,-172.29
52.981316,-1.748838,235.26,17.26,4,22.88,21 / 23,1702012,2019-11-06 12:14:15:893,0.6959,1.4908,10.8079,0.0029,0.0022,9.8066,0.037,-0.1028,0.0559,-5.25,-42.31,-17.06,184.09,-89.47,167.79
52.981316,-1.748838,235.26,17.26,4,22.88,21 / 23,1702111,2019-11-06 12:14:15:992,-0.3767,1.19,10.3874,0.0179,-0.0175,9.8066,-0.0071,-0.111,0.0128,-4.81,-43.19,-16.75,163.33,-89.23,146.41
52.981316,-1.748838,235.26,17.26,4,22.88,21 / 23,1702212,2019-11-06 12:14:16:093,0.758,1.5242,9.5553,-0.0221,0.0162,9.8065,-0.1208,-0.1261,0.4041,-4.87,-42.62,-17.19,154.91,-89.08,137.58
52.981316,-1.748838,235.26,17.26,4,22.88,21 / 23,1702312,2019-11-06 12:14:16:193,-1.0832,0.2528,9.3625,-0.0263,-0.0001,9.8066,-0.1367,-0.1273,0.1098,-5,-42.69,-16.94,145.52,-89.35,128.24
52.981316,-1.748838,235.26,17.26,4,22.88,21 / 23,1702411,2019-11-06 12:14:16:292,-0.5261,0.9533,9.1512,0.0041,0.0058,9.8066,0.1566,-0.087,-0.0361,-4.81,-42.56,-16.56,127.07,-89.58,109.87
52.981316,-1.748838,235.26,17.26,4,22.88,21 / 23,1702512,2019-11-06 12:14:16:393,1.0663,-0.4273,9.4073,0.0443,0.0079,9.8065,0.2062,-0.2511,0.0797,-4.44,-42.19,-17.37,122.56,-89.5,108.31
52.981316,-1.748838,235.26,17.26,4,22.88,21 / 23,1702612,2019-11-06 12:14:16:493,1.9519,-0.007,9.3493,-0.0345,-0.0019,9.8065,-0.0515,-0.3181,0.3045,-5.25,-42.25,-17.19,121.87,-89.27,104.01
52.981316,-1.748838,235.26,17.26,4,22.88,21 / 23,1702712,2019-11-06 12:14:16:593,-1.1822,0.4784,10.5755,0.0321,-0.0009,9.8066,-0.0788,-0.2311,0.1764,-4.69,-42.56,-17.12,145.32,-89.6,128.37
52.981316,-1.748838,235.26,17.26,4,22.88,21 / 23,1702811,2019-11-06 12:14:16:692,-1.2815,-0.7005,10.1578,-0.0021,0.0169,9.8066,-0.0334,0.1252,0.0411,-4.56,-42.06,-16.94,149.02,-89.57,132.1
52.981316,-1.748838,235.26,17.26,4,22.88,21 / 23,1702912,2019-11-06 12:14:16:793,0.8371,-0.6835,8.9429,-0.0031,-0.0196,9.8066,-0.0183,0.3276,-0.1927,-5.19,-42.44,-17.31,145.63,-89.75,128.91
52.981316,-1.748838,235.26,17.26,4,22.88,21 / 23,1703012,2019-11-06 12:14:16:893,-0.5543,-1.6102,10.2043,0.0448,-0.015,9.8065,-0.0963,0.2677,-0.2139,-4.5,-42.31,-17.69,140.76,-89.75,127.87
52.981316,-1.748838,235.26,17.26,4,22.88,21 / 23,1703112,2019-11-06 12:14:16:993,1.409,-1.0679,9.7963,0.0153,0.0113,9.8066,-0.0351,0.3442,-0.1274,-4.87,-42.19,-16.94,120.19,-89.5,102.78
52.981316,-1.748838,235.26,17.26,4,22.88,21 / 23,1703212,2019-11-06 12:14:17:093,-2.1202,0.7513,10.1064,0.0301,-0.0056,9.8065,0.0631,0.3404,-0.1537,-4.94,-42.5,-17.81,128.48,-89.56,112.18
52.981316,-1.748838,235.26,17.26,4,22.88,21 / 23,1703312,2019-11-06 12:14:17:193,3.5223,0.0251,9.2668,-0.0343,-0.0021,9.8065,-0.1319,0.2137,0.0142,-4.81,-41.81,-17,127.58,-89.45,110.15
52.981316,-1.748838,235.26,17.26,4,22.88,21 / 23,1703412,2019-11-06 12:14:17:293,-2.9058,-1.1368,10.1274,0.0523,-0.0022,9.8065,-0.2046,0.1085,-0.0787,-4.56,-42.75,-17.19,221.47,-89.83,-154.64
52.98285,-1.747856,234.71,22.72,6,18.92,21 / 23,1703512,2019-11-06 12:14:17:393,1.4467,-1.4889,8.0522,-0.0336,0.0521,9.8064,0.223,0.2008,-0.1597,-4.31,-42.31,-16.5,295.32,-89.72,-78.06
52.98285,-1.747856,234.71,22.72,6,18.92,21 / 23,1703612,2019-11-06 12:14:17:493,-1.0209,-0.0986,8.5393,0.0225,0.0435,9.8065,0.2227,-0.0631,-0.2198,-5,-42.12,-17.12,203.85,-89.72,-172.27
52.98285,-1.747856,234.71,22.72,6,18.92,21 / 23,1703713,2019-11-06 12:14:17:594,0.8896,1.3299,11.6939,-0.0005,-0.0035,9.8066,-0.132,-0.0519,0.2222,-5,-43,-16.81,294.97,-89.93,-81.25
52.98285,-1.747856,234.71,22.72,6,18.92,21 / 23,1703812,2019-11-06 12:14:17:693,1.2269,-0.9683,9.339,0.0558,-0.0274,9.8064,-0.1381,-0.1525,0.2322,-4.81,-42.37,-16.75,151.42,-89.84,134.85
52.98285,-1.747856,234.71,22.72,6,18.92,21 / 23,1703912,2019-11-06 12:14:17:793,0.3013,-0.5644,9.8241,0.0053,0.0021,9.8066,0.0526,-0.0998,0.0228,-5.62,-42.19,-16.56,239.8,-89.75,-139.15
52.98285,-1.747856,234.71,22.72,6,18.92,21 / 23,1704012,2019-11-06 12:14:17:893,0.2095,-1.5868,9.2149,0.0268,0.0064,9.8066,0.128,-0.0962,0.1223,-5.56,-42.31,-17.25,269.8,-89.48,-108.43
52.98285,-1.747856,234.71,22.72,6,18.92,21 / 23,1704112,2019-11-06 12:14:17:993,-0.9447,0.4134,10.9132,0.0204,-0.024,9.8066,-0.0667,-0.1976,0.1108,-4.81,-41.81,-16.75,282.31,-89.45,-92.82
52.98285,-1.747856,234.71,22.72,6,18.92,21 / 23,1704212,2019-11-06 12:14:18:093,0.8473,-0.99,11.0375,0.0086,-0.0055,9.8066,-0.0242,-0.0457,0.1143,-5.56,-42.25,-17,269.57,-89.42,-108.53
52.98285,-1.747856,234.71,22.72,6,18.92,21 / 23,1704312,2019-11-06 12:14:18:193,-0.6956,0.8884,10.7457,-0.0029,-0.0149,9.8066,-0.0444,-0.0081,-0.0389,-5.62,-42.5,-17.44,265.05,-89.47,-113.17
52.98285,-1.747856,234.71,22.72,6,18.92,21 / 23,1704412,2019-11-06 12:14:18:293,-0.1305,-0.7823,8.8997,-0.0231,-0.0159,9.8065,-0.1477,0.1383,-0.016,-5.81,-41.75,-17.37,243.32,-89.42,-134.92
52.98285,-1.747856,234.71,22.72,6,18.92,21 / 22,1704512,2019-11-06 12:14:18:393,0.1935,0.2884,10.1841,-0.0113,-0.0174,9.8066,-0.0896,0.0721,-0.1056,-5,-42.25,-17.44,225.07,-89.62,-150.68
52.98285,-1.747856,234.71,22.72,6,18.92,21 / 22,1704613,2019-11-06 12:14:18:494,2.2972,-1.5801,9.5559,-0.0384,0.0075,9.8065,-0.0564,0.1764,-0.1427,-5.06,-42.06,-17.12,195.64,-89.58,179.52
52.98285,-1.747856,234.71,22.72,6,18.92,21 / 22,1704711,2019-11-06 12:14:18:592,-2.6263,0.2156,9.9589,0.0193,0.007,9.8066,-0.0498,0.3281,-0.1485,-4.75,-42.37,-18,211.83,-89.49,-163.09
52.98285,-1.747856,234.71,22.72,6,18.92,21 / 22,1704812,2019-11-06 12:14:18:693,0.2509,-0.5678,10.3978,-0.029,-0.0001,9.8065,-0.0653,0.3023,-0.1364,-4.69,-42.25,-18.19,218.09,-89.36,-156.55
52.98285,-1.747856,234.71,22.72,6,18.92,21 / 22,1704912,2019-11-06 12:14:18:793,1.3865,-0.7467,10.7756,0.0044,0.0056,9.8066,-0.0053,0.2354,-0.1254,-3,-41.37,-16.06,214.91,-89.2,-154.55
52.98285,-1.747856,234.71,22.72,6,18.92,21 / 22,1705012,2019-11-06 12:14:18:893,1.8787,-1.2349,10.2974,-0.0382,-0.0015,9.8065,-0.08,0.2532,-0.1422,-6.81,-40.62,-14.75,224.92,-89.15,-158.62
52.98285,-1.747856,234.71,22.72,6,18.92,21 / 22,1705112,2019-11-06 12:14:18:993,0.2974,-0.8154,8.7188,-0.0154,0.0011,9.8066,-0.0751,0.1361,-0.0541,-6.12,-41.81,-18.25,224,-89.09,-153.04
52.98285,-1.747856,234.71,22.72,6,18.92,21 / 22,1705211,2019-11-06 12:14:19:092,-1.9355,-0.0082,9.7229,-0.0078,0.0132,9.8066,0.0438,0.002,0.0485,-5.37,-41.75,-17.37,225.79,-89.13,-149.13
52.98285,-1.747856,234.71,22.72,6,18.92,21 / 22,1705312,2019-11-06 12:14:19:193,0.0269,-0.9857,9.515,-0.0285,0.0013,9.8065,-0.0297,-0.1314,0.0234,-5.75,-42.25,-17.81,224.4,-89.15,-152.73
52.98285,-1.747856,234.71,22.72,6,18.92,21 / 22,1705412,2019-11-06 12:14:19:293,-2.4403,-0.0926,10.5222,0.0236,-0.0167,9.8065,-0.0073,-0.154,0.1114,-5.37,-41.81,-17.06,235.72,-88.97,-138.65
52.98285,-1.747856,234.71,22.72,6,18.92,21 / 22,1705512,2019-11-06 12:14:19:393,1.1849,-0.7719,10.3128,-0.0079,0.0222,9.8066,-0.0666,-0.2303,0.273,-5.75,-41.94,-17.25,235.37,-88.91,-141.98
52.98285,-1.747856,234.71,22.72,6,18.92,21 / 22,1705612,2019-11-06 12:14:19:493,-0.3663,0.4391,10.3197,0.0118,-0.0098,9.8066,-0.0757,-0.2154,0.1697,-5.44,-41.69,-17.19,244.27,-88.78,-129.51
52.98285,-1.747856,234.71,22.72,6,18.92,21 / 22,1705712,2019-11-06 12:14:19:593,1.8611,-0.9578,11.7997,0.0098,0.0059,9.8066,0.0404,-0.1888,0.1033,-6,-41.94,-17.31,250.32,-88.81,-126.53
52.98285,-1.747856,234.71,22.72,6,18.92,21 / 22,1705812,2019-11-06 12:14:19:693,-2.9856,-0.5498,10.0765,0.0096,0.0449,9.8065,0.0813,-0.0919,0.1937,-5.81,-41.56,-18.44,250.61,-89.08,-125.91
52.98285,-1.747856,234.71,22.72,6,18.92,21 / 22,1705912,2019-11-06 12:14:19:793,-0.5575,1.0271,11.1724,-0.044,0.0182,9.8065,0.211,-0.3201,0.0136,-4.75,-41.37,-16.44,232.03,-88.9,-143.2
52.98285,-1.747856,234.71,22.72,6,18.92,21 / 22,1706012,2019-11-06 12:14:19:893,2.6106,-0.2406,10.6112,0.0585,0.0058,9.8064,0.0672,-0.2068,0.0056,-5.44,-42.31,-16.94,233,-88.52,-140.59
52.98285,-1.747856,234.71,22.72,6,18.92,21 / 22,1706112,2019-11-06 12:14:19:993,-0.6467,-0.3882,9.5322,0.0133,-0.0309,9.8065,0.0542,0.0782,0.0101,-6,-42.5,-16.75,237.36,-88.69,-139.51
52.98285,-1.747856,234.71,22.72,6,18.92,21 / 22,1706212,2019-11-06 12:14:20:093,1.2267,-1.5572,8.674,0.0142,-0.0248,9.8066,0.0387,0.0184,-0.1016,-5.56,-42.31,-16.87,250.1,-88.7,-126.5
52.98285,-1.747856,234.71,22.72,6,18.92,21 / 22,1706312,2019-11-06 12:14:20:193,0.0888,-0.561,9.4435,-0.0065,-0.0091,9.8066,0.0844,-0.0622,0.0383,-5.5,-42.25,-17,242.31,-88.83,-131.62
52.98285,-1.747856,234.71,22.72,6,18.92,21 / 22,1706412,2019-11-06 12:14:20:293,-0.1644,-0.7726,10.4435,-0.0162,0.0103,9.8066,-0.1037,-0.0255,0.0056,-5.69,-42.06,-16.69,237.73,-88.83,-139.4
52.98285,-1.747856,234.71,22.72,6,18.92,21 / 22,1706512,2019-11-06 12:14:20:393,1.4946,-2.2329,9.8554,-0.027,0.0232,9.8066,-0.0001,-0.2384,0.093,-5.75,-42.25,-16.81,226.72,-89.02,-151.07
52.98285,-1.747856,234.71,22.72,6,18.92,21 / 22,1706612,2019-11-06 12:14:20:493,0.3422,-0.3195,11.2328,-0.0129,0.0097,9.8066,0.1391,-0.2042,0.1881,-5.25,-42.31,-16.81,218.4,-89.1,-156.67
52.98285,-1.747856,234.71,22.72,6,18.92,21 / 22,1706712,2019-11-06 12:14:20:593,1.0596,-0.7255,10.5935,-0.0361,0.0034,9.8065,0.108,-0.2342,0.0379,-5.25,-42.5,-16.75,215.69,-88.97,-159.28
52.98285,-1.747856,234.71,22.72,6,18.92,21 / 22,1706812,2019-11-06 12:14:20:693,-0.4715,0.4816,9.9436,0.0024,0.0011,9.8066,-0.0034,0.0204,-0.0421,-5.12,-42.31,-16.75,207.04,-88.76,-168.03
52.98285,-1.747856,234.71,22.72,6,18.92,21 / 22,1706912,2019-11-06 12:14:20:793,0.444,-0.1449,8.9274,-0.022,-0.0034,9.8066,-0.069,0.0138,-0.0429,-4.5,-41.94,-17.44,194.21,-88.89,-178.37
52.98285,-1.747856,234.71,22.72,6,18.92,21 / 22,1707012,2019-11-06 12:14:20:893,-2.2289,-0.119,10.0785,0.012,-0.0145,9.8066,-0.0639,0.0172,0.0237,-4.69,-42.56,-17,191.12,-89.22,175.1
52.98285,-1.747856,234.71,22.72,6,18.92,21 / 22,1707112,2019-11-06 12:14:20:993,-2.238,-0.3903,8.7703,-0.0062,0.0088,9.8066,-0.0947,0.1286,-0.028,-4.56,-41.81,-16.81,187.11,-89.26,170.93
52.98285,-1.747856,234.71,22.72,6,18.92,21 / 22,1707212,2019-11-06 12:14:21:093,-0.5448,-0.708,9.7151,-0.0004,0.0252,9.8066,-0.0972,0.0164,0.0654,-5.12,-42,-17.69,190.45,-89.09,175.3
52.98285,-1.747856,234.71,22.72,6,18.92,21 / 22,1707312,2019-11-06 12:14:21:193,-0.2985,0.7933,11.4982,-0.005,0.0297,9.8065,-0.0905,0.0077,0.0973,-4.94,-42.5,-16.5,192.87,-89.01,176.06
52.98285,-1.747856,234.71,22.72,6,18.92,21 / 22,1707412,2019-11-06 12:14:21:293,0.7525,0.2183,9.3018,-0.0062,0.0216,9.8066,0.1103,0.0597,-0.0505,-4.75,-42.62,-16.81,194.21,-88.98,178.43
52.98285,-1.747856,234.71,22.72,6,18.92,20 / 21,1707512,2019-11-06 12:14:21:393,-1.6587,-0.6127,9.4234,0.0096,-0.01,9.8066,0.0675,-0.0386,-0.0256,-4.87,-42.87,-17.19,189.71,-88.78,173.82
52.98285,-1.747856,234.71,22.72,6,18.92,20 / 21,1707612,2019-11-06 12:14:21:493,0.0641,0.7606,9.6421,-0.0122,0.009,9.8066,-0.1071,0.0099,0.1177,-5,-42,-16.69,182.46,-88.75,166.2
52.98285,-1.747856,234.71,22.72,6,18.92,20 / 21,1707712,2019-11-06 12:14:21:593,-1.157,-0.0826,10.3816,0.004,0.0038,9.8066,-0.1129,-0.0198,0.0775,-4.06,-42.87,-16.25,183.65,-88.81,169.81
52.98285,-1.747856,234.71,22.72,6,18.92,20 / 21,1707812,2019-11-06 12:14:21:693,-0.2183,0.837,10.227,-0.0159,0.029,9.8066,-0.0522,0.0753,0.0701,-4.12,-42.69,-16.81,178.34,-88.53,164.99
52.98285,-1.747856,234.71,22.72,6,18.92,20 / 21,1707912,2019-11-06 12:14:21:793,-2.4613,-0.6677,10.6444,0.0297,0.0039,9.8066,0.0482,0.0787,-0.0617,-3.94,-42.56,-16.31,182.99,-88.36,169.17
52.98285,-1.747856,234.71,22.72,6,18.92,20 / 21,1708012,2019-11-06 12:14:21:893,0.7403,1.86,9.2036,0.0164,-0.0188,9.8066,-0.0028,0.2805,-0.0525,-4,-42.44,-16.44,178.09,-88.29,163.91
52.98285,-1.747856,234.71,22.72,6,18.92,20 / 21,1708112,2019-11-06 12:14:21:993,0.3337,0.8206,8.7227,0.0596,-0.0355,9.8064,0.0652,0.3333,-0.152,-4.12,-42.87,-17.12,187.58,-88.6,174.79
52.98285,-1.747856,234.71,22.72,6,18.92,20 / 21,1708212,2019-11-06 12:14:22:093,0.1772,0.2301,9.738,0.0391,-0.0313,9.8065,0.0278,0.0238,-0.0195,-4.5,-42.87,-16.62,202.26,-88.98,-170.04
52.98285,-1.747856,234.71,22.72,6,18.92,20 / 21,1708311,2019-11-06 12:14:22:192,-2.8572,1.4731,9.2654,0.0412,-0.013,9.8065,0.0491,0.1248,-0.0063,-3.94,-42.19,-16.94,213.87,-88.99,-158.03
52.98285,-1.747856,234.71,22.72,6,18.92,20 / 21,1708412,2019-11-06 12:14:22:293,0.1548,0.391,10.2312,0.0096,0.0114,9.8066,0.0625,-0.0343,0.0364,-4.44,-42.37,-16.75,216.69,-88.87,-154.93
52.98285,-1.747856,234.71,22.72,6,18.92,21 / 22,1708512,2019-11-06 12:14:22:393,-1.8749,1.8242,10.3686,0.04,0.0177,9.8065,0.0531,-0.2554,0.0469,-4.75,-42.56,-17.06,211.87,-88.74,-162.91
52.98285,-1.747856,234.71,22.72,6,18.92,21 / 22,1708612,2019-11-06 12:14:22:493,0.0558,1.0441,10.5888,-0.0382,0.0013,9.8065,0.0856,-0.1714,0.191,-4.12,-42.31,-16.94,198.17,-88.68,-174.09
52.98285,-1.747856,234.71,22.72,6,18.92,21 / 22,1708713,2019-11-06 12:14:22:594,-1.2011,0.929,9.9861,0.0384,-0.0015,9.8065,0.0035,-0.1415,0.2523,-4.44,-42.56,-17.12,198.79,-88.65,-173.39
52.98285,-1.747856,234.71,22.72,6,18.92,21 / 22,1708812,2019-11-06 12:14:22:693,0.4799,-0.7127,9.5569,0.0011,-0.0108,9.8066,-0.0664,-0.2166,0.0325,-4.37,-42.75,-16.87,197.86,-88.57,-174.31
52.98285,-1.747856,234.71,22.72,6,18.92,21 / 22,1708912,2019-11-06 12:14:22:793,1.9926,-0.0271,9.6175,-0.0181,-0.0018,9.8066,0.0995,-0.1065,0.0497,-4.31,-42.44,-17,200.2,-88.5,-171.8
52.98285,-1.747856,234.71,22.72,6,18.92,21 / 22,1709012,2019-11-06 12:14:22:893,1.3526,0.5201,9.6819,-0.0273,0.0208,9.8065,0.0509,-0.0285,-0.0346,-4.5,-42.75,-16.75,195.09,-88.41,-177.13
52.98285,-1.747856,234.71,22.72,6,18.92,21 / 22,1709113,2019-11-06 12:14:22:994,-1.1935,0.4381,10.3055,-0.0239,-0.0047,9.8066,-0.0808,-0.0186,0.1653,-4.19,-42.31,-16.87,197.38,-88.52,-174.8
52.98285,-1.747856,234.71,22.72,6,18.92,21 / 22,1709212,2019-11-06 12:14:23:093,-0.3712,0.4254,9.4841,-0.0087,-0.0136,9.8066,-0.035,0.0454,0.0854,-5,-43,-16.44,210.03,-88.5,-165.41
52.98285,-1.747856,234.71,22.72,6,18.92,21 / 22,1709312,2019-11-06 12:14:23:193,0.8016,-0.6107,10.3296,0.0082,-0.0143,9.8066,-0.0625,0.0103,0.0234,-4.44,-42.5,-17.12,211.69,-88.61,-159.81
52.98285,-1.747856,234.71,22.72,6,18.92,21 / 22,1709412,2019-11-06 12:14:23:293,-0.4639,0.5425,10.299,-0.0057,0.0049,9.8066,-0.0753,0.1418,-0.0903,-4.31,-42.75,-16.5,209.63,-88.55,-162.55
52.98285,-1.747856,234.71,22.72,6,18.92,21 / 22,1709512,2019-11-06 12:14:23:393,-0.193,-0.2327,9.869,-0.02,0.0074,9.8066,0.0915,-0.0345,-0.0523,-3.62,-42.62,-16.5,201.47,-88.46,-171.1
52.98285,-1.747856,234.71,22.72,6,18.92,21 / 22,1709612,2019-11-06 12:14:23:493,0.4923,-0.256,8.7967,-0.0349,0.0206,9.8065,-0.001,0.0783,-0.067,-4.12,-42.56,-16.75,188.24,-88.36,175.57
52.98285,-1.747856,234.71,22.72,6,18.92,21 / 22,1709711,2019-11-06 12:14:23:592,0.2952,0.0538,10.2996,-0.0191,-0.0075,9.8066,-0.0996,0.1071,-0.0365,-4.06,-43.31,-17.19,187.53,-88.51,174.77
52.98285,-1.747856,234.71,22.72,6,18.92,21 / 22,1709812,2019-11-06 12:14:23:693,-0.2612,-0.1163,8.7303,0.0052,-0.0008,9.8066,-0.1236,0.0064,0.0227,-4.37,-42.06,-17.31,188.47,-88.55,175.74
52.98285,-1.747856,234.71,22.72,6,18.92,21 / 22,1709912,2019-11-06 12:14:23:793,0.2108,-2.1521,9.2469,0.0233,-0.0181,9.8066,0.0001,-0.0542,0.081,-4,-42.87,-17.19,193.36,-88.58,-179.08
52.98285,-1.747856,234.71,22.72,6,18.92,21 / 22,1710012,2019-11-06 12:14:23:893,-0.8427,1.1729,11.1569,0.0055,-0.0138,9.8066,0.0461,0.0626,-0.0694,-3.94,-42.94,-16.81,191.34,-88.48,178.84
52.98285,-1.747856,234.71,22.72,6,18.92,21 / 22,1710112,2019-11-06 12:14:23:993,-0.1524,0.0573,9.2917,-0.0266,0.0194,9.8066,0.0652,-0.03,-0.0184,-3.87,-42.75,-16.5,187.21,-88.34,173.71
52.98285,-1.747856,234.71,22.72,6,18.92,21 / 22,1710212,2019-11-06 12:14:24:093,-1.0647,-0.9791,9.2173,0.0099,0.017,9.8066,-0.0249,-0.0577,0.134,-4.25,-42.5,-16.75,188.18,-88.4,175.49
52.98285,-1.747856,234.71,22.72,6,18.92,21 / 22,1710312,2019-11-06 12:14:24:193,-0.9429,1.1315,9.6205,0.0222,-0.023,9.8066,-0.1134,-0.08,0.1248,-4.06,-42.75,-16.94,189.13,-88.49,176.47
52.98285,-1.747856,234.71,22.72,6,18.92,21 / 22,1710412,2019-11-06 12:14:24:293,0.2942,-0.5167,9.9233,0.0085,-0.019,9.8066,-0.0183,-0.006,0.0862,-3.69,-42.37,-17.44,188.01,-88.37,175.31
52.98285,-1.747856,234.71,22.72,6,18.92,22 / 22,1710512,2019-11-06 12:14:24:393,0.3885,-0.5071,9.8,-0.0114,0.0073,9.8066,0.0372,0.1208,-0.1145,-4.19,-42.44,-16.69,185.51,-88.36,172.65
52.98285,-1.747856,234.71,22.72,6,18.92,22 / 22,1710612,2019-11-06 12:14:24:493,-0.256,-1.6909,9.9515,-0.0047,0.019,9.8066,0.0038,-0.0935,-0.0466,-4.12,-42.62,-16.75,188.99,-88.18,176.44
52.98285,-1.747856,234.71,22.72,6,18.92,22 / 22,1710711,2019-11-06 12:14:24:592,-1.1892,0.9772,9.9103,0.0278,-0.0172,9.8066,-0.1305,-0.0092,0.0754,-4.31,-42.69,-16.94,195.39,-88.2,-176.68
52.98285,-1.747856,234.71,22.72,6,18.92,22 / 22,1710812,2019-11-06 12:14:24:693,-0.4471,-1.0463,9.47,-0.004,-0.028,9.8066,-0.1114,0.0669,0.0569,-3.81,-42.12,-17.19,192.29,-88.32,179.9
52.98285,-1.747856,234.71,22.72,6,18.92,22 / 22,1710912,2019-11-06 12:14:24:793,-0.8836,-2.5322,9.8354,-0.0079,0.0077,9.8066,0.0217,0.0581,0.0199,-3.69,-42.19,-17.5,189.11,-88.12,176.58
52.98285,-1.747856,234.71,22.72,6,18.92,22 / 22,1711012,2019-11-06 12:14:24:893,-0.4544,0.9559,10.2999,0.002,0.0006,9.8066,0.0336,0.0951,0.0272,-3.44,-42.56,-16.25,184,-88.02,173.74
52.98285,-1.747856,234.71,22.72,6,18.92,22 / 22,1711112,2019-11-06 12:14:24:993,-1.1483,-1.6459,9.4867,-0.0251,0.0116,9.8066,0.1695,-0.0301,-0.1316,-3.31,-42.69,-17,180.99,-88.08,171.06
52.98285,-1.747856,234.71,22.72,6,18.92,22 / 22,1711212,2019-11-06 12:14:25:093,-0.5366,-0.0178,10.369,-0.0057,0.0197,9.8065,0.0459,0.0354,0.0117,-2.87,-42.81,-17.06,176.72,-88.02,166.43
52.98285,-1.747856,234.71,22.72,6,18.92,22 / 22,1711312,2019-11-06 12:14:25:193,1.1981,-2.2197,9.6908,-0.0311,-0.0044,9.8065,-0.06,-0.0225,0.0363,-3.06,-42.37,-17.19,169,-87.95,158.05
52.98285,-1.747856,234.71,22.72,6,18.92,22 / 22,1711413,2019-11-06 12:14:25:294,-1.815,-0.5823,10.4498,0.0189,0.0053,9.8066,0.0182,-0.0657,0.1037,-2.56,-43.12,-17.31,170.26,-87.9,159.37
52.98285,-1.747856,234.71,22.72,6,18.92,21 / 21,1711512,2019-11-06 12:14:25:393,0.9747,-0.5934,10.4935,-0.0061,0.0104,9.8066,0.0506,-0.1272,0.1919,-3.5,-42.87,-16.75,171.78,-87.87,161.02
52.98285,-1.747856,234.71,22.72,6,18.92,21 / 21,1711612,2019-11-06 12:14:25:493,-1.496,-0.1796,10.0031,0.0036,-0.0028,9.8066,0.0226,-0.067,0.0483,-3.12,-42.56,-16.94,175.98,-87.92,165.61
52.98285,-1.747856,234.71,22.72,6,18.92,21 / 21,1711712,2019-11-06 12:14:25:593,0.1831,0.68,8.9166,-0.0344,0.0093,9.8065,0.1013,-0.2604,0.0868,-3.37,-42.62,-16.69,174.36,-88.05,163.88
52.98285,-1.747856,234.71,22.72,6,18.92,21 / 21,1711812,2019-11-06 12:14:25:693,-3.1938,1.4242,9.615,0.0283,-0.0143,9.8065,0.0239,-0.2333,0.1205,-3.5,-42.44,-17.5,176.4,-88.29,166.13
52.98285,-1.747856,234.71,22.72,6,18.92,21 / 21,1711912,2019-11-06 12:14:25:793,-0.0472,-1.1018,9.6673,-0.0035,0.0031,9.8066,-0.0762,-0.0586,0.1329,-2.62,-42.19,-16.69,170.21,-88.25,159.48
52.98285,-1.747856,234.71,22.72,6,18.92,21 / 21,1712012,2019-11-06 12:14:25:893,0.3484,0.8465,10.5258,0.0028,0.0157,9.8066,0.0472,-0.027,-0.0006,-3.06,-42.94,-17.31,169.63,-88.3,158.86
52.98285,-1.747856,234.71,22.72,6,18.92,21 / 21,1712112,2019-11-06 12:14:25:993,-0.8784,1.6805,9.3752,0.036,-0.0021,9.8066,0.0007,0.1847,-0.0544,-3.25,-42.62,-17.69,175.21,-88.44,165.44
52.98285,-1.747856,234.71,22.72,6,18.92,21 / 21,1712212,2019-11-06 12:14:26:093,0.8464,-0.2288,10.1573,0.0469,-0.0222,9.8064,0.0026,-0.1345,-0.0263,-3.31,-42.5,-17.25,181.76,-88.59,171.86
52.98285,-1.747856,234.71,22.72,6,18.92,21 / 21,1712312,2019-11-06 12:14:26:193,-3.0097,0.8966,9.8258,0.0701,-0.0093,9.8064,-0.0807,0.2777,-0.0564,-3.5,-42.44,-17.44,195.1,-88.71,-174.09
52.98285,-1.747856,234.71,22.72,6,18.92,21 / 21,1712411,2019-11-06 12:14:26:292,1.3567,-0.1298,9.831,-0.0447,-0.0252,9.8064,-0.0775,0.3278,-0.0341,-3.25,-42.69,-17,180.17,-88.82,170.17
52.984592,-1.746994,233.86,22.91,4,10.28,23 / 24,1712512,2019-11-06 12:14:26:393,-2.3853,0.0271,9.228,-0.0274,0.0097,9.8065,-0.0762,0.1273,-0.1702,-2.81,-42.69,-17.12,177.32,-88.79,167.17
52.984592,-1.746994,233.86,22.91,4,10.28,23 / 24,1712612,2019-11-06 12:14:26:493,-0.3744,-0.1427,9.367,-0.0188,-0.0034,9.8066,0.0828,0.2058,-0.0631,-3.5,-42.37,-17.06,164.23,-88.93,153.52
52.984592,-1.746994,233.86,22.91,4,10.28,23 / 24,1712712,2019-11-06 12:14:26:593,-1.9531,0.9414,9.5898,0.0193,-0.0136,9.8066,0.06,0.1324,-0.0994,-2.62,-42.69,-17.69,167.55,-88.95,157.56
52.984592,-1.746994,233.86,22.91,4,10.28,23 / 24,1712812,2019-11-06 12:14:26:693,-2.5395,0.6151,9.7327,-0.0021,-0.0311,9.8065,-0.0513,-0.2499,0.244,-2.87,-42.69,-17.5,174.07,-88.82,163.76
52.984592,-1.746994,233.86,22.91,4,10.28,23 / 24,1712912,2019-11-06 12:14:26:793,-1.2459,0.3656,9.9812,-0.0391,0.0281,9.8065,-0.1639,-0.1962,0.2782,-3.44,-42.19,-17.75,172.04,-88.76,162.18
52.984592,-1.746994,233.86,22.91,4,10.28,23 / 24,1713012,2019-11-06 12:14:26:893,0.3939,-0.7694,10.1584,-0.0324,0.0128,9.8066,-0.065,-0.1021,0.1111,-2.94,-42.19,-17.56,175.22,-88.87,165.54
52.984592,-1.746994,233.86,22.91,4,10.28,23 / 24,1713112,2019-11-06 12:14:26:993,2.062,1.3524,10.3475,-0.0286,-0.0175,9.8065,0.1078,-0.2772,0.0098,-2.81,-43.12,-17.31,179.27,-89.15,169.24
52.984592,-1.746994,233.86,22.91,4,10.28,23 / 24,1713212,2019-11-06 12:14:27:093,0.2736,-0.3813,9.7454,-0.007,-0.0053,9.8066,0.0432,-0.0504,0.0258,-3,-42.75,-17.5,171.54,-89.09,161.19
52.984592,-1.746994,233.86,22.91,4,10.28,23 / 24,1713312,2019-11-06 12:14:27:193,0.7152,-0.3488,10.229,-0.0178,0.001,9.8066,-0.0221,-0.0836,0.0001,-2.62,-42.19,-17.44,161.54,-89.08,150.82
52.984592,-1.746994,233.86,22.91,4,10.28,23 / 24,1713412,2019-11-06 12:14:27:293,-1.0876,-0.1298,9.0036,0.015,0.0116,9.8066,0.1305,-0.0556,0.0351,-2.81,-42.69,-16.87,162.06,-89.02,151.3
52.984592,-1.746994,233.86,22.91,4,10.28,22 / 23,1713512,2019-11-06 12:14:27:393,-1.4422,0.1036,10.5418,0.008,-0.0214,9.8066,0.0002,0.1373,-0.0099,-2.87,-42.25,-17.37,165.28,-89.11,154.73
52.984592,-1.746994,233.86,22.91,4,10.28,22 / 23,1713612,2019-11-06 12:14:27:493,1.2537,0.801,9.7822,0.0196,-0.0048,9.8066,0.0064,0.0885,-0.1551,-2.31,-42.75,-17.62,179.7,-89.21,173.35
52.984592,-1.746994,233.86,22.91,4,10.28,22 / 23,1713712,2019-11-06 12:14:27:593,0.9513,-0.0864,9.9533,-0.0024,-0.0198,9.8066,0.0526,-0.016,-0.0528,-2.5,-42.44,-17.19,164.58,-89.32,157.43
52.984592,-1.746994,233.86,22.91,4,10.28,22 / 23,1713812,2019-11-06 12:14:27:693,0.3355,-0.8919,9.6215,0.0094,-0.0165,9.8066,0.0383,0.2346,-0.1666,-2.69,-42.06,-17.06,152.82,-89.14,141.86
52.984592,-1.746994,233.86,22.91,4,10.28,22 / 23,1713912,2019-11-06 12:14:27:793,0.0817,-1.9633,9.6235,0.0257,0.0019,9.8065,0.0857,0.3031,-0.2416,-2.81,-42.56,-17.56,148.85,-89.11,138.31
52.984592,-1.746994,233.86,22.91,4,10.28,22 / 23,1714012,2019-11-06 12:14:27:893,0.6927,-0.0058,9.5956,0.0103,-0.0022,9.8066,0.0492,0.0434,-0.049,-2.25,-42.19,-17.12,146.95,-89.02,138.93
52.984592,-1.746994,233.86,22.91,4,10.28,22 / 23,1714112,2019-11-06 12:14:27:993,-0.3627,-1.0439,10.912,0.0149,-0.0092,9.8066,0.0723,-0.0446,0.0072,-2.5,-42.12,-17.12,151.54,-88.96,143.61
52.984592,-1.746994,233.86,22.91,4,10.28,22 / 23,1714212,2019-11-06 12:14:28:093,0.2019,-0.2322,10.658,-0.0236,0.0063,9.8065,0.1348,-0.0787,0.0368,-2.44,-42.81,-16.81,157,-88.76,149.08
52.984592,-1.746994,233.86,22.91,4,10.28,22 / 23,1714312,2019-11-06 12:14:28:193,-1.5419,-0.2029,9.4229,-0.0034,-0.0002,9.8066,0.0961,-0.1325,0.0362,-1.94,-42.94,-17.94,155.4,-88.5,147.59
52.984592,-1.746994,233.86,22.91,4,10.28,22 / 23,1714412,2019-11-06 12:14:28:293,0.8975,-1.0341,9.3382,-0.0153,0.0031,9.8066,-0.0265,-0.1083,0.0382,-1.94,-42.62,-16.81,150.75,-88.48,142.18
52.984592,-1.746994,233.86,22.91,4,10.28,22 / 23,1714512,2019-11-06 12:14:28:393,0.6588,-0.2028,10.8292,-0.0042,-0.0251,9.8066,0.0287,-0.2261,0.1837,-2,-42.37,-18.06,145.82,-88.61,137.67
52.984592,-1.746994,233.86,22.91,4,10.28,22 / 23,1714612,2019-11-06 12:14:28:493,1.3162,-0.7513,10.6502,-0.0283,0.0008,9.8065,0.1273,-0.2165,0.1398,-2.31,-42.56,-17.69,150.73,-88.45,142.61
52.984592,-1.746994,233.86,22.91,4,10.28,22 / 23,1714712,2019-11-06 12:14:28:593,-0.4038,-0.5596,10.3099,-0.0043,0.0184,9.8066,-0.0225,-0.1495,0.0409,-1.81,-42.44,-17.5,158.78,-88.28,150.55
52.984592,-1.746994,233.86,22.91,4,10.28,22 / 23,1714812,2019-11-06 12:14:28:693,-1.3927,-0.7563,9.6359,-0.0355,0.0082,9.8066,0.0258,-0.2066,0.2649,-2.37,-42.75,-17.12,164.24,-88.26,156.35
52.984592,-1.746994,233.86,22.91,4,10.28,22 / 23,1714912,2019-11-06 12:14:28:793,-1.6226,-0.2722,10.5905,-0.0084,0.001,9.8066,-0.0133,-0.2322,0.1923,-2.19,-42.44,-17.5,165.91,-88.24,158.16
52.984592,-1.746994,233.86,22.91,4,10.28,22 / 23,1715012,2019-11-06 12:14:28:893,-1.3329,-1.3052,8.6266,-0.0494,0.0409,9.8064,-0.1395,-0.1466,0.1459,-2.5,-42.44,-17.5,161.71,-88.14,153.58
52.984592,-1.746994,233.86,22.91,4,10.28,22 / 23,1715112,2019-11-06 12:14:28:993,0.1525,1.3737,10.8321,-0.0477,0.0116,9.8065,-0.1161,0.1761,0.1422,-2,-42.25,-17.19,164.92,-88.2,157.07
52.984592,-1.746994,233.86,22.91,4,10.28,22 / 23,1715212,2019-11-06 12:14:29:093,-2.4462,-1.0469,9.0868,-0.0203,0.0131,9.8065,-0.0098,-0.0394,-0.0485,-2.31,-42.25,-17.75,161.77,-87.85,153.88
52.984592,-1.746994,233.86,22.91,4,10.28,22 / 23,1715312,2019-11-06 12:14:29:193,-0.4409,0.0593,9.8393,-0.0566,-0.0057,9.8065,0.015,0.2241,-0.1166,-1.75,-42.81,-17.25,159.25,-87.61,150.43
52.984592,-1.746994,233.86,22.91,4,10.28,22 / 23,1715412,2019-11-06 12:14:29:293,-2.2012,0.2896,9.3269,0.0147,0.0019,9.8066,-0.0696,0.2773,-0.0363,-1.5,-42.94,-17.37,159.23,-87.6,153.73
52.984592,-1.746994,233.86,22.91,4,10.28,23 / 23,1715511,2019-11-06 12:14:29:392,-2.6588,0.4664,9.8254,0.0159,-0.0077,9.8066,-0.1124,0.261,-0.1482,-1.75,-42.44,-17.87,164.32,-87.72,156.57
52.984592,-1.746994,233.86,22.91,4,10.28,23 / 23,1715612,2019-11-06 12:14:29:493,-0.8345,2.5639,10.7431,0.0207,-0.0309,9.8065,0.0783,0.0253,0.0383,-1.94,-42.75,-17.44,169.93,-87.9,162.3
52.984592,-1.746994,233.86,22.91,4,10.28,23 / 23,1715712,2019-11-06 12:14:29:593,-0.3263,-1.6884,9.6599,0.024,0.0206,9.8065,0.1541,0.0364,-0.0229,-2.06,-42,-17.5,169.98,-87.76,162.33
52.984592,-1.746994,233.86,22.91,4,10.28,23 / 23,1715812,2019-11-06 12:14:29:693,0.1053,0.1493,9.9887,0.0118,0.0096,9.8066,-0.0766,0.0989,-0.067,-1.87,-42.12,-16.87,164.06,-87.89,155.93
52.984592,-1.746994,233.86,22.91,4,10.28,23 / 23,1715912,2019-11-06 12:14:29:793,-1.3447,-0.0255,9.8381,0.0195,-0.0245,9.8066,-0.006,-0.0404,0.0778,-1.81,-42.62,-16.56,166.89,-87.95,159.02
52.984592,-1.746994,233.86,22.91,4,10.28,23 / 23,1716012,2019-11-06 12:14:29:893,1.7856,-0.0202,9.9871,0.0172,0.0078,9.8066,0.0719,-0.2069,0.162,-2.56,-42.37,-17.37,170.61,-87.84,159.75
52.984592,-1.746994,233.86,22.91,4,10.28,23 / 23,1716112,2019-11-06 12:14:29:993,-0.6561,1.1138,10.2408,0.0171,-0.0122,9.8066,-0.0742,-0.0508,0.0987,-1.56,-42.81,-17.37,167.64,-87.91,159.81
52.984592,-1.746994,233.86,22.91,4,10.28,23 / 23,1716212,2019-11-06 12:14:30:093,0.4944,0.3969,9.6978,-0.0029,-0.0106,9.8066,-0.0026,-0.0683,0.1595,-1.94,-43,-17.19,170.65,-87.99,163.13
52.984592,-1.746994,233.86,22.91,4,10.28,23 / 23,1716312,2019-11-06 12:14:30:193,-1.392,1.5022,10.1629,0.0202,-0.0129,9.8066,-0.0363,-0.1741,0.0757,-1.94,-42.69,-17.5,172.69,-88.13,165.39
52.984592,-1.746994,233.86,22.91,4,10.28,23 / 23,1716412,2019-11-06 12:14:30:293,0.6129,-0.4751,9.3412,-0.0309,-0.0151,9.8066,-0.133,-0.021,0.1053,-2.06,-42.87,-17.44,175.65,-88.26,168.61
52.984592,-1.746994,233.86,22.91,4,10.28,24 / 24,1716513,2019-11-06 12:14:30:394,0.3188,-0.4454,9.7478,0.0102,-0.0272,9.8066,0.0139,0.1236,-0.0037,-2.56,-42.5,-17.87,177.53,-88.4,167.91
52.984592,-1.746994,233.86,22.91,4,10.28,24 / 24,1716612,2019-11-06 12:14:30:493,0.1262,-0.6911,10.0444,0.0091,-0.0249,9.8065,-0.0064,0.0247,-0.0826,-1.94,-42.5,-16.37,178.97,-88.62,171.78
52.984592,-1.746994,233.86,22.91,4,10.28,24 / 24,1716712,2019-11-06 12:14:30:593,1.2758,-0.322,10.0154,-0.0243,-0.0079,9.8066,-0.0199,0.2048,-0.032,-1.94,-41.56,-18,176.85,-88.7,170.35
52.984592,-1.746994,233.86,22.91,4,10.28,24 / 24,1716811,2019-11-06 12:14:30:692,-0.0495,-0.3711,9.6578,0.0173,-0.005,9.8066,-0.037,0.0845,-0.0544,-2.44,-42.94,-17.5,179.41,-88.83,172.67
52.984592,-1.746994,233.86,22.91,4,10.28,24 / 24,1716912,2019-11-06 12:14:30:793,0.4341,-1.0057,9.5973,-0.0066,-0.0039,9.8066,0.0043,0.0475,0.0435,-2.31,-42.75,-17.19,176.12,-88.83,169.21
52.984592,-1.746994,233.86,22.91,4,10.28,24 / 24,1717012,2019-11-06 12:14:30:893,-1.4747,-0.0805,9.7683,0.0198,-0.0111,9.8066,0.0378,0.0116,0.023,-2.25,-42.87,-17.37,173.26,-88.83,166.21
52.984592,-1.746994,233.86,22.91,4,10.28,24 / 24,1717111,2019-11-06 12:14:30:992,0.4435,0.368,10.0462,-0.012,-0.0062,9.8066,0.0403,-0.1764,0.0407,-2.75,-42.56,-17.5,175.1,-88.99,164.88
52.984592,-1.746994,233.86,22.91,4,10.28,24 / 24,1717213,2019-11-06 12:14:31:094,0.4909,-2.4029,9.8082,0.0049,0.0092,9.8066,0.0218,-0.0854,0.0276,-1.87,-42.12,-17.31,171.07,-88.91,163.94
52.984592,-1.746994,233.86,22.91,4,10.28,24 / 24,1717312,2019-11-06 12:14:31:193,0.1695,-1.2798,10.2323,-0.0058,0.0176,9.8066,0.0059,-0.1038,0.0303,-1.37,-42.44,-17.37,162.71,-88.73,158.42
52.984592,-1.746994,233.86,22.91,4,10.28,24 / 24,1717412,2019-11-06 12:14:31:293,-0.5157,-0.6837,9.78,0.0143,0.0004,9.8066,-0.0065,-0.1591,0.0807,-1.25,-42.06,-18.06,160.41,-88.71,156.23
52.984592,-1.746994,233.86,22.91,4,10.28,23 / 24,1717512,2019-11-06 12:14:31:393,-3.1174,-1.0974,9.4229,0.0331,0.0002,9.8065,-0.0303,-0.2291,0.264,-1.69,-42.19,-17.5,163.85,-88.72,156.27
52.984592,-1.746994,233.86,22.91,4,10.28,23 / 24,1717612,2019-11-06 12:14:31:493,-1.236,-0.6791,10.4667,0.0309,-0.0072,9.8066,0.0079,-0.1519,0.1267,-1.62,-42.06,-17.87,155.9,-88.62,148.27
52.984592,-1.746994,233.86,22.91,4,10.28,23 / 24,1717712,2019-11-06 12:14:31:593,-2.317,-0.4611,8.8,0.006,0.0199,9.8066,0.0394,-0.2516,0.1155,-1.5,-42.56,-17.5,157.52,-88.58,152.79
52.984592,-1.746994,233.86,22.91,4,10.28,23 / 24,1717811,2019-11-06 12:14:31:692,1.3962,-0.6379,10.4543,0.0247,-0.0018,9.8065,-0.0253,-0.0828,0.1458,-0.94,-42.56,-17.75,157.25,-88.61,152.8
52.984592,-1.746994,233.86,22.91,4,10.28,23 / 24,1717911,2019-11-06 12:14:31:792,-0.9137,0.6467,9.7393,0.0267,0.0239,9.8065,0.0234,-0.056,0.0519,-1.12,-42.44,-18.12,157.57,-88.55,153.11
52.984592,-1.746994,233.86,22.91,4,10.28,23 / 24,1718012,2019-11-06 12:14:31:893,2.022,-1.8905,10.654,0.0164,-0.0205,9.8066,-0.0191,0.0261,0.0233,-1.06,-42.31,-17.69,159.45,-88.75,155.26
52.984592,-1.746994,233.86,22.91,4,10.28,23 / 24,1718112,2019-11-06 12:14:31:993,-0.94,-0.4069,9.716,0.0278,0.0011,9.8066,-0.0939,0.1288,0.0602,-1.25,-42.5,-17.56,160.84,-88.66,156.63
52.984592,-1.746994,233.86,22.91,4,10.28,23 / 24,1718212,2019-11-06 12:14:32:093,-0.018,-0.6816,10.1937,-0.0001,-0.0091,9.8066,-0.0401,0.0923,-0.0174,-1.37,-42.44,-17.44,158.36,-88.56,153.69
52.984592,-1.746994,233.86,22.91,4,10.28,23 / 24,1718312,2019-11-06 12:14:32:193,-1.1187,-1.2234,9.4335,0.023,-0.0068,9.8066,-0.0418,0.1502,-0.0046,-1.56,-42.56,-17.69,163.63,-88.73,156.44
