GPS LATITUDE (degrees), GPS LONGITUDE (degrees), GPS ALTITUDE (m), GPS SPEED (Kmh), GPS ACCURACY (m), GPS ORIENTATION (Â°),GPS SATELLITES IN RANGE, TIME SINCE START (ms), DATE (YYYY-MO-DD HH-MI-SS_SSS), ACCELEROMETER X (m/s²) , ACCELEROMETER Y (m/s²), ACCELEROMETER Z (m/s²), GRAVITY X (m/s²), GRAVITY Y (m/s²), GRAVITY Z (m/s²), GYROSCOPE Yaw (rad/s), GYROSCOPE Pitch (rad/s), GYROSCOPE Roll (rad/s), MAGNETIC FIELD X (Î¼T), MAGNETIC FIELD Y (Î¼T), MAGNETIC FIELD Z (Î¼T), ORIENTATION (Yaw) (Â°), ORIENTATION (Pitch) (Â°), ORIENTATION (Roll ) (Â°)
52.965443,-1.756931,218.67,19.37,6,19.64,24 / 26,1597912,2019-11-06 12:12:31:793,1.9977,-2.0321,10.1528,-0.0055,0.0009,9.8066,-0.0592,0.2077,-0.134,-6,-42.56,-15.31,189.8,-87.28,169.22
52.965443,-1.756931,218.67,19.37,6,19.64,24 / 26,1598011,2019-11-06 12:12:31:892,0.6589,-0.1889,9.7499,-0.0048,-0.0088,9.8066,-0.0819,0.1465,-0.1585,-5.56,-42.62,-15.19,190.33,-87.29,169.81
52.965443,-1.756931,218.67,19.37,6,19.64,24 / 26,1598112,2019-11-06 12:12:31:993,1.9133,-0.0471,9.9817,-0.0208,0.0014,9.8066,-0.0668,0.0803,-0.0345,-6.5,-42.31,-15.06,190.08,-87.37,169.47
52.965443,-1.756931,218.67,19.37,6,19.64,24 / 26,1598212,2019-11-06 12:12:32:093,-0.0366,0.3946,9.4983,0.0121,-0.0158,9.8066,-0.0499,0.0716,-0.0292,-6.75,-42.75,-15.81,195.42,-87.35,173.5
52.965443,-1.756931,218.67,19.37,6,19.64,24 / 26,1598312,2019-11-06 12:12:32:193,1.5588,-1.9379,9.5898,-0.007,0.0056,9.8066,-0.0228,-0.0488,0.0757,-7.12,-42.62,-15.19,196.36,-87.25,173.33
52.965443,-1.756931,218.67,19.37,6,19.64,24 / 26,1598412,2019-11-06 12:12:32:293,-0.6362,1.588,9.3749,0.0179,-0.0095,9.8065,0.011,0.0297,-0.0065,-6.5,-42.37,-14.69,195.78,-87.18,175.96
52.965443,-1.756931,218.67,19.37,6,19.64,22 / 24,1598512,2019-11-06 12:12:32:393,1.5452,-0.583,9.7164,-0.0229,0.0006,9.8066,-0.002,-0.1239,-0.0032,-6.06,-42.81,-14.75,194.55,-87.18,174.62
52.965443,-1.756931,218.67,19.37,6,19.64,22 / 24,1598611,2019-11-06 12:12:32:492,-0.1759,0.89,9.8439,0.0106,-0.0091,9.8066,-0.0151,-0.0923,0.0543,-6.69,-41.94,-14.69,198.05,-87.26,175.16
52.965443,-1.756931,218.67,19.37,6,19.64,22 / 24,1598712,2019-11-06 12:12:32:593,1.9456,-0.5099,10.2579,-0.0067,0.0113,9.8066,0.0282,-0.2512,0.0863,-6.62,-42.12,-15.06,196.45,-87.26,173.39
52.965443,-1.756931,218.67,19.37,6,19.64,22 / 24,1598812,2019-11-06 12:12:32:693,1.6737,-1.3062,10.3996,0.0236,-0.0015,9.8066,0.0279,-0.29,0.1052,-7.25,-41.87,-14.62,197.75,-87.13,174.93
52.965443,-1.756931,218.67,19.37,6,19.64,22 / 24,1598912,2019-11-06 12:12:32:793,2.0143,-0.4683,10.2914,0.017,0.0145,9.8066,0.0098,-0.209,0.1579,-6.75,-41.94,-14.81,196.74,-86.96,173.92
52.965443,-1.756931,218.67,19.37,6,19.64,22 / 24,1599012,2019-11-06 12:12:32:893,0.5177,-1.2864,9.435,0.0181,0.0164,9.8065,0.0811,-0.1502,0.0312,-7,-42.12,-15.31,196.04,-86.95,173.13
52.965443,-1.756931,218.67,19.37,6,19.64,22 / 24,1599112,2019-11-06 12:12:32:993,-0.365,-0.4557,10.2069,0.0191,-0.0151,9.8065,0.0325,-0.0572,-0.0249,-7,-42.5,-14.81,197.85,-87.11,175.06
52.965443,-1.756931,218.67,19.37,6,19.64,22 / 24,1599212,2019-11-06 12:12:33:093,0.2212,0.1706,9.7844,0.0223,-0.0207,9.8065,-0.0353,-0.0837,0.1126,-6.62,-42.44,-15.25,195.53,-87.11,172.46
52.965443,-1.756931,218.67,19.37,6,19.64,22 / 24,1599312,2019-11-06 12:12:33:193,-0.6089,-0.0782,9.6768,0.0192,-0.0082,9.8066,-0.0066,0.0933,-0.069,-7.37,-42.94,-14.56,199.3,-87.16,176.69
52.965443,-1.756931,218.67,19.37,6,19.64,22 / 24,1599412,2019-11-06 12:12:33:293,-0.1872,-0.5775,9.9526,-0.0129,0.0122,9.8065,0.0786,0.0746,-0.1026,-7.5,-42.44,-14.31,202.44,-87.17,178.75
52.965443,-1.756931,218.67,19.37,6,19.64,25 / 25,1599512,2019-11-06 12:12:33:393,1.7686,-0.7927,9.1453,-0.0018,0.0009,9.8066,0.051,0.0759,-0.0323,-7.69,-42.37,-14.94,206.41,-87.18,-178.59
52.965443,-1.756931,218.67,19.37,6,19.64,25 / 25,1599612,2019-11-06 12:12:33:493,2.1695,-1.7922,10.1528,-0.0315,0.0024,9.8065,0.0018,0.145,-0.0701,-8.19,-42.19,-15.25,207.68,-87.27,-177.28
52.965443,-1.756931,218.67,19.37,6,19.64,25 / 25,1599712,2019-11-06 12:12:33:593,2.3333,-0.4125,10.1105,-0.0298,0.0047,9.8065,0.0241,0.0069,0.0312,-8.25,-42.25,-14.12,210.7,-87.22,-175.37
52.965443,-1.756931,218.67,19.37,6,19.64,25 / 25,1599812,2019-11-06 12:12:33:693,-2.0581,0.6795,9.2217,-0.0242,0.02,9.8066,0.059,-0.0239,-0.0009,-7.62,-42.5,-14.69,210.37,-87.17,-174.21
52.965443,-1.756931,218.67,19.37,6,19.64,25 / 25,1599912,2019-11-06 12:12:33:793,-0.3095,0.069,9.8156,-0.0585,-0.0097,9.8064,0.054,-0.1386,-0.0046,-7.37,-42.31,-14.94,205.13,-87.27,-176.98
52.965443,-1.756931,218.67,19.37,6,19.64,25 / 25,1600012,2019-11-06 12:12:33:893,-0.1751,-0.3337,10.0481,-0.0244,-0.0021,9.8065,-0.0152,-0.1452,0.0486,-8.06,-42.19,-13.75,210.34,-87.34,-175.93
52.965443,-1.756931,218.67,19.37,6,19.64,25 / 25,1600112,2019-11-06 12:12:33:993,2.8673,-1.739,10.4515,-0.0396,0.0066,9.8065,0.0455,-0.2183,0.0699,-8.25,-42.37,-14.12,210.44,-87.41,-175.91
52.965443,-1.756931,218.67,19.37,6,19.64,25 / 25,1600212,2019-11-06 12:12:34:093,-0.0676,-0.0204,9.7368,-0.003,0.0084,9.8066,0.0392,-0.2735,0.1043,-7.87,-42.12,-14.31,211.31,-87.32,-174.83
52.965443,-1.756931,218.67,19.37,6,19.64,25 / 25,1600314,2019-11-06 12:12:34:195,1.478,-0.8636,9.9551,-0.0211,-0.01,9.8066,0.045,-0.1633,0.1033,-9,-42.19,-13.69,213.34,-87.31,-175.7
52.965443,-1.756931,218.67,19.37,6,19.64,25 / 25,1600412,2019-11-06 12:12:34:293,0.2196,0.5154,9.623,-0.005,-0.0117,9.8066,0.0146,-0.1567,0.0469,-8.5,-42.19,-14.12,212.95,-87.33,-173.05
52.965443,-1.756931,218.67,19.37,6,19.64,23 / 25,1600512,2019-11-06 12:12:34:393,1.7518,-0.1996,9.4838,-0.0021,-0.01,9.8066,0.0133,-0.1014,0.0193,-8.37,-42.5,-14.31,214.27,-87.51,-171.84
52.965443,-1.756931,218.67,19.37,6,19.64,23 / 25,1600614,2019-11-06 12:12:34:495,-0.2289,-0.4591,9.9583,0.0076,-0.0138,9.8066,-0.0574,-0.1273,0.0574,-8.69,-42.44,-14.75,216.82,-87.6,-170.71
52.965443,-1.756931,218.67,19.37,6,19.64,23 / 25,1600712,2019-11-06 12:12:34:593,0.5546,-0.1437,9.6085,-0.012,-0.0089,9.8066,-0.0616,-0.0604,0.0355,-8.44,-42.12,-15.06,214.18,-87.75,-170.78
52.965443,-1.756931,218.67,19.37,6,19.64,23 / 25,1600812,2019-11-06 12:12:34:693,0.7689,-1.2029,9.7777,-0.0144,0.0108,9.8065,0.0099,0.0133,-0.0501,-8.06,-41.94,-14.25,213.33,-87.84,-173.34
52.965443,-1.756931,218.67,19.37,6,19.64,23 / 25,1600912,2019-11-06 12:12:34:793,-0.4657,0.0486,9.8561,-0.0032,0.0037,9.8066,0.0461,0.029,-0.0421,-7.31,-42.81,-14.31,209.08,-87.85,-174.63
52.965443,-1.756931,218.67,19.37,6,19.64,23 / 25,1601013,2019-11-06 12:12:34:894,0.2963,-0.3205,10.0715,-0.0132,-0.0063,9.8066,0.0058,-0.0214,-0.0185,-8.12,-42.87,-13.81,210.61,-87.82,-176.19
52.965443,-1.756931,218.67,19.37,6,19.64,23 / 25,1601113,2019-11-06 12:12:34:994,1.9654,0.1944,10.7317,-0.0069,0.0054,9.8066,-0.0208,-0.0466,0.0503,-7.87,-42.06,-14.37,208.04,-87.81,-179.04
52.965443,-1.756931,218.67,19.37,6,19.64,23 / 25,1601213,2019-11-06 12:12:35:094,-0.9598,0.9701,9.8717,-0.0169,0.002,9.8066,-0.0564,-0.1465,0.1186,-8.06,-42.25,-14.25,207.06,-87.76,179.96
52.965443,-1.756931,218.67,19.37,6,19.64,23 / 25,1601312,2019-11-06 12:12:35:193,1.1965,-0.3722,9.6473,0.0031,-0.0071,9.8066,-0.0215,-0.0934,0.0874,-8.69,-42.81,-13.69,214.02,-87.75,-175.48
52.965443,-1.756931,218.67,19.37,6,19.64,23 / 25,1601412,2019-11-06 12:12:35:293,0.0075,-0.4221,9.8528,0.0002,-0.0006,9.8066,0.004,-0.0897,0.0844,-8.81,-42.62,-13.75,217.94,-87.76,-171.26
52.965443,-1.756931,218.67,19.37,6,19.64,23 / 25,1601512,2019-11-06 12:12:35:393,1.2634,-0.1224,10.2276,-0.0039,0.0137,9.8066,-0.0068,-0.068,0.0389,-8.75,-42.56,-14.06,219.5,-87.7,-169.47
52.965443,-1.756931,218.67,19.37,6,19.64,23 / 25,1601612,2019-11-06 12:12:35:493,-0.4119,-0.1344,10.5767,0.0227,0.0019,9.8066,-0.0124,-0.0742,-0.0014,-8.5,-42.69,-14,218.73,-87.45,-166.79
52.965443,-1.756931,218.67,19.37,6,19.64,23 / 25,1601712,2019-11-06 12:12:35:593,0.7255,1.0394,10.5028,-0.0127,0.0097,9.8066,0.0848,-0.15,0.0598,-8.69,-42.87,-13.25,220.72,-87.33,-169.27
52.965443,-1.756931,218.67,19.37,6,19.64,23 / 25,1601812,2019-11-06 12:12:35:693,0.4826,-0.1374,9.5655,0.007,0.0001,9.8066,-0.0309,-0.0366,0.0542,-9.25,-42.12,-13.69,222.08,-87.19,-165.92
52.965443,-1.756931,218.67,19.37,6,19.64,23 / 25,1601912,2019-11-06 12:12:35:793,-0.3542,-0.3026,9.7222,-0.0071,0.0199,9.8066,-0.0744,-0.1238,0.0605,-8.75,-42.44,-13.37,223.15,-87.2,-166.49
52.965443,-1.756931,218.67,19.37,6,19.64,23 / 25,1602012,2019-11-06 12:12:35:893,-0.5892,0.5409,10.4716,-0.0239,0.0088,9.8066,-0.023,-0.0912,0.0899,-8.19,-42.81,-13.25,220.55,-87.26,-166.08
52.965443,-1.756931,218.67,19.37,6,19.64,23 / 25,1602112,2019-11-06 12:12:35:993,1.4126,1.4966,10.9881,0.0049,0.0238,9.8065,-0.0371,0.0101,0.0523,-8.75,-42.75,-13.19,221.51,-87.22,-168.2
52.965443,-1.756931,218.67,19.37,6,19.64,23 / 25,1602213,2019-11-06 12:12:36:094,-0.2753,-0.3912,9.4842,0.0223,0.0276,9.8065,-0.1652,-0.0374,0.0206,-8.94,-42.31,-13.56,221.59,-87.2,-166.49
52.965443,-1.756931,218.67,19.37,6,19.64,23 / 25,1602312,2019-11-06 12:12:36:193,0.6505,0.3833,9.7577,-0.0087,0.0072,9.8066,-0.048,0.064,-0.0152,-8.62,-42.19,-13.25,223.84,-87.27,-165.86
52.965443,-1.756931,218.67,19.37,6,19.64,23 / 25,1602412,2019-11-06 12:12:36:293,1.19,0.5381,10.0049,0.0072,0.0143,9.8066,0.0003,0.0375,0.032,-9,-42.44,-13.12,224.61,-87.09,-164.68
52.965443,-1.756931,218.67,19.37,6,19.64,21 / 24,1602512,2019-11-06 12:12:36:393,-0.8654,2.0473,10.014,0.0285,-0.0139,9.8065,0.0218,-0.0792,0.0249,-9.31,-43.19,-12.87,225.91,-87,-162.96
52.965443,-1.756931,218.67,19.37,6,19.64,21 / 24,1602612,2019-11-06 12:12:36:493,2.6043,-0.2756,9.3585,0.014,0.0016,9.8066,0.045,-0.1821,0.0431,-8.94,-42.62,-13.25,223.35,-86.82,-165.44
52.965443,-1.756931,218.67,19.37,6,19.64,21 / 24,1602712,2019-11-06 12:12:36:593,-1.3962,0.8541,10.3268,0.0275,-0.0241,9.8066,-0.0216,-0.2379,0.208,-8.87,-42.19,-13.56,224.49,-86.65,-162.36
52.965443,-1.756931,218.67,19.37,6,19.64,21 / 24,1602812,2019-11-06 12:12:36:693,2.4666,-0.8575,9.7619,-0.0366,-0.0111,9.8065,-0.0096,-0.3674,0.1419,-9.25,-42.56,-13.06,225.63,-86.81,-162.9
52.965443,-1.756931,218.67,19.37,6,19.64,21 / 24,1602912,2019-11-06 12:12:36:793,-1.7023,-0.3173,9.6548,0.0006,-0.0149,9.8066,0.0328,-0.3113,0.0963,-9.12,-42.19,-12.62,225.76,-86.85,-162.98
52.965443,-1.756931,218.67,19.37,6,19.64,21 / 24,1603012,2019-11-06 12:12:36:893,-1.0719,1.0234,9.9767,-0.0593,0.0052,9.8064,0.0764,-0.4289,0.2303,-9.69,-42.75,-12.56,223.84,-86.98,-168.28
52.965443,-1.756931,218.67,19.37,6,19.64,21 / 24,1603112,2019-11-06 12:12:36:993,2.5752,-0.664,9.4338,-0.0175,0.0063,9.8065,0.044,-0.3141,0.2031,-9.62,-42.5,-12.56,227.08,-86.94,-164.79
52.965443,-1.756931,218.67,19.37,6,19.64,21 / 24,1603212,2019-11-06 12:12:37:093,-2.0848,-0.2063,9.5558,-0.0429,0.0044,9.8065,-0.0571,-0.1178,0.0574,-9.37,-42.19,-12.69,228.05,-87.16,-161.05
52.965443,-1.756931,218.67,19.37,6,19.64,21 / 24,1603312,2019-11-06 12:12:37:193,0.3046,-1.8139,9.5132,-0.0421,0.0018,9.8066,0.0232,-0.0967,-0.0306,-9.62,-42.56,-13.19,226.71,-87.38,-165.88
52.965443,-1.756931,218.67,19.37,6,19.64,21 / 24,1603412,2019-11-06 12:12:37:293,-1.7944,2.3836,10.7986,-0.0361,0.0227,9.8065,0.0768,0.0764,-0.0997,-9.5,-42.37,-12.75,220.44,-87.42,-169.83
52.965443,-1.756931,218.67,19.37,6,19.64,25 / 25,1603512,2019-11-06 12:12:37:393,-1.3269,0.4482,10.9115,-0.0337,0.0404,9.8064,-0.0049,0.128,-0.0962,-8.94,-42.75,-12.25,222.44,-87.4,-169.42
52.965443,-1.756931,218.67,19.37,6,19.64,25 / 25,1603612,2019-11-06 12:12:37:493,-1.1909,1.9762,9.5839,-0.0257,0.0136,9.8066,-0.0503,0.1793,-0.1345,-9.5,-42.75,-12.81,221.07,-87.26,-168.75
52.965443,-1.756931,218.67,19.37,6,19.64,25 / 25,1603712,2019-11-06 12:12:37:593,1.8989,-0.5964,9.5666,-0.0409,0.0157,9.8065,0.0201,0.2248,-0.2041,-9.06,-42.12,-12,222.66,-87.24,-168.99
52.965443,-1.756931,218.67,19.37,6,19.64,25 / 25,1603812,2019-11-06 12:12:37:693,-0.9527,0.6061,10.036,-0.0026,0.0158,9.8066,0.0027,0.294,-0.1606,-9.56,-42.19,-13,225.45,-87.27,-167.16
52.965443,-1.756931,218.67,19.37,6,19.64,25 / 25,1603912,2019-11-06 12:12:37:793,1.7911,0.1178,10.2593,-0.025,0.0148,9.8065,-0.0413,0.2215,-0.0685,-9.44,-42.56,-12.12,221.72,-87.2,-169.84
52.965443,-1.756931,218.67,19.37,6,19.64,25 / 25,1604012,2019-11-06 12:12:37:893,-0.6568,-0.4654,9.435,0.028,-0.0082,9.8066,-0.0439,0.2089,-0.0677,-9,-43.31,-12.62,222.41,-87,-166.82
52.965443,-1.756931,218.67,19.37,6,19.64,25 / 25,1604112,2019-11-06 12:12:37:993,2.9396,-2.2766,9.3735,0.0149,-0.0114,9.8066,0.0269,-0.0322,-0.0119,-9.44,-42.5,-12.06,223.76,-86.92,-167.17
52.965443,-1.756931,218.67,19.37,6,19.64,25 / 25,1604212,2019-11-06 12:12:38:093,-0.4843,1.1165,9.844,0.0488,-0.0341,9.8064,0.0493,-0.0471,0.0172,-9.69,-42.69,-12.81,230.09,-86.87,-161.22
52.965443,-1.756931,218.67,19.37,6,19.64,25 / 25,1604312,2019-11-06 12:12:38:193,-1.6004,0.1257,9.1454,0.0259,-0.0015,9.8066,0.031,-0.2967,0.1444,-9.94,-42.87,-12.62,229.45,-86.88,-161.94
52.965443,-1.756931,218.67,19.37,6,19.64,25 / 25,1604412,2019-11-06 12:12:38:293,3.0182,-2.6948,10.391,0.0498,-0.0071,9.8065,0.0506,-0.4355,0.1895,-10.06,-41.94,-12.56,228.25,-86.94,-163.51
52.96685,-1.755612,222.21,21.05,6,38.65,24 / 25,1604514,2019-11-06 12:12:38:395,1.1775,-1.2233,10.2653,0.0484,-0.0148,9.8065,0.0703,-0.3315,0.1818,-9.81,-42.12,-12.12,233.54,-86.79,-159.34
52.96685,-1.755612,222.21,21.05,6,38.65,24 / 25,1604613,2019-11-06 12:12:38:494,2.1152,-2.0731,10.1362,0.0209,-0.0027,9.8065,0.0743,-0.4172,0.1125,-9.69,-42.12,-12,232.06,-86.77,-160.93
52.96685,-1.755612,222.21,21.05,6,38.65,24 / 25,1604712,2019-11-06 12:12:38:593,-1.5476,1.5785,9.3753,0.0437,-0.0181,9.8064,0.0422,-0.2958,0.1961,-10.12,-42.12,-12.12,234.38,-86.71,-158.26
52.96685,-1.755612,222.21,21.05,6,38.65,24 / 25,1604812,2019-11-06 12:12:38:693,1.531,-1.9272,10.4637,-0.0058,-0.0129,9.8066,-0.0494,-0.2,0.1477,-10.19,-43,-12.06,236.47,-86.84,-156.09
52.96685,-1.755612,222.21,21.05,6,38.65,24 / 25,1604911,2019-11-06 12:12:38:792,-1.9077,-0.1304,8.6324,0.0173,-0.0218,9.8066,-0.0323,-0.1286,0.0437,-10.37,-42.75,-12.44,238.11,-86.78,-154.19
52.96685,-1.755612,222.21,21.05,6,38.65,24 / 25,1605011,2019-11-06 12:12:38:892,1.1382,-0.5015,9.9075,-0.0252,-0.0143,9.8066,0.0047,-0.0107,0.0315,-10.44,-42.44,-12.87,237.03,-86.79,-153.66
52.96685,-1.755612,222.21,21.05,6,38.65,24 / 25,1605112,2019-11-06 12:12:38:993,-1.4777,-0.7171,10.3189,0.0165,0.0032,9.8066,0.0676,0.1107,-0.0663,-10.56,-42.31,-12.12,242.28,-86.82,-152.98
52.96685,-1.755612,222.21,21.05,6,38.65,24 / 25,1605212,2019-11-06 12:12:39:093,0.278,-0.2396,9.4423,-0.0032,0.0146,9.8066,-0.0608,0.103,-0.0743,-11.12,-42.44,-10.69,244.96,-86.81,-152.24
52.96685,-1.755612,222.21,21.05,6,38.65,24 / 25,1605312,2019-11-06 12:12:39:193,0.4849,-2.7645,9.7075,-0.01,-0.0033,9.8066,-0.0734,0.0884,-0.0473,-11,-42.25,-11.5,246.72,-86.74,-150.2
52.96685,-1.755612,222.21,21.05,6,38.65,24 / 25,1605412,2019-11-06 12:12:39:293,-0.0687,-0.461,9.9687,-0.0025,0.0065,9.8066,-0.0159,0.0476,-0.024,-10.94,-42,-11.87,244.38,-86.73,-150.53
52.96685,-1.755612,222.21,21.05,6,38.65,22 / 24,1605512,2019-11-06 12:12:39:393,-0.154,-1.1463,10.7601,-0.0095,0.0184,9.8066,0.1173,-0.0363,-0.0925,-10.94,-42.37,-11.44,246.79,-86.82,-150.33
52.96685,-1.755612,222.21,21.05,6,38.65,22 / 24,1605612,2019-11-06 12:12:39:493,-0.8565,-0.8535,10.1129,-0.0069,0.0266,9.8066,0.0226,0.014,-0.1002,-10.5,-42.87,-11.75,244.22,-86.8,-147.66
52.96685,-1.755612,222.21,21.05,6,38.65,22 / 24,1605713,2019-11-06 12:12:39:594,-0.6429,-0.7356,10.6409,0.0147,0.0161,9.8066,0.0175,0.0402,-0.0089,-11.12,-42.75,-11.12,247.08,-86.56,-149.16
52.96685,-1.755612,222.21,21.05,6,38.65,22 / 24,1605812,2019-11-06 12:12:39:693,-0.3125,-1.7898,9.9387,0.0011,0.0244,9.8065,0.0408,0.0504,-0.0652,-11.25,-42.19,-11.44,245.45,-86.33,-150.55
52.96685,-1.755612,222.21,21.05,6,38.65,22 / 24,1605912,2019-11-06 12:12:39:793,1.7295,-0.3077,10.3899,-0.0035,0.0037,9.8066,-0.0228,0.0448,-0.0345,-11.19,-42.25,-11.25,246.25,-86.3,-149.59
52.96685,-1.755612,222.21,21.05,6,38.65,22 / 24,1606012,2019-11-06 12:12:39:893,-0.1007,0.2081,10.1223,-0.0107,-0.0181,9.8066,-0.125,-0.0817,0.0445,-11.31,-42.5,-11.69,244.72,-86.38,-149.36
52.96685,-1.755612,222.21,21.05,6,38.65,22 / 24,1606112,2019-11-06 12:12:39:993,0.0964,-1.2262,9.4012,-0.0194,0.0147,9.8065,-0.0531,-0.0347,-0.0219,-11.12,-42.31,-11.87,242.99,-86.44,-151.34
52.96685,-1.755612,222.21,21.05,6,38.65,22 / 24,1606212,2019-11-06 12:12:40:093,-2.34,-2.1195,10.6169,0.0141,0.0202,9.8065,0.0999,-0.179,0.0273,-11.12,-42.37,-12,243.71,-86.43,-150.56
52.96685,-1.755612,222.21,21.05,6,38.65,22 / 24,1606312,2019-11-06 12:12:40:193,-0.0473,-1.9104,10.1236,0.0016,0.0108,9.8066,0.0431,-0.154,0.1335,-11.37,-42.31,-11.25,243.11,-86.22,-152.78
52.96685,-1.755612,222.21,21.05,6,38.65,22 / 24,1606412,2019-11-06 12:12:40:293,0.2849,-1.3734,9.8992,0.0102,-0.0117,9.8066,0.0476,-0.2412,0.1046,-10.69,-42.5,-11.62,242.17,-86.12,-151.51
52.96685,-1.755612,222.21,21.05,6,38.65,23 / 23,1606512,2019-11-06 12:12:40:393,1.1706,-2.9193,10.4271,-0.0085,0.0006,9.8066,0.0516,-0.3451,0.1798,-11.12,-42.25,-11.75,241.15,-86.13,-152.62
52.96685,-1.755612,222.21,21.05,6,38.65,23 / 23,1606612,2019-11-06 12:12:40:493,-0.1863,-0.7508,10.4783,0.0522,-0.0067,9.8065,0.0308,-0.3351,0.2232,-11.44,-42.75,-10.94,241.9,-86.18,-153.78
52.96685,-1.755612,222.21,21.05,6,38.65,23 / 23,1606712,2019-11-06 12:12:40:593,2.0531,-2.7088,10.4871,0.0138,0.0031,9.8066,0.0525,-0.2366,0.1033,-11.25,-41.87,-11,243.4,-85.92,-151.76
52.96685,-1.755612,222.21,21.05,6,38.65,23 / 23,1606812,2019-11-06 12:12:40:693,-0.7586,-1.6315,9.6734,0.06,-0.0218,9.8064,-0.0063,-0.104,0.029,-11.5,-42.37,-11.25,246.49,-85.66,-147.75
52.96685,-1.755612,222.21,21.05,6,38.65,23 / 23,1606912,2019-11-06 12:12:40:793,-2.6905,2.4591,9.4855,0.0419,-0.0359,9.8064,-0.0064,0.0694,-0.0092,-12,-42.5,-11.06,250.38,-85.74,-146.74
52.96685,-1.755612,222.21,21.05,6,38.65,23 / 23,1607011,2019-11-06 12:12:40:892,-1.4738,1.4364,9.537,0.0283,-0.0314,9.8066,-0.0784,0.1955,-0.0909,-11.69,-42.31,-11.31,251.75,-85.78,-145.36
52.96685,-1.755612,222.21,21.05,6,38.65,23 / 23,1607112,2019-11-06 12:12:40:993,-4.5802,0.6726,8.6733,0.0469,-0.0218,9.8064,-0.1179,0.5644,-0.3048,-11.31,-42.44,-11.81,248.46,-85.98,-144.39
52.96685,-1.755612,222.21,21.05,6,38.65,23 / 23,1607213,2019-11-06 12:12:41:094,2.1025,-1.9457,10.2877,-0.0028,-0.002,9.8066,-0.1146,0.5444,-0.2927,-11.87,-42.06,-11.25,255.58,-86.39,-142.88
52.96685,-1.755612,222.21,21.05,6,38.65,23 / 23,1607312,2019-11-06 12:12:41:193,-3.3516,2.6128,9.7133,0.0614,-0.0109,9.8064,-0.1048,0.4901,-0.2188,-11.19,-42.19,-10.87,254.97,-86.36,-140.51
52.96685,-1.755612,222.21,21.05,6,38.65,23 / 23,1607411,2019-11-06 12:12:41:292,1.0565,-2.2722,11.1647,-0.0339,0.0273,9.8065,-0.0346,0.2025,-0.084,-11.44,-42.56,-11.37,251.8,-86.37,-143.66
52.96685,-1.755612,222.21,21.05,6,38.65,23 / 24,1607512,2019-11-06 12:12:41:393,-0.6083,-0.3446,9.8442,0.0248,0.0094,9.8066,-0.0483,0.1525,-0.0493,-11.37,-41.94,-11.37,253.99,-86.1,-140.86
52.96685,-1.755612,222.21,21.05,6,38.65,23 / 24,1607612,2019-11-06 12:12:41:493,-2.9438,0.2512,9.433,-0.0555,0.0276,9.8064,0.0519,-0.0968,0.0764,-11.37,-42.06,-11.62,250.64,-86.27,-142.79
52.96685,-1.755612,222.21,21.05,6,38.65,23 / 24,1607712,2019-11-06 12:12:41:593,-3.8991,1.097,9.4829,-0.0226,0.0052,9.8066,0.0314,-0.2002,0.086,-10.94,-42.81,-11.25,252.95,-86.16,-141.88
52.96685,-1.755612,222.21,21.05,6,38.65,23 / 24,1607812,2019-11-06 12:12:41:693,-1.0767,1.2001,9.1724,-0.0378,0.0262,9.8064,0.0694,-0.3051,0.2154,-11.56,-42.31,-11.31,255.66,-85.98,-141.73
52.96685,-1.755612,222.21,21.05,6,38.65,23 / 24,1607912,2019-11-06 12:12:41:793,0.9658,-1.1487,10.4215,-0.0351,0.0029,9.8065,0.1197,-0.3234,0.1551,-11.5,-42.12,-11.12,250.85,-86.02,-143.97
52.96685,-1.755612,222.21,21.05,6,38.65,23 / 24,1608012,2019-11-06 12:12:41:893,-0.0915,0.2588,10.2297,-0.0143,-0.0003,9.8066,0.0376,-0.275,0.2058,-11.69,-41.94,-11.06,253.27,-85.86,-143.96
52.96685,-1.755612,222.21,21.05,6,38.65,23 / 24,1608112,2019-11-06 12:12:41:993,0.7638,-2.2943,10.0073,-0.0281,0.0253,9.8065,0.0641,-0.3187,0.2528,-11.19,-41.87,-11.37,249.52,-85.72,-144.63
52.96685,-1.755612,222.21,21.05,6,38.65,23 / 24,1608212,2019-11-06 12:12:42:093,-3.5068,-0.2114,9.6069,0.0066,-0.0122,9.8066,-0.0355,-0.1422,0.1316,-11.5,-42.5,-11.06,253.71,-85.59,-139.8
52.96685,-1.755612,222.21,21.05,6,38.65,23 / 24,1608312,2019-11-06 12:12:42:193,0.5957,-1.4032,10.7721,-0.0276,0.0122,9.8066,-0.1222,-0.0588,0.1397,-11.81,-42.37,-11.06,257.41,-85.62,-138.99
52.96685,-1.755612,222.21,21.05,6,38.65,23 / 24,1608412,2019-11-06 12:12:42:293,-3.9507,2.4924,8.811,0.0494,-0.0107,9.8064,-0.004,0.2311,-0.0591,-11.75,-42.44,-11.31,258.32,-85.6,-137.99
52.96685,-1.755612,222.21,21.05,6,38.65,22 / 23,1608512,2019-11-06 12:12:42:393,-1.1717,1.7267,9.8641,-0.0148,-0.0086,9.8065,-0.0302,0.3424,-0.156,-11.75,-42.37,-11.75,257.81,-85.49,-136.23
52.96685,-1.755612,222.21,21.05,6,38.65,22 / 23,1608612,2019-11-06 12:12:42:493,-4.6996,3.2437,8.3342,0.0554,-0.0133,9.8064,-0.1218,0.5478,-0.2915,-11.37,-41.94,-11.5,256.18,-85.6,-137.22
52.96685,-1.755612,222.21,21.05,6,38.65,22 / 23,1608711,2019-11-06 12:12:42:592,-3.1376,0.0611,9.8626,0.0414,-0.0242,9.8065,-0.0563,0.5207,-0.2849,-11.87,-41.69,-12.75,257.99,-85.47,-134.16
52.96685,-1.755612,222.21,21.05,6,38.65,22 / 23,1608811,2019-11-06 12:12:42:692,1.3992,-0.5319,10.0834,0.0107,-0.0191,9.8066,-0.0007,0.2156,-0.1009,-11.75,-42.12,-12,263.36,-85.6,-130.75
52.96685,-1.755612,222.21,21.05,6,38.65,22 / 23,1608911,2019-11-06 12:12:42:792,-3.029,0.3555,9.0865,0.0429,-0.0156,9.8064,0.0024,0.0998,-0.0104,-11.31,-42.37,-12.5,261.17,-85.58,-130
52.96685,-1.755612,222.21,21.05,6,38.65,22 / 23,1609012,2019-11-06 12:12:42:893,0.7183,0.3267,10.2082,-0.0232,-0.0092,9.8065,0.0581,-0.1296,0.0921,-11.56,-42.19,-12.56,263.25,-85.78,-129.46
52.96685,-1.755612,222.21,21.05,6,38.65,22 / 23,1609111,2019-11-06 12:12:42:992,-3.2619,0.2609,9.4891,0.0278,-0.0039,9.8065,-0.0151,-0.0138,0.0709,-11,-41.94,-12.75,260.56,-85.61,-128.94
52.96685,-1.755612,222.21,21.05,6,38.65,22 / 23,1609212,2019-11-06 12:12:43:093,-2.6915,0.1745,9.3942,-0.006,-0.0096,9.8066,0.0033,-0.0289,0.1111,-11.31,-41.75,-12.12,262,-85.62,-129.24
52.96685,-1.755612,222.21,21.05,6,38.65,22 / 23,1609312,2019-11-06 12:12:43:193,-2.3405,0.5131,9.4441,0.0113,-0.0102,9.8065,-0.0397,-0.0285,0.0157,-11.31,-42.81,-12.87,262.32,-85.6,-126.83
52.96685,-1.755612,222.21,21.05,6,38.65,22 / 23,1609412,2019-11-06 12:12:43:293,-0.8033,1.52,9.6226,0.0096,0.0055,9.8066,-0.0715,-0.0256,0.072,-11.31,-42.25,-13.06,263.34,-85.55,-125.92
52.96685,-1.755612,222.21,21.05,6,38.65,23 / 24,1609514,2019-11-06 12:12:43:395,-2.1666,1.0241,10.057,0.0069,-0.0018,9.8066,0.0126,-0.0175,0.084,-11.25,-41.87,-12.5,266.38,-85.49,-124.42
52.96685,-1.755612,222.21,21.05,6,38.65,23 / 24,1609612,2019-11-06 12:12:43:493,-1.73,1.383,9.5744,0.0287,0.0083,9.8065,-0.0664,0.1117,-0.0566,-11.62,-41.87,-12.44,267.75,-85.27,-125.45
52.96685,-1.755612,222.21,21.05,6,38.65,23 / 24,1609712,2019-11-06 12:12:43:593,-1.9603,0.7062,10.5786,-0.0056,-0.0082,9.8066,-0.0401,0.2339,-0.0171,-11.75,-42.06,-12.62,265.91,-85.34,-125.67
52.96685,-1.755612,222.21,21.05,6,38.65,23 / 24,1609811,2019-11-06 12:12:43:692,-3.3758,1.6269,9.4191,0.0164,-0.0018,9.8066,-0.0266,0.2756,-0.1024,-10.81,-41.56,-13.12,261.69,-85.36,-127.15
52.96685,-1.755612,222.21,21.05,6,38.65,23 / 24,1609911,2019-11-06 12:12:43:792,-1.8694,0.058,9.8765,0.0063,-0.0102,9.8066,-0.0329,0.1841,-0.054,-11.06,-42.19,-12.69,262.08,-85.39,-126.82
52.96685,-1.755612,222.21,21.05,6,38.65,23 / 24,1610012,2019-11-06 12:12:43:893,-0.8426,-0.6102,9.5529,0.021,-0.0186,9.8065,-0.0363,0.1397,0.0231,-10.69,-42,-12.75,264.11,-85.36,-124.65
52.96685,-1.755612,222.21,21.05,6,38.65,23 / 24,1610112,2019-11-06 12:12:43:993,-0.6001,-0.2554,9.4998,0.0328,-0.0196,9.8065,0.0166,0.0234,0.026,-10.62,-42.5,-12.81,265.11,-85.37,-123.66
52.96685,-1.755612,222.21,21.05,6,38.65,23 / 24,1610212,2019-11-06 12:12:44:093,-0.5413,-0.1548,10.3103,0.0213,-0.0183,9.8066,0.0343,-0.1071,0.0842,-10.81,-42.5,-13.25,266.67,-85.4,-122.15
52.96685,-1.755612,222.21,21.05,6,38.65,23 / 24,1610311,2019-11-06 12:12:44:192,-4.2784,3.4999,9.2736,0.0452,0.0086,9.8065,0.0957,-0.2117,0.1288,-10.5,-42.12,-13.75,260.19,-85.33,-124.05
52.96685,-1.755612,222.21,21.05,6,38.65,23 / 24,1610412,2019-11-06 12:12:44:293,-1.8368,0.6499,9.8227,0.0027,-0.0014,9.8066,0.0476,-0.3269,0.1859,-10.62,-42.06,-14.06,262.61,-85.47,-124.9
52.96685,-1.755612,222.21,21.05,6,38.65,22 / 22,1610512,2019-11-06 12:12:44:393,-3.6454,2.121,8.6595,0.0315,-0.0153,9.8066,0.1065,-0.2195,0.1301,-9.94,-42.44,-14.06,259.95,-85.43,-124.53
52.96685,-1.755612,222.21,21.05,6,38.65,22 / 22,1610613,2019-11-06 12:12:44:494,-0.8363,-0.0023,10.6458,-0.0047,0.0075,9.8066,0.0928,-0.1806,0.1334,-10.25,-42.44,-14.12,258.34,-85.52,-126.43
52.96685,-1.755612,222.21,21.05,6,38.65,22 / 22,1610712,2019-11-06 12:12:44:593,-2.1169,0.8209,10.7844,0.0173,0.0248,9.8065,0.0534,0.0661,0.0087,-10.19,-41.87,-13.94,256.74,-85.45,-127.94
52.96685,-1.755612,222.21,21.05,6,38.65,22 / 22,1610812,2019-11-06 12:12:44:693,-2.5072,2.2947,10.1178,0.0044,0.0102,9.8066,0.0789,0.1797,-0.0948,-9.75,-42.37,-14.25,256.36,-85.5,-128.46
52.96685,-1.755612,222.21,21.05,6,38.65,22 / 22,1610911,2019-11-06 12:12:44:792,-1.9314,-1.2077,9.5941,-0.0121,0.0296,9.8066,0.0199,0.1764,-0.071,-9.56,-42.12,-13.62,255.28,-85.57,-129.75
52.96685,-1.755612,222.21,21.05,6,38.65,22 / 22,1611012,2019-11-06 12:12:44:893,-4.737,0.3299,9.4025,0.0228,0.0167,9.8066,0.0378,0.1073,0.0144,-9.69,-42,-13.81,254.67,-85.6,-130.48
52.96685,-1.755612,222.21,21.05,6,38.65,22 / 22,1611112,2019-11-06 12:12:44:993,-1.6459,-2.5939,9.6505,0.0007,-0.0117,9.8066,0.0865,-0.0525,-0.001,-9.56,-42.06,-14.69,252.76,-85.59,-131.1
52.96685,-1.755612,222.21,21.05,6,38.65,22 / 22,1611212,2019-11-06 12:12:45:093,-1.3406,-0.1926,10.043,0.0245,-0.0009,9.8066,0.0518,-0.0267,0.027,-9.31,-42.62,-14.12,253.81,-85.64,-128.08
52.96685,-1.755612,222.21,21.05,6,38.65,22 / 22,1611312,2019-11-06 12:12:45:193,-0.0507,-0.947,10.3585,0.0176,-0.0005,9.8065,0.0087,-0.1772,0.1611,-9.75,-42.56,-14.62,256.37,-85.74,-127.42
52.96685,-1.755612,222.21,21.05,6,38.65,22 / 22,1611412,2019-11-06 12:12:45:293,-0.4841,1.4228,9.5455,0.0129,0.004,9.8066,0.0525,-0.1339,0.0359,-9,-42.44,-14.44,254.85,-85.85,-127.75
52.96685,-1.755612,222.21,21.05,6,38.65,24 / 26,1611512,2019-11-06 12:12:45:393,-3.8689,0.6904,9.0592,0.004,0.0006,9.8066,0.0131,-0.1774,0.1357,-8.44,-42.25,-14.06,251.48,-85.94,-128.21
52.96685,-1.755612,222.21,21.05,6,38.65,24 / 26,1611612,2019-11-06 12:12:45:493,-1.6191,0.3716,9.6923,0.0028,-0.0318,9.8065,-0.0568,-0.092,0.1828,-8.5,-42.44,-14.19,250.64,-86.19,-129.72
52.96685,-1.755612,222.21,21.05,6,38.65,24 / 26,1611712,2019-11-06 12:12:45:593,-3.1281,-0.4349,8.684,-0.0025,-0.0068,9.8066,0.0111,-0.0273,-0.0662,-8.19,-42.37,-14.87,252.24,-86.43,-127.42
52.96685,-1.755612,222.21,21.05,6,38.65,24 / 26,1611812,2019-11-06 12:12:45:693,0.1627,-0.6146,10.049,-0.0166,-0.001,9.8066,-0.0119,0.0236,0.014,-8.37,-42.12,-15.12,253.94,-86.56,-125.95
52.96685,-1.755612,222.21,21.05,6,38.65,24 / 26,1611912,2019-11-06 12:12:45:793,-2.4828,1.4328,9.4505,0.0317,-0.0064,9.8066,-0.0237,0.1234,-0.0159,-8.31,-42.81,-15.5,254.81,-86.47,-124.62
52.96685,-1.755612,222.21,21.05,6,38.65,24 / 26,1612012,2019-11-06 12:12:45:893,0.4233,0.0639,10.4821,-0.0235,0.006,9.8065,-0.0408,0.1663,-0.0926,-8.06,-41.94,-14.94,254.12,-86.54,-125.72
52.96685,-1.755612,222.21,21.05,6,38.65,24 / 26,1612111,2019-11-06 12:12:45:992,-0.2112,-1.913,9.8929,0.0046,0.0101,9.8066,0.0578,0.3463,-0.1297,-8.44,-42.56,-15.06,252.89,-86.39,-126.46
52.96685,-1.755612,222.21,21.05,6,38.65,24 / 26,1612211,2019-11-06 12:12:46:092,0.5824,-1.8222,10.2258,-0.0276,0.0307,9.8065,-0.0075,0.2731,-0.155,-8.69,-42.44,-15.12,256.26,-86.39,-126.28
52.96685,-1.755612,222.21,21.05,6,38.65,24 / 26,1612312,2019-11-06 12:12:46:193,-1.1031,-0.2697,9.0164,-0.037,0.0118,9.8065,-0.0656,0.2084,-0.1515,-8.69,-42.25,-14.69,252.35,-86.5,-130.6
52.96685,-1.755612,222.21,21.05,6,38.65,24 / 26,1612412,2019-11-06 12:12:46:293,-1.9044,0.2552,10.2839,-0.032,0.0117,9.8066,-0.0408,0.1367,-0.1147,-8.44,-42.56,-14.56,246.68,-86.65,-133.63
52.96685,-1.755612,222.21,21.05,6,38.65,23 / 25,1612512,2019-11-06 12:12:46:393,-0.5958,-1.5871,9.6241,0.0036,-0.0153,9.8066,0.0555,0.0215,-0.0669,-8,-42.19,-15.37,247.24,-86.77,-133.47
52.96685,-1.755612,222.21,21.05,6,38.65,23 / 25,1612612,2019-11-06 12:12:46:493,-1.758,-0.5193,8.4905,-0.0064,-0.0042,9.8066,0.1222,-0.0268,-0.0821,-7.94,-42.56,-15,247.8,-86.92,-133.06
52.96685,-1.755612,222.21,21.05,6,38.65,23 / 25,1612711,2019-11-06 12:12:46:592,-0.149,0.8018,10.0782,-0.0185,-0.0082,9.8066,0.0466,-0.1421,0.0255,-6.94,-42.5,-15.19,246.73,-87.18,-131.72
52.96685,-1.755612,222.21,21.05,6,38.65,23 / 25,1612812,2019-11-06 12:12:46:693,-1.1868,-1.2129,10.0065,0.0023,0.0095,9.8066,0.0263,-0.0849,0.0974,-7.69,-43,-14.62,249.46,-87.2,-131.99
52.96685,-1.755612,222.21,21.05,6,38.65,23 / 25,1612912,2019-11-06 12:12:46:793,-0.0179,-1.089,10.4832,-0.0119,-0.0054,9.8066,0.0232,-0.0845,0.0501,-7.87,-42.56,-14.25,249.41,-87.26,-133.49
52.96685,-1.755612,222.21,21.05,6,38.65,23 / 25,1613011,2019-11-06 12:12:46:892,-1.4219,-1.5015,8.8467,0.0191,0.026,9.8065,0.1538,-0.0132,-0.0397,-7.87,-42.94,-15.44,244.89,-87.21,-136.79
52.96685,-1.755612,222.21,21.05,6,38.65,23 / 25,1613112,2019-11-06 12:12:46:993,0.906,-0.8067,8.9281,-0.0039,0.0089,9.8066,-0.05,-0.1272,-0.0164,-8.12,-42.12,-14.87,243.76,-87.39,-138.52
52.96685,-1.755612,222.21,21.05,6,38.65,23 / 25,1613212,2019-11-06 12:12:47:093,-1.2453,-0.078,9.984,-0.0189,-0.0075,9.8065,-0.1004,-0.0464,0.0638,-7.81,-42.62,-16,246.52,-87.65,-134.87
52.96685,-1.755612,222.21,21.05,6,38.65,23 / 25,1613312,2019-11-06 12:12:47:193,0.0581,-1.6384,8.8837,-0.0302,-0.0133,9.8065,-0.0157,-0.1847,0.1148,-7.94,-42.62,-15.87,250.05,-88.05,-132.12
52.96685,-1.755612,222.21,21.05,6,38.65,23 / 25,1613412,2019-11-06 12:12:47:293,-1.9406,-1.0523,9.7903,-0.0006,-0.0074,9.8066,0.0022,-0.1491,0.0608,-7.37,-42.94,-15.25,246.16,-88.08,-134.3
52.968136,-1.754029,226.18,18.64,6,26.56,24 / 25,1613512,2019-11-06 12:12:47:393,0.7275,-1.6741,10.4946,-0.0279,0.0161,9.8065,0.0603,-0.1798,0.1183,-7,-42.87,-15.44,235.95,-88.07,-144.92
52.968136,-1.754029,226.18,18.64,6,26.56,24 / 25,1613611,2019-11-06 12:12:47:492,-0.9197,-0.2108,9.8011,0.0174,0.01,9.8066,0.0286,-0.0867,0.158,-6.94,-43.12,-15,235.32,-87.84,-145.1
52.968136,-1.754029,226.18,18.64,6,26.56,24 / 25,1613712,2019-11-06 12:12:47:593,0.6688,0.0681,10.1236,-0.0048,-0.0048,9.8066,0.0576,-0.1612,0.0637,-7.44,-42.81,-15.25,233.87,-87.92,-146.8
52.968136,-1.754029,226.18,18.64,6,26.56,24 / 25,1613812,2019-11-06 12:12:47:693,-1.1703,-0.363,9.6729,0.0045,0.0065,9.8066,0.0229,-0.0592,0.0238,-7.19,-42.69,-15.37,236.11,-87.93,-144.47
52.968136,-1.754029,226.18,18.64,6,26.56,24 / 25,1613912,2019-11-06 12:12:47:793,-0.7668,-0.8984,8.9598,-0.0112,0.0093,9.8066,-0.0688,-0.0973,0.058,-7.44,-42.25,-14.94,238.28,-87.87,-142.16
52.968136,-1.754029,226.18,18.64,6,26.56,24 / 25,1614013,2019-11-06 12:12:47:894,-0.1688,-1.4547,9.6687,0.0057,-0.0159,9.8066,-0.042,-0.0292,0.0582,-8,-42.62,-15.19,242.38,-87.84,-140.86
52.968136,-1.754029,226.18,18.64,6,26.56,24 / 25,1614112,2019-11-06 12:12:47:993,-1.3685,-1.7018,9.4617,0.0071,-0.008,9.8066,-0.0028,-0.0028,-0.0084,-7.25,-42.62,-15.31,240.09,-87.9,-140.19
52.968136,-1.754029,226.18,18.64,6,26.56,24 / 25,1614212,2019-11-06 12:12:48:093,0.3587,0.2525,9.7721,-0.0261,-0.0028,9.8066,-0.0152,0.076,-0.0707,-7.44,-42.5,-15.75,239.19,-88.15,-140.62
52.968136,-1.754029,226.18,18.64,6,26.56,24 / 25,1614312,2019-11-06 12:12:48:193,-2.2046,-0.6615,9.7083,0.0043,-0.0042,9.8066,0.0552,0.0206,0.0249,-7.69,-42.31,-15.37,243.14,-88.22,-141.03
52.968136,-1.754029,226.18,18.64,6,26.56,24 / 25,1614412,2019-11-06 12:12:48:293,2.1047,-1.3213,10.5094,-0.0086,0.0057,9.8066,0.0707,-0.0785,-0.0217,-7.56,-43,-14.56,235.95,-88.34,-148.65
52.968136,-1.754029,226.18,18.64,6,26.56,22 / 22,1614512,2019-11-06 12:12:48:393,-1.1612,0.6792,9.7148,0.0297,0.0129,9.8066,0.066,-0.2026,0.0457,-6.75,-42.69,-15.31,229.74,-88.11,-151.55
52.968136,-1.754029,226.18,18.64,6,26.56,22 / 22,1614611,2019-11-06 12:12:48:492,-3.7053,0.3518,9.4318,0.0295,-0.0001,9.8066,0.0344,-0.406,0.2187,-7.19,-42.44,-15.69,229.61,-88.13,-150.61
52.968136,-1.754029,226.18,18.64,6,26.56,22 / 22,1614712,2019-11-06 12:12:48:593,-0.7913,-0.6783,10.1173,0.022,-0.0027,9.8066,0.0147,-0.3724,0.1903,-7.06,-42.37,-15.5,230.16,-88.19,-151.34
52.968136,-1.754029,226.18,18.64,6,26.56,22 / 22,1614812,2019-11-06 12:12:48:693,-3.6827,1.0858,9.2251,0.0456,-0.0159,9.8064,-0.0212,-0.1739,0.1681,-7.37,-42.5,-15.44,232.02,-88.18,-149.36
52.968136,-1.754029,226.18,18.64,6,26.56,22 / 22,1614912,2019-11-06 12:12:48:793,0.6335,0.2851,8.9446,0.0005,-0.0176,9.8065,-0.0535,-0.0116,0.1331,-7.44,-42.56,-15.12,230.8,-88.19,-150.59
52.968136,-1.754029,226.18,18.64,6,26.56,22 / 22,1615012,2019-11-06 12:12:48:893,-1.7104,-0.6793,9.2863,0.0246,-0.0263,9.8065,-0.05,-0.0564,0.0864,-8,-42.19,-15.44,241.13,-88.23,-143.13
52.968136,-1.754029,226.18,18.64,6,26.56,22 / 22,1615112,2019-11-06 12:12:48:993,0.1166,-0.9342,10.0691,0.0032,-0.0014,9.8066,0.0036,0.0589,0.0574,-7.44,-42,-14.56,241.38,-88.22,-139.68
52.968136,-1.754029,226.18,18.64,6,26.56,22 / 22,1615212,2019-11-06 12:12:49:093,-1.317,0.9754,8.6965,-0.0009,0.012,9.8066,0.0564,0.0364,-0.0668,-7.69,-42.25,-15.37,245.79,-88.28,-138.41
52.968136,-1.754029,226.18,18.64,6,26.56,22 / 22,1615312,2019-11-06 12:12:49:193,0.8383,-1.5558,9.8771,-0.0379,0.03,9.8065,0.0953,0.1954,-0.1566,-7.81,-42,-14.75,245.1,-88.51,-139.63
52.968136,-1.754029,226.18,18.64,6,26.56,22 / 22,1615412,2019-11-06 12:12:49:293,-1.8093,2.9276,9.2026,0.0182,-0.02,9.8066,-0.0094,0.2949,-0.1404,-7.62,-41.81,-15.5,249.93,-88.41,-134.45
52.968136,-1.754029,226.18,18.64,6,26.56,24 / 25,1615512,2019-11-06 12:12:49:393,0.6067,-1.0545,10.3029,-0.0414,0.0041,9.8065,-0.052,0.3073,-0.1609,-7.25,-42.12,-15,242.17,-88.59,-139.69
52.968136,-1.754029,226.18,18.64,6,26.56,24 / 25,1615612,2019-11-06 12:12:49:493,-1.4761,1.0164,9.4702,0.0017,-0.0205,9.8066,-0.0392,0.2248,-0.1121,-7.37,-41.87,-15.5,246.37,-88.51,-135.19
52.968136,-1.754029,226.18,18.64,6,26.56,24 / 25,1615712,2019-11-06 12:12:49:593,-1.7368,-0.2068,10.4048,-0.0216,0.0209,9.8066,0.0139,0.1976,-0.0759,-7.06,-41.87,-15.94,234.52,-88.51,-146.2
52.968136,-1.754029,226.18,18.64,6,26.56,24 / 25,1615812,2019-11-06 12:12:49:693,-2.2992,-0.0583,9.7569,-0.0153,0.0159,9.8066,-0.0398,0.1997,-0.1544,-6.75,-42.12,-16,233.44,-88.47,-147.23
52.968136,-1.754029,226.18,18.64,6,26.56,24 / 25,1615912,2019-11-06 12:12:49:793,-0.6935,-1.2072,10.375,-0.019,0.0108,9.8066,0.0027,0.1465,-0.074,-7,-42.37,-15.56,233.07,-88.41,-147.52
52.968136,-1.754029,226.18,18.64,6,26.56,24 / 25,1616011,2019-11-06 12:12:49:892,1.3651,-0.1919,10.0379,-0.0148,0.0133,9.8066,0.0208,0.1011,-0.0472,-7,-42.44,-15.62,231.45,-88.53,-149.41
52.968136,-1.754029,226.18,18.64,6,26.56,24 / 25,1616112,2019-11-06 12:12:49:993,0.1742,-0.9809,9.6876,-0.0192,0.0188,9.8065,0.0165,-0.0097,-0.0518,-7,-42.06,-16.12,227.36,-88.52,-153.66
52.968136,-1.754029,226.18,18.64,6,26.56,24 / 25,1616212,2019-11-06 12:12:50:093,1.1142,1.0458,10.5601,-0.0231,-0.0113,9.8066,0.0849,-0.049,-0.0177,-6.94,-42.19,-15.75,226.91,-88.65,-154.36
52.968136,-1.754029,226.18,18.64,6,26.56,24 / 25,1616312,2019-11-06 12:12:50:193,-0.0003,-0.4288,9.952,0.0123,0.0144,9.8066,0.1046,-0.2031,0.0275,-7.19,-42,-15.37,220.14,-88.44,-162.34
52.968136,-1.754029,226.18,18.64,6,26.56,24 / 25,1616412,2019-11-06 12:12:50:293,-1.2886,-0.061,9.8843,-0.007,0.0108,9.8066,0.0574,-0.1579,0.0747,-7.37,-42.19,-15.56,211.75,-88.41,-169.88
52.968136,-1.754029,226.18,18.64,6,26.56,24 / 25,1616511,2019-11-06 12:12:50:392,0.6675,-0.5256,10.0147,0.0203,-0.0046,9.8066,0.0093,-0.1456,0.0739,-7.12,-41.94,-15.75,214.45,-88.28,-166.84
52.968136,-1.754029,226.18,18.64,6,26.56,24 / 25,1616612,2019-11-06 12:12:50:493,1.1329,0.5513,10.1359,0.0036,-0.0027,9.8066,-0.0573,-0.053,0.0871,-7.19,-42.31,-15.56,215.17,-88.35,-166.19
52.968136,-1.754029,226.18,18.64,6,26.56,24 / 25,1616712,2019-11-06 12:12:50:593,0.5637,-2.021,9.7977,0.0046,-0.007,9.8066,-0.031,0.0899,-0.0434,-6.94,-41.81,-16.37,222.54,-88.58,-158.79
52.968136,-1.754029,226.18,18.64,6,26.56,24 / 25,1616812,2019-11-06 12:12:50:693,-1.1716,-1.2104,9.3424,0.0182,-0.0022,9.8066,-0.057,0.1546,-0.0442,-7.62,-41.81,-15.62,227.95,-88.62,-156.22
52.968136,-1.754029,226.18,18.64,6,26.56,24 / 25,1616912,2019-11-06 12:12:50:793,0.8547,0.1329,9.6144,0.0002,0.0217,9.8066,0.0123,0.0989,-0.0805,-7.19,-41.69,-16.12,224.46,-88.64,-156.88
52.968136,-1.754029,226.18,18.64,6,26.56,24 / 25,1617012,2019-11-06 12:12:50:893,-0.0919,-0.6236,9.0827,-0.0006,-0.003,9.8066,-0.1133,-0.0114,0.0238,-8,-41.81,-15.87,222.93,-88.5,-161.25
52.968136,-1.754029,226.18,18.64,6,26.56,24 / 25,1617112,2019-11-06 12:12:50:993,-0.7418,1.0954,9.9522,-0.0118,0.0088,9.8066,0.0262,-0.1375,0.0895,-7.12,-42.12,-15.94,217.97,-88.53,-163.49
52.968136,-1.754029,226.18,18.64,6,26.56,24 / 25,1617212,2019-11-06 12:12:51:093,-0.1901,-1.6476,10.1559,-0.0244,-0.0046,9.8066,0.0436,-0.1531,0.1453,-7.12,-41.81,-16.12,221.36,-88.68,-160.17
52.968136,-1.754029,226.18,18.64,6,26.56,24 / 25,1617312,2019-11-06 12:12:51:193,-0.9106,-1.1527,10.1567,0.0082,0.0137,9.8066,0.0236,-0.1198,0.0693,-7.5,-41.75,-15.56,222.35,-88.43,-158.75
52.968136,-1.754029,226.18,18.64,6,26.56,24 / 25,1617412,2019-11-06 12:12:51:293,0.0986,-0.5721,10.5028,-0.0037,0.0043,9.8066,0.1174,-0.023,0.068,-6.5,-42.62,-15.44,222.57,-88.41,-156.38
52.968136,-1.754029,226.18,18.64,6,26.56,23 / 24,1617513,2019-11-06 12:12:51:394,1.3598,-0.3528,9.9216,-0.0049,-0.018,9.8066,-0.0516,-0.0112,0.0377,-7.31,-42.06,-15.19,228.98,-88.29,-152.77
52.968136,-1.754029,226.18,18.64,6,26.56,23 / 24,1617611,2019-11-06 12:12:51:492,0.3805,-1.9389,9.8769,-0.0204,-0.0083,9.8066,-0.0099,-0.1585,0.1207,-7.19,-42.31,-15.25,233.68,-88.53,-148.34
52.968136,-1.754029,226.18,18.64,6,26.56,23 / 24,1617712,2019-11-06 12:12:51:593,-1.4103,0.5322,9.7746,-0.0317,0.0025,9.8065,-0.0176,-0.2683,0.0797,-7.44,-41.94,-15.06,233.99,-88.71,-148.39
52.968136,-1.754029,226.18,18.64,6,26.56,23 / 24,1617812,2019-11-06 12:12:51:693,0.4296,-0.2227,10.2494,-0.0379,0.0138,9.8066,-0.0356,-0.2023,0.1062,-7.25,-42.5,-15.69,229.36,-88.83,-152.14
52.968136,-1.754029,226.18,18.64,6,26.56,23 / 24,1617912,2019-11-06 12:12:51:793,0.8078,1.1655,9.6563,-0.0319,0.0057,9.8066,0.0049,-0.1849,0.1015,-7.81,-41.94,-15.31,228.99,-88.98,-157.2
52.968136,-1.754029,226.18,18.64,6,26.56,23 / 24,1618012,2019-11-06 12:12:51:893,0.0788,-2.181,10.2389,-0.0236,0.0054,9.8066,0.005,-0.1166,0.0215,-7.87,-42.31,-15.06,226.32,-88.97,-159.91
52.968136,-1.754029,226.18,18.64,6,26.56,23 / 24,1618112,2019-11-06 12:12:51:993,0.8315,0.9418,10.5844,-0.0288,-0.0173,9.8066,0.2769,-0.1873,-0.0479,-8.44,-42.5,-15.56,221.42,-88.99,-163.58
52.968136,-1.754029,226.18,18.64,6,26.56,23 / 24,1618212,2019-11-06 12:12:52:093,1.122,-2.1313,9.162,-0.0216,-0.0253,9.8065,0.134,-0.0679,-0.0866,-8,-41.56,-15.94,209.83,-89.16,-175.75
52.968136,-1.754029,226.18,18.64,6,26.56,23 / 24,1618311,2019-11-06 12:12:52:192,-0.5692,1.5683,10.4084,0.0195,-0.0038,9.8066,-0.0295,-0.021,-0.0297,-7.44,-42.31,-15.62,202.97,-89.35,179.95
52.968136,-1.754029,226.18,18.64,6,26.56,23 / 24,1618412,2019-11-06 12:12:52:293,-0.9566,0.9143,10.0555,-0.0407,0.0107,9.8065,0.0469,0.0895,-0.0081,-7.69,-42.69,-16.19,187.57,-89.49,161.17
52.968136,-1.754029,226.18,18.64,6,26.56,22 / 23,1618512,2019-11-06 12:12:52:393,-2.1377,0.8885,9.8079,0.0475,-0.0072,9.8065,-0.0922,0.2623,-0.2821,-7.62,-42.81,-15.5,193.05,-89.53,165.25
52.968136,-1.754029,226.18,18.64,6,26.56,22 / 23,1618612,2019-11-06 12:12:52:493,-1.5297,0.9112,10.1409,0.0055,0.0085,9.8066,-0.0183,0.2826,-0.1631,-7.81,-42.5,-15.62,193.97,-89.49,167.69
52.968136,-1.754029,226.18,18.64,6,26.56,22 / 23,1618712,2019-11-06 12:12:52:593,-2.0943,0.6264,9.6651,0.0248,-0.0188,9.8065,-0.0488,0.3113,-0.1838,-7.37,-42.19,-15.75,211.22,-89.5,-171.79
52.968136,-1.754029,226.18,18.64,6,26.56,22 / 23,1618812,2019-11-06 12:12:52:693,-0.8328,1.4467,10.4992,0.0524,0.0022,9.8064,-0.1515,0.1691,-0.1535,-7.19,-42,-15.75,203.83,-89.51,-179.32
52.968136,-1.754029,226.18,18.64,6,26.56,22 / 23,1618912,2019-11-06 12:12:52:793,1.7649,-1.2243,9.6359,-0.0021,-0.0028,9.8066,0.0493,0.0346,0.0834,-7.06,-42.37,-15.12,195.16,-89.42,170.53
52.968136,-1.754029,226.18,18.64,6,26.56,22 / 23,1619012,2019-11-06 12:12:52:893,0.2645,1.0455,10.3415,0.0622,-0.0211,9.8064,-0.0069,-0.0052,0.0546,-7.12,-41.87,-15.62,216.2,-89.39,-166.57
52.968136,-1.754029,226.18,18.64,6,26.56,22 / 23,1619112,2019-11-06 12:12:52:993,2.6757,-0.0705,9.9007,0.0026,-0.0028,9.8066,0.0967,-0.1998,0.1042,-7.31,-42.25,-15.81,191.71,-89.53,168.31
52.968136,-1.754029,226.18,18.64,6,26.56,22 / 23,1619212,2019-11-06 12:12:53:093,-1.4604,0.2105,9.4267,0.0308,-0.0132,9.8065,0.1935,-0.2399,0.2353,-7.81,-41.87,-16.62,213,-89.38,-171.44
52.968136,-1.754029,226.18,18.64,6,26.56,22 / 23,1619312,2019-11-06 12:12:53:193,1.0783,-1.8675,9.3267,-0.0013,-0.0031,9.8066,-0.0244,-0.2839,-0.0074,-8,-42.25,-15.31,200.07,-89.38,172.52
52.968136,-1.754029,226.18,18.64,6,26.56,22 / 23,1619412,2019-11-06 12:12:53:293,-0.4722,0.3055,10.0308,-0.0278,0.0002,9.8066,0.0132,-0.2048,0.096,-7.62,-42.06,-15.31,190.46,-89.45,162.63
52.968136,-1.754029,226.18,18.64,6,26.56,24 / 24,1619512,2019-11-06 12:12:53:393,-0.4888,-0.2352,9.5963,-0.0238,0.0032,9.8066,0.0165,-0.1083,0.1463,-7.5,-41.62,-15.94,193.72,-89.48,170.39
52.968136,-1.754029,226.18,18.64,6,26.56,24 / 24,1619612,2019-11-06 12:12:53:493,-1.5536,-0.0461,8.9957,-0.0069,-0.0139,9.8066,-0.0243,-0.1456,-0.058,-7.81,-42.25,-16.06,195.38,-89.57,169.08
52.968136,-1.754029,226.18,18.64,6,26.56,24 / 24,1619712,2019-11-06 12:12:53:593,1.6081,-1.3187,9.8667,-0.039,-0.0022,9.8065,0.0674,-0.2228,0.1737,-7,-42,-15.94,212.45,-89.65,-170.73
52.968136,-1.754029,226.18,18.64,6,26.56,24 / 24,1619811,2019-11-06 12:12:53:692,1.0304,1.3602,10.1903,-0.0104,-0.014,9.8066,-0.1532,-0.2192,0.1317,-7.87,-42.31,-15.62,70.28,-89.93,43.57
52.968136,-1.754029,226.18,18.64,6,26.56,24 / 24,1619912,2019-11-06 12:12:53:793,2.9976,0.8158,10.7522,-0.0667,-0.0187,9.8064,0.0907,-0.1432,0.124,-7.25,-42.25,-16.44,67.15,-89.7,42.86
52.968136,-1.754029,226.18,18.64,6,26.56,24 / 24,1620011,2019-11-06 12:12:53:892,-0.2553,-1.087,9.4165,-0.0214,0.0032,9.8065,0.1158,-0.0065,0.0197,-7.56,-41.44,-16.44,50.45,-89.79,23.51
52.968136,-1.754029,226.18,18.64,6,26.56,24 / 24,1620111,2019-11-06 12:12:53:992,-4.0375,0.8239,9.7577,-0.0473,0.0112,9.8065,-0.0412,0.2059,-0.1086,-7.69,-42,-15.94,48.19,-89.61,20.95
52.968136,-1.754029,226.18,18.64,6,26.56,24 / 24,1620212,2019-11-06 12:12:54:093,-1.7055,-1.0082,10.0908,-0.0499,0.0159,9.8065,-0.0359,0.2632,-0.1289,-7.75,-42.31,-16.44,25.71,-89.62,-1.24
52.968136,-1.754029,226.18,18.64,6,26.56,24 / 24,1620312,2019-11-06 12:12:54:193,-2.0202,0.2822,8.8458,0.0018,0.0203,9.8066,-0.1472,0.3309,-0.1185,-7.44,-41.81,-16.62,346.54,-89.74,-35.7
52.968136,-1.754029,226.18,18.64,6,26.56,24 / 24,1620412,2019-11-06 12:12:54:293,0.8353,1.1186,10.8738,-0.0362,-0.0083,9.8066,-0.1271,0.2068,-0.009,-6.75,-43.19,-16.12,351.25,-89.87,-32.33
52.968136,-1.754029,226.18,18.64,6,26.56,23 / 24,1620512,2019-11-06 12:12:54:393,-0.7343,1.1908,9.7896,0.0448,0.0046,9.8065,0.0495,0.0653,0.0589,-7.62,-42.62,-14.81,289.74,-89.58,-97.33
52.968136,-1.754029,226.18,18.64,6,26.56,23 / 24,1620612,2019-11-06 12:12:54:493,0.1151,1.8015,9.9509,0.0515,-0.0039,9.8065,0.0417,-0.2353,0.1854,-7.19,-42.69,-15.19,283.02,-89.48,-100.68
52.968136,-1.754029,226.18,18.64,6,26.56,23 / 24,1620712,2019-11-06 12:12:54:593,3.7742,-1.0977,9.9662,0.045,-0.0083,9.8065,0.015,-0.3035,0.266,-7.87,-42.06,-14.69,280.59,-89.46,-106.16
52.968136,-1.754029,226.18,18.64,6,26.56,23 / 24,1620812,2019-11-06 12:12:54:693,-1.9345,1.2221,9.3163,0.0679,-0.0361,9.8063,0.0187,-0.5175,0.3619,-8.25,-41.87,-15.62,284.86,-89.04,-99.54
52.968136,-1.754029,226.18,18.64,6,26.56,23 / 24,1620912,2019-11-06 12:12:54:793,2.6283,-3.1408,10.334,0.031,-0.0103,9.8065,0.046,-0.463,0.355,-8.31,-42.56,-15.81,287.15,-88.87,-96.82
52.968136,-1.754029,226.18,18.64,6,26.56,23 / 24,1621012,2019-11-06 12:12:54:893,-2.3192,0.4247,9.2797,0.0675,-0.0219,9.8064,0.0425,-0.3809,0.1469,-7.62,-42.5,-14.94,295.19,-88.73,-90.03
52.968136,-1.754029,226.18,18.64,6,26.56,23 / 24,1621112,2019-11-06 12:12:54:993,2.037,-0.7916,9.9094,-0.0109,0.0121,9.8066,0.0606,-0.3054,0.2081,-7.87,-42.69,-15.37,295.17,-88.82,-90.2
52.968136,-1.754029,226.18,18.64,6,26.56,23 / 24,1621212,2019-11-06 12:12:55:093,-2.8695,2.6885,9.6496,0.0418,-0.0127,9.8065,-0.0372,-0.1471,0.017,-8,-41.94,-16.31,293.89,-88.76,-90
52.968136,-1.754029,226.18,18.64,6,26.56,23 / 24,1621315,2019-11-06 12:12:55:196,0.626,-0.4451,9.5072,-0.0573,0.0014,9.8064,-0.0632,0.0217,-0.0299,-7.56,-42.37,-15.25,290.52,-88.76,-94.68
52.968136,-1.754029,226.18,18.64,6,26.56,23 / 24,1621412,2019-11-06 12:12:55:293,-1.4031,1.7706,9.9018,0.0232,-0.001,9.8065,-0.1052,0.1821,-0.0909,-7.56,-41.87,-16.31,293.17,-88.95,-91.11
52.968136,-1.754029,226.18,18.64,6,26.56,23 / 24,1621512,2019-11-06 12:12:55:393,-0.8214,-0.6793,9.7478,-0.0389,-0.0022,9.8066,-0.1076,0.2386,-0.1012,-8.37,-42.12,-15.5,301.6,-88.72,-83.78
52.968136,-1.754029,226.18,18.64,6,26.56,23 / 24,1621612,2019-11-06 12:12:55:493,-3.6212,1.0232,10.8305,0.0251,0.0013,9.8066,0.1251,0.2524,-0.1754,-8.31,-42.31,-14.69,294.69,-88.36,-89.69
52.968136,-1.754029,226.18,18.64,6,26.56,23 / 24,1621712,2019-11-06 12:12:55:593,2.8902,-0.768,10.1087,-0.0648,0.0407,9.8063,-0.0452,0.4117,-0.2647,-9.12,-42.12,-15.37,295.51,-88.49,-92.17
52.968136,-1.754029,226.18,18.64,6,26.56,23 / 24,1621812,2019-11-06 12:12:55:693,4.4864,-1.5228,10.6529,-0.0129,0.0222,9.8066,-0.0816,0.7082,-0.3814,-8.56,-42.62,-15.25,287.06,-88.15,-99.55
52.968136,-1.754029,226.18,18.64,6,26.56,23 / 24,1621912,2019-11-06 12:12:55:793,3.1441,-2.4927,10.9364,-0.0763,0.0191,9.8063,-0.091,0.6025,-0.3555,-8.56,-42.44,-15.62,284.14,-87.99,-100.73
52.968136,-1.754029,226.18,18.64,6,26.56,23 / 24,1622012,2019-11-06 12:12:55:893,3.0268,-1.5324,11.2645,-0.0928,0.0299,9.8061,0.0215,0.2617,-0.2616,-8.12,-42.44,-15,277.14,-88.48,-107.19
52.968136,-1.754029,226.18,18.64,6,26.56,23 / 24,1622112,2019-11-06 12:12:55:993,-2.747,1.9566,8.9188,-0.0373,0.0265,9.8064,0.0727,0.1591,-0.1725,-8,-41.81,-15.06,265.79,-88.59,-118.81
52.968136,-1.754029,226.18,18.64,6,26.56,23 / 24,1622212,2019-11-06 12:12:56:093,0.9921,-0.9979,9.9351,-0.062,-0.0106,9.8064,-0.0057,-0.1445,-0.0067,-8.12,-42.06,-14.87,268.82,-88.92,-116.59
52.968136,-1.754029,226.18,18.64,6,26.56,23 / 24,1622312,2019-11-06 12:12:56:193,0.0034,0.689,8.7474,-0.0132,0.011,9.8066,0.0435,-0.1196,-0.0559,-7.31,-41.81,-15.56,265.88,-89.18,-115.79
52.968136,-1.754029,226.18,18.64,6,26.56,23 / 24,1622412,2019-11-06 12:12:56:293,-1.7521,-0.7933,9.7982,-0.0025,-0.0053,9.8066,0.0406,0.0004,-0.1034,-7.37,-42.12,-15.06,270.74,-89.36,-112.66
52.96943,-1.753003,229.46,17.13,4,26.09,23 / 25,1622512,2019-11-06 12:12:56:393,-0.6761,-0.845,9.8549,-0.0153,0.0156,9.8066,-0.0274,-0.0143,-0.0218,-7.69,-41.81,-15.75,266.17,-89.48,-119.17
52.96943,-1.753003,229.46,17.13,4,26.09,23 / 25,1622612,2019-11-06 12:12:56:493,-0.8216,0.5774,10.1764,0.0299,0.0269,9.8065,0.0265,0.1833,-0.1201,-7.31,-42.19,-15.12,237.07,-89.32,-146.5
52.96943,-1.753003,229.46,17.13,4,26.09,23 / 25,1622712,2019-11-06 12:12:56:593,2.6205,-0.8819,9.1853,-0.0159,0.027,9.8065,0.0227,0.1842,-0.2076,-7.56,-42.37,-15.37,218.72,-89.19,-168.1
52.96943,-1.753003,229.46,17.13,4,26.09,23 / 25,1622812,2019-11-06 12:12:56:693,-2.2967,2.2768,10.2168,0.046,-0.0608,9.8063,0.0791,0.431,-0.3301,-7.19,-42,-14.94,235.63,-89.13,-147.57
52.96943,-1.753003,229.46,17.13,4,26.09,23 / 25,1622912,2019-11-06 12:12:56:793,4.2775,-0.6343,9.3795,-0.0351,-0.015,9.8065,-0.0691,0.4749,-0.2871,-7.69,-41.37,-15.12,206.45,-89.44,178.98
52.96943,-1.753003,229.46,17.13,4,26.09,23 / 25,1623012,2019-11-06 12:12:56:893,-5.0731,-0.1162,8.9419,0.0523,-0.0118,9.8065,-0.1074,0.6509,-0.2905,-6.81,-40.94,-15.25,241.72,-89.48,-142.17
52.96943,-1.753003,229.46,17.13,4,26.09,23 / 25,1623112,2019-11-06 12:12:56:993,-1.8377,-0.0538,9.822,-0.0525,0.0089,9.8065,-0.0768,0.5868,-0.2361,-7.75,-40.75,-15.5,275,-89.4,-111.64
52.96943,-1.753003,229.46,17.13,4,26.09,23 / 25,1623212,2019-11-06 12:12:57:093,-4.4831,1.4804,9.0745,-0.0004,-0.0156,9.8066,0.0309,0.3537,-0.2133,-7.06,-42.44,-16.31,286.94,-89.26,-94.99
52.96943,-1.753003,229.46,17.13,4,26.09,23 / 25,1623312,2019-11-06 12:12:57:193,0.3148,-0.6683,9.7523,-0.0645,-0.0028,9.8064,-0.0011,0.1675,-0.1081,-7.81,-41.75,-16.06,294.97,-89.32,-90.15
52.96943,-1.753003,229.46,17.13,4,26.09,23 / 25,1623412,2019-11-06 12:12:57:293,3.0462,-0.2349,9.4093,-0.0492,0.0086,9.8064,-0.0443,0.0657,0.0612,-7.56,-42.12,-16.62,291.87,-89.2,-91.68
52.96943,-1.753003,229.46,17.13,4,26.09,25 / 25,1623512,2019-11-06 12:12:57:393,1.7385,-1.0679,10.2322,-0.0684,-0.0021,9.8064,-0.0053,-0.2071,0.1092,-8.5,-42.19,-15.12,315.47,-89.17,-71.16
52.96943,-1.753003,229.46,17.13,4,26.09,25 / 25,1623612,2019-11-06 12:12:57:493,4.0055,-0.6648,10.9244,-0.0664,0.0063,9.8063,0.1309,-0.4936,0.2996,-8,-41.69,-15.44,319.96,-89.08,-66.65
52.96943,-1.753003,229.46,17.13,4,26.09,25 / 25,1623712,2019-11-06 12:12:57:593,-3.2864,0.3993,10.2405,-0.0015,0.0335,9.8065,0.1637,-0.4569,0.2145,-7.75,-41.56,-15.5,298.96,-88.99,-86.92
52.96943,-1.753003,229.46,17.13,4,26.09,25 / 25,1623812,2019-11-06 12:12:57:693,2.1655,-1.5146,10.881,-0.0496,0.0219,9.8064,0.1145,-0.2591,0.0825,-8.19,-42,-15.44,272.77,-89.19,-113.31
52.96943,-1.753003,229.46,17.13,4,26.09,25 / 25,1623912,2019-11-06 12:12:57:793,-3.3645,3.5881,8.0243,0.0361,-0.0055,9.8066,-0.0361,-0.0818,0.0833,-7.81,-42.06,-15,259.19,-89.13,-126.78
52.96943,-1.753003,229.46,17.13,4,26.09,25 / 25,1624012,2019-11-06 12:12:57:893,0.813,-0.1672,7.1945,0.0348,0.0351,9.8065,-0.2619,0.2249,0.03,-8.81,-41.5,-15.37,247.58,-89.02,-141.27
52.96943,-1.753003,229.46,17.13,4,26.09,25 / 25,1624112,2019-11-06 12:12:57:993,6.813,-1.6708,13.2594,-0.0588,-0.0143,9.8064,0.0107,-0.703,0.4453,-8.31,-42.31,-17.12,239.35,-89.67,-145.22
52.96943,-1.753003,229.46,17.13,4,26.09,25 / 25,1624212,2019-11-06 12:12:58:093,9.6136,-0.6531,11.3538,-0.1585,0.0094,9.8054,0.3214,-1.365,0.6628,-7.69,-42.87,-16.44,190.35,-89.59,163.96
52.96943,-1.753003,229.46,17.13,4,26.09,25 / 25,1624312,2019-11-06 12:12:58:193,-9.1738,4.5457,8.5065,0.01,0.0209,9.8066,0.0908,-0.9609,0.5744,-6.94,-42.44,-15.69,216.51,-89.26,-166.06
52.96943,-1.753003,229.46,17.13,4,26.09,25 / 25,1624412,2019-11-06 12:12:58:293,4.3791,-2.1683,9.9243,-0.1398,0.0323,9.8056,-0.0019,-0.496,0.3826,-7.81,-42.81,-15,198.44,-89.21,171
52.96943,-1.753003,229.46,17.13,4,26.09,24 / 24,1624512,2019-11-06 12:12:58:393,-8.3023,0.9668,8.5733,0.1025,-0.0425,9.806,-0.1045,0.1247,-0.1057,-7.19,-41.62,-15.12,244.76,-89.03,-138.04
52.96943,-1.753003,229.46,17.13,4,26.09,24 / 24,1624612,2019-11-06 12:12:58:493,3.0118,-2.0451,9.9104,-0.0249,0.0124,9.8066,-0.082,0.5062,-0.1801,-7.87,-42.69,-15.25,224.09,-89.41,-162.94
52.96943,-1.753003,229.46,17.13,4,26.09,24 / 24,1624712,2019-11-06 12:12:58:593,4.5318,-1.6275,10.6575,0.0828,-0.0264,9.8062,-0.1439,0.6871,-0.4887,-6.81,-42.62,-15.25,253.66,-89.33,-129.68
52.96943,-1.753003,229.46,17.13,4,26.09,24 / 24,1624812,2019-11-06 12:12:58:693,2.4707,-0.2475,10.623,0.0668,0.0207,9.8064,-0.1529,0.7245,-0.4457,-7.25,-41.75,-16.12,221.52,-89.46,-161.25
52.96943,-1.753003,229.46,17.13,4,26.09,24 / 24,1624912,2019-11-06 12:12:58:793,3.9726,-0.4186,10.2107,0.0315,0.0144,9.8065,-0.094,0.5349,-0.2093,-7.31,-41.62,-15.19,186.5,-89.63,161.59
52.96943,-1.753003,229.46,17.13,4,26.09,24 / 24,1625012,2019-11-06 12:12:58:893,-0.1129,1.2676,9.827,0.0868,-0.0161,9.8062,-0.0262,0.2451,-0.1483,-6.56,-42,-15.5,215.33,-89.47,-168.91
52.96943,-1.753003,229.46,17.13,4,26.09,24 / 24,1625111,2019-11-06 12:12:58:992,2.9747,-0.3182,10.053,-0.0108,0.0076,9.8066,-0.0093,-0.1142,0.0976,-7,-42.44,-15.56,190.7,-89.41,167.33
52.96943,-1.753003,229.46,17.13,4,26.09,24 / 24,1625211,2019-11-06 12:12:59:092,-3.8915,2.6521,9.3505,0.0511,-0.0028,9.8064,0.0315,-0.2378,0.2221,-7.25,-42.56,-15.62,214.23,-89.33,-168.47
52.96943,-1.753003,229.46,17.13,4,26.09,24 / 24,1625312,2019-11-06 12:12:59:193,-0.3204,-0.1154,9.8787,-0.0431,0.0221,9.8065,0.0222,-0.4418,0.2557,-7.62,-42.06,-15.12,227.47,-89.32,-159.37
52.96943,-1.753003,229.46,17.13,4,26.09,24 / 24,1625411,2019-11-06 12:12:59:292,-3.1344,1.781,9.813,0.0263,-0.0011,9.8066,0.0162,-0.4713,0.3156,-7.06,-42.06,-15.25,233.86,-89.14,-149.4
52.96943,-1.753003,229.46,17.13,4,26.09,23 / 23,1625512,2019-11-06 12:12:59:393,1.6107,-0.5332,9.0566,0.0157,-0.0026,9.8066,-0.0259,-0.4424,0.2547,-8.06,-41.37,-15.5,225.92,-89.17,-160.71
52.96943,-1.753003,229.46,17.13,4,26.09,23 / 23,1625612,2019-11-06 12:12:59:493,3.0629,-1.2251,10.1789,0.0549,-0.0108,9.8064,0.0441,-0.4157,0.2487,-7.25,-41.75,-15.81,216.09,-89.26,-166.49
52.96943,-1.753003,229.46,17.13,4,26.09,23 / 23,1625712,2019-11-06 12:12:59:593,1.8099,-0.6015,9.7926,0.0478,0.003,9.8065,0.0328,-0.1617,0.1203,-7.44,-42.12,-15.44,228.4,-89.05,-154.82
52.96943,-1.753003,229.46,17.13,4,26.09,23 / 23,1625812,2019-11-06 12:12:59:693,2.4027,0.5127,9.7198,0.0324,0.0125,9.8065,-0.0096,-0.074,0.0503,-7.31,-42.56,-16.12,215.66,-88.75,-166.18
52.96943,-1.753003,229.46,17.13,4,26.09,23 / 23,1625912,2019-11-06 12:12:59:793,-3.0194,1.6577,10.5312,0.0676,-0.0134,9.8063,0.0217,0.1335,-0.0697,-6.94,-42.56,-15.81,217.85,-88.52,-163.54
52.96943,-1.753003,229.46,17.13,4,26.09,23 / 23,1626012,2019-11-06 12:12:59:893,2.591,0.3289,9.9063,-0.0051,0.0002,9.8066,-0.071,0.2567,-0.1841,-7.19,-42.25,-15.37,213.63,-88.28,-168.98
52.96943,-1.753003,229.46,17.13,4,26.09,23 / 23,1626112,2019-11-06 12:12:59:993,-4.2194,2.267,8.6331,0.0421,-0.0073,9.8065,-0.0312,0.3723,-0.2463,-7,-41.5,-15.62,214.73,-88.3,-166.63
52.96943,-1.753003,229.46,17.13,4,26.09,23 / 23,1626212,2019-11-06 12:13:00:093,-0.5968,1.7972,9.9723,-0.0974,0.0004,9.8062,-0.1214,0.6869,-0.3122,-7.37,-42.37,-15.75,218.17,-88.32,-162.98
52.96943,-1.753003,229.46,17.13,4,26.09,23 / 23,1626312,2019-11-06 12:13:00:193,3.9216,-2.8338,10.0338,-0.0217,0.0255,9.8065,-0.1606,0.3787,-0.2573,-7.5,-41.75,-16.06,203.94,-88.59,-178.32
52.96943,-1.753003,229.46,17.13,4,26.09,23 / 23,1626412,2019-11-06 12:13:00:293,3.5763,-2.5639,10.0438,-0.094,0.0131,9.8061,0.0349,0.1598,-0.127,-7.12,-42.56,-15.62,181.96,-88.74,158.44
52.96943,-1.753003,229.46,17.13,4,26.09,23 / 23,1626512,2019-11-06 12:13:00:393,1.2422,-2.3374,9.914,-0.0765,-0.003,9.8063,-0.0011,-0.2036,0.0715,-7.62,-41.94,-15.87,185.63,-88.81,159.33
52.96943,-1.753003,229.46,17.13,4,26.09,23 / 23,1626612,2019-11-06 12:13:00:493,-3.2225,1.8125,10.2056,-0.0162,0,9.8066,0.014,-0.3056,0.2175,-7.5,-42.25,-16.06,189.2,-88.88,166
52.96943,-1.753003,229.46,17.13,4,26.09,23 / 23,1626712,2019-11-06 12:13:00:593,-1.1176,1.4979,10.9805,-0.0396,0.0243,9.8065,0.0905,-0.3045,0.343,-7.69,-41.62,-15.69,197.46,-88.84,171.71
52.96943,-1.753003,229.46,17.13,4,26.09,23 / 23,1626812,2019-11-06 12:13:00:693,-1.7397,1.297,9.3751,-0.0567,0.0293,9.8064,0.0309,-0.3035,0.2907,-7.37,-41.69,-15.75,217.01,-88.7,-164.74
52.96943,-1.753003,229.46,17.13,4,26.09,23 / 23,1626912,2019-11-06 12:13:00:793,4.2262,-3.5203,9.6747,-0.0906,0.004,9.8062,-0.0121,-0.5916,0.3054,-7.06,-42.12,-16.06,210.73,-89.02,-171.7
52.96943,-1.753003,229.46,17.13,4,26.09,23 / 23,1627012,2019-11-06 12:13:00:893,-2.0999,1.495,9.1223,0.0107,-0.0015,9.8066,0.0551,-0.4767,0.3622,-7.44,-41.37,-15.69,230.04,-89.05,-151.89
52.96943,-1.753003,229.46,17.13,4,26.09,23 / 23,1627111,2019-11-06 12:13:00:992,-3.1841,1.0496,9.482,-0.045,0.0129,9.8065,0.0353,-0.3132,0.1748,-7.56,-41.87,-16.25,245.69,-89,-138.73
52.96943,-1.753003,229.46,17.13,4,26.09,23 / 23,1627212,2019-11-06 12:13:01:093,2.2539,-1.9367,9.9535,0.0134,0.0027,9.8066,0.0535,-0.0562,0.0823,-8.37,-42.37,-15.19,245.15,-88.96,-140.59
52.96943,-1.753003,229.46,17.13,4,26.09,23 / 23,1627312,2019-11-06 12:13:01:193,0.8557,-2.3652,10.2441,0.0116,0.0154,9.8066,-0.042,0.0885,0.0529,-8,-42,-15.25,234.54,-88.83,-151.18
52.96943,-1.753003,229.46,17.13,4,26.09,23 / 23,1627414,2019-11-06 12:13:01:295,2.6066,0.9249,9.7294,0.0564,-0.0156,9.8064,0.043,0.243,-0.1589,-8.25,-41.06,-16.12,251.86,-88.68,-131.83
52.96943,-1.753003,229.46,17.13,4,26.09,24 / 24,1627512,2019-11-06 12:13:01:393,-3.1536,0.3077,9.7681,0.0481,-0.0393,9.8064,-0.0245,0.3176,-0.2386,-8.44,-41.06,-15.81,260.83,-88.69,-122.77
52.96943,-1.753003,229.46,17.13,4,26.09,24 / 24,1627613,2019-11-06 12:13:01:494,1.026,-0.0754,11.1822,-0.0148,-0.0343,9.8066,-0.0509,0.2395,-0.1013,-7.56,-41.44,-15.62,273.73,-88.89,-110.3
52.96943,-1.753003,229.46,17.13,4,26.09,24 / 24,1627712,2019-11-06 12:13:01:593,-0.6443,1.3695,9.8322,-0.0025,0.024,9.8066,0.0028,0.1353,-0.0289,-8.56,-41.94,-15.81,278.19,-88.8,-108.45
52.96943,-1.753003,229.46,17.13,4,26.09,24 / 24,1627812,2019-11-06 12:13:01:693,0.1206,-0.2466,10.032,-0.0109,0.0159,9.8066,0.0245,-0.089,-0.0249,-8.12,-41.62,-16,263.72,-88.76,-119.95
52.96943,-1.753003,229.46,17.13,4,26.09,24 / 24,1627911,2019-11-06 12:13:01:792,0.8452,1.1225,9.7099,0.0051,-0.0098,9.8066,0.0509,-0.1196,0.0538,-7.69,-41.81,-15.75,266.93,-88.53,-116.2
52.96943,-1.753003,229.46,17.13,4,26.09,24 / 24,1628012,2019-11-06 12:13:01:893,-1.1098,0.2759,9.8582,0.0231,-0.0141,9.8066,-0.0886,-0.2302,0.1282,-7.75,-42.19,-15.69,272.32,-88.6,-110.96
52.96943,-1.753003,229.46,17.13,4,26.09,24 / 24,1628112,2019-11-06 12:13:01:993,0.7986,0.7588,10.5435,0.012,-0.0225,9.8066,-0.0926,-0.2807,0.1421,-7.87,-41.62,-15.87,280.39,-88.78,-103.36
52.96943,-1.753003,229.46,17.13,4,26.09,24 / 24,1628212,2019-11-06 12:13:02:093,-1.7674,1.7251,10.8117,0.0168,-0.0069,9.8065,0.0312,-0.0172,-0.062,-7.69,-41.62,-16.25,274.84,-88.88,-109.11
52.96943,-1.753003,229.46,17.13,4,26.09,24 / 24,1628312,2019-11-06 12:13:02:193,0.1461,-0.9796,10.2833,-0.0312,0.0213,9.8066,0.0164,0.0879,-0.0795,-8.06,-42,-16,268.5,-88.89,-115.45
52.96943,-1.753003,229.46,17.13,4,26.09,24 / 24,1628412,2019-11-06 12:13:02:293,0.7405,0.3634,9.4984,0.0171,0.0055,9.8066,0.0104,0.3169,-0.162,-7.87,-41.5,-15.62,254.23,-88.91,-129.93
52.96943,-1.753003,229.46,17.13,4,26.09,22 / 23,1628512,2019-11-06 12:13:02:393,2.3811,0.4739,10.172,-0.0473,-0.0219,9.8065,-0.1123,0.341,-0.154,-8,-42.25,-15.69,264.58,-89.36,-120.48
52.96943,-1.753003,229.46,17.13,4,26.09,22 / 23,1628612,2019-11-06 12:13:02:493,1.2566,-0.5305,10.4112,-0.0359,0.0129,9.8066,0.0379,0.2836,-0.0746,-8.87,-41.81,-15.56,271.47,-89.25,-116.18
52.96943,-1.753003,229.46,17.13,4,26.09,22 / 23,1628711,2019-11-06 12:13:02:592,-2.0876,1.2317,10.3071,0.0119,0.0262,9.8065,0.1069,-0.0186,-0.0396,-8.44,-41.75,-15.94,265.22,-88.97,-118.94
52.96943,-1.753003,229.46,17.13,4,26.09,22 / 23,1628812,2019-11-06 12:13:02:693,1.4941,0.4561,10.607,-0.0088,0.0009,9.8066,0.0712,-0.1528,0.0186,-8.56,-41.75,-15.62,267.96,-88.79,-118.63
52.96943,-1.753003,229.46,17.13,4,26.09,22 / 23,1628911,2019-11-06 12:13:02:792,-1.2068,-0.3922,10.0803,0.0369,-0.0054,9.8065,-0.0326,-0.2685,0.1657,-7.25,-42.12,-15.25,256.76,-88.7,-125.06
52.96943,-1.753003,229.46,17.13,4,26.09,22 / 23,1629013,2019-11-06 12:13:02:894,-0.4774,0.2519,9.888,-0.0118,0.0133,9.8066,-0.0032,-0.2344,0.1319,-8.31,-41.81,-15.44,258.36,-88.71,-126.59
52.96943,-1.753003,229.46,17.13,4,26.09,22 / 23,1629112,2019-11-06 12:13:02:993,0.9804,0.0168,10.0489,0.027,-0.004,9.8065,0.0126,-0.2813,0.138,-8.12,-41.94,-16.19,262.14,-88.68,-121.36
52.96943,-1.753003,229.46,17.13,4,26.09,22 / 23,1629212,2019-11-06 12:13:03:093,0.5613,-1.7856,9.4485,0.009,-0.0009,9.8066,0.0299,-0.1624,0.0787,-7.81,-41.75,-16,266.7,-88.87,-117.22
52.96943,-1.753003,229.46,17.13,4,26.09,22 / 23,1629312,2019-11-06 12:13:03:193,0.6116,0.4254,9.7565,0.0316,-0.0048,9.8065,-0.0201,-0.188,0.0756,-7.81,-41.81,-16.5,267.31,-88.72,-116.25
