GPS LATITUDE (degrees), GPS LONGITUDE (degrees), GPS ALTITUDE (m), GPS SPEED (Kmh), GPS ACCURACY (m), GPS ORIENTATION (Â°),GPS SATELLITES IN RANGE, TIME SINCE START (ms), DATE (YYYY-MO-DD HH-MI-SS_SSS), ACCELEROMETER X (m/s²) , ACCELEROMETER Y (m/s²), ACCELEROMETER Z (m/s²), GRAVITY X (m/s²), GRAVITY Y (m/s²), GRAVITY Z (m/s²), GYROSCOPE Yaw (rad/s), GYROSCOPE Pitch (rad/s), GYROSCOPE Roll (rad/s), MAGNETIC FIELD X (Î¼T), MAGNETIC FIELD Y (Î¼T), MAGNETIC FIELD Z (Î¼T), ORIENTATION (Yaw) (Â°), ORIENTATION (Pitch) (Â°), ORIENTATION (Roll ) (Â°)
53.223392,-1.87238,423.24,26.66,6,1.94,20 / 20,2383093,2019-11-06 14:07:03:886,-2.2348,-3.9012,10.3734,-0.0348,0.0248,9.8065,-0.1213,0.5261,-0.2486,-11.81,-36.56,-13.31,162.93,-87.18,118.5
53.223392,-1.87238,423.24,26.66,6,1.94,20 / 20,2383193,2019-11-06 14:07:03:986,-5.0034,-1.2185,10.5156,-0.0579,0.0419,9.8064,-0.0305,-0.448,0.3268,-12.5,-36.37,-12.56,156.92,-86.91,111.78
53.223392,-1.87238,423.24,26.66,6,1.94,20 / 20,2383293,2019-11-06 14:07:04:086,4.1065,-6.5021,9.7849,-0.0814,0.0701,9.806,0.0996,0.2376,-0.2113,-14.12,-37.19,-12.81,159.03,-86.89,109.78
53.223392,-1.87238,423.24,26.66,6,1.94,20 / 20,2383394,2019-11-06 14:07:04:187,-3.3058,-1.2264,8.9559,-0.0106,0.0408,9.8065,0.0772,-0.6484,0.4203,-23.62,-39.75,-8.12,183.44,-87.16,112.14
53.223392,-1.87238,423.24,26.66,6,1.94,20 / 20,2383494,2019-11-06 14:07:04:287,-5.0061,-2.8501,10.4121,0.0483,0.0648,9.8062,0.092,0.0521,-0.0226,-10.56,-34.31,6.69,228.76,-86.99,112.17
53.223392,-1.87238,423.24,26.66,6,1.94,20 / 20,2383593,2019-11-06 14:07:04:386,-3.9732,3.5203,9.924,0.0088,0.0094,9.8066,-0.0467,0.756,-0.3128,-9.87,-34.62,-6.37,176.04,-87.32,116.45
53.223392,-1.87238,423.24,26.66,6,1.94,20 / 20,2383693,2019-11-06 14:07:04:486,1.9642,-6.1265,10.7906,-0.0584,0.0423,9.8064,0.1517,-0.5879,0.2153,-10.75,-35.5,-9.94,164.48,-87.27,115.05
53.223392,-1.87238,423.24,26.66,6,1.94,20 / 20,2383793,2019-11-06 14:07:04:586,-4.489,0.3697,10.0247,0.0394,-0.0392,9.8064,-0.0913,0.1769,0.0029,-10.19,-35.44,-11.19,168.11,-87.51,124.63
53.223392,-1.87238,423.24,26.66,6,1.94,20 / 20,2383894,2019-11-06 14:07:04:687,-3.0034,-2.9463,9.9006,-0.0178,0.0043,9.8066,0.0579,-0.5066,0.325,-10.69,-36.06,-11.12,168.48,-87.21,122.21
53.223392,-1.87238,423.24,26.66,6,1.94,20 / 20,2383993,2019-11-06 14:07:04:786,-0.893,-0.6848,10.7402,0.0211,-0.0184,9.8066,0.0391,-0.1936,0.0824,-10,-36.06,-9.87,172.29,-87.02,126.29
53.223392,-1.87238,423.24,26.66,6,1.94,20 / 20,2384093,2019-11-06 14:07:04:886,-3.1038,-3.0172,9.5394,-0.0185,0.0064,9.8066,0.0143,-0.38,0.1313,-9.62,-35,-4.37,193.61,-87.09,127.62
53.223392,-1.87238,423.24,26.66,6,1.94,20 / 20,2384193,2019-11-06 14:07:04:986,-1.2516,1.0784,9.7896,-0.0053,-0.0312,9.8065,-0.0365,-0.0505,0.1642,-19.19,-38,16.19,254.85,-87.16,128.93
53.223392,-1.87238,423.24,26.66,6,1.94,20 / 20,2384293,2019-11-06 14:07:05:086,-1.4704,-0.6526,10.1986,-0.0127,0.0285,9.8066,0.1206,-0.2885,-0.0915,-22.81,-38.37,-8.25,192.86,-87.17,123
53.223392,-1.87238,423.24,26.66,6,1.94,20 / 20,2384394,2019-11-06 14:07:05:187,-4.3683,1.2325,9.7931,0.016,-0.023,9.8065,0.022,-0.1151,0.2032,-12.75,-36.5,-12.62,170.51,-87.3,124.65
53.223392,-1.87238,423.24,26.66,6,1.94,20 / 20,2384493,2019-11-06 14:07:05:286,0.0216,-2.0523,10.0955,0.0124,-0.0129,9.8066,0.0277,-0.4962,0.3074,-12.75,-37.06,-12.12,169.77,-87.06,121.4
53.223392,-1.87238,423.24,26.66,6,1.94,20 / 20,2384594,2019-11-06 14:07:05:387,0.6912,-5.4909,10.5619,0.0291,-0.0159,9.8066,-0.0523,0.3526,-0.1929,-12.69,-37.06,-12,171.36,-86.98,123.13
53.223392,-1.87238,423.24,26.66,6,1.94,20 / 20,2384693,2019-11-06 14:07:05:486,-0.6567,-3.0137,10.3346,0.0286,-0.0201,9.8065,0.0946,-0.0998,0.0216,-15.5,-37.56,-11.75,177.09,-87.07,125.46
53.223392,-1.87238,423.24,26.66,6,1.94,20 / 20,2384794,2019-11-06 14:07:05:587,-2.2984,-1.2751,9.7078,0.0072,-0.0195,9.8066,0.0213,0.119,0.0065,-28.06,-40.44,5.19,222.35,-86.81,125.21
53.223392,-1.87238,423.24,26.66,6,1.94,20 / 20,2384893,2019-11-06 14:07:05:686,-3.0172,1.8307,9.6988,0.0043,0.0028,9.8066,-0.1841,0.1684,0.0207,-10.87,-34.44,8.19,243.5,-86.51,125.27
53.223392,-1.87238,423.24,26.66,6,1.94,20 / 20,2384993,2019-11-06 14:07:05:786,-4.0537,-2.6958,10.3393,-0.0139,0.0295,9.8065,0.196,-0.0405,-0.1304,-10.12,-35.12,-8.19,174.84,-86.31,122.6
53.223392,-1.87238,423.24,26.66,6,1.94,20 / 20,2385094,2019-11-06 14:07:05:887,-3.9262,-1.6624,8.9297,0.0413,-0.0047,9.8065,-0.0864,-0.0264,0.1227,-9.62,-36.19,-9.87,172.11,-86.32,125.85
53.223392,-1.87238,423.24,26.66,6,1.94,20 / 20,2385193,2019-11-06 14:07:05:986,-2.4357,-2.6658,10.8247,-0.0044,-0.0596,9.8064,-0.019,-0.0437,0.0499,-10.19,-36.69,-10.37,174.22,-86.13,128.21
53.223392,-1.87238,423.24,26.66,6,1.94,20 / 20,2385293,2019-11-06 14:07:06:086,-3.5056,-2.7104,7.4909,0.0155,0.0167,9.8066,0.0169,-0.0334,-0.118,-10.19,-36.37,-9.87,173.49,-86.55,127.51
53.223392,-1.87238,423.24,26.66,6,1.94,20 / 20,2385393,2019-11-06 14:07:06:186,-3.11,-2.2509,8.958,0.0228,0.0069,9.8065,0.0264,0.1332,-0.1233,-9.87,-35.19,-8.56,175.27,-87.03,126.62
53.223392,-1.87238,423.24,26.66,6,1.94,20 / 20,2385493,2019-11-06 14:07:06:286,-1.907,0.6362,10.9645,0.0391,-0.0336,9.8064,0.0876,0.0381,0.0278,-9.81,-34.81,-3.5,199.5,-87.26,129.24
53.223392,-1.87238,423.24,26.66,6,1.94,20 / 20,2385593,2019-11-06 14:07:06:386,-4.084,1.2888,10.1652,0.0356,0.0026,9.8065,-0.0035,-0.1299,0.0318,-26.75,-40.44,14,249.57,-86.89,135.97
53.223392,-1.87238,423.24,26.66,6,1.94,20 / 20,2385693,2019-11-06 14:07:06:486,-2.8319,0.4404,10.545,0.0212,-0.0178,9.8065,0.045,0.2564,-0.1,-17.69,-38,-10.44,199.3,-86.86,140.25
53.223392,-1.87238,423.24,26.66,6,1.94,20 / 20,2385793,2019-11-06 14:07:06:586,-1.3724,-4.5957,8.8471,-0.0165,0.0204,9.8066,0.0343,0.1893,-0.0459,-13.19,-37.19,-11.19,188.49,-86.86,139.72
53.223392,-1.87238,423.24,26.66,6,1.94,20 / 20,2385893,2019-11-06 14:07:06:686,-0.7929,-3.4606,9.5721,-0.0281,-0.0265,9.8066,0.039,0.3712,-0.189,-12.06,-36.81,-11.75,181.04,-87.13,136.15
53.223392,-1.87238,423.24,26.66,6,1.94,20 / 20,2385993,2019-11-06 14:07:06:786,-0.4896,-6.9069,9.2084,-0.018,0.0421,9.8065,0.2308,-0.0313,0.0226,-12.75,-37.62,-12,181.38,-87.07,134.24
53.223392,-1.87238,423.24,26.66,6,1.94,20 / 20,2386094,2019-11-06 14:07:06:887,-4.0849,-1.9786,9.6723,0.0484,-0.0045,9.8065,-0.0358,-0.0557,0.0893,-12.94,-37.87,-11.81,186.39,-87.07,139.79
53.223392,-1.87238,423.24,26.66,6,1.94,20 / 20,2386193,2019-11-06 14:07:06:986,-4.5648,-0.321,10.0684,0.0331,0.013,9.8066,0.069,-0.4068,0.1943,-24.62,-39.56,15.88,255.44,-86.8,136.98
53.223392,-1.87238,423.24,26.66,6,1.94,20 / 20,2386293,2019-11-06 14:07:07:086,-5.9353,-2.0058,9.4801,0.0082,-0.0047,9.8066,-0.0579,-0.0167,0.0317,-10.5,-34.94,-0.25,219.77,-86.57,137.42
53.223392,-1.87238,423.24,26.66,6,1.94,20 / 20,2386393,2019-11-06 14:07:07:186,-5.4703,0.5955,10.0535,0.018,-0.0627,9.8064,-0.025,0.526,-0.2747,-9.56,-36.31,-7.25,189.47,-86.72,136.03
53.223392,-1.87238,423.24,26.66,6,1.94,20 / 20,2386493,2019-11-06 14:07:07:286,-0.6486,-1.8451,10.5631,-0.0064,-0.0389,9.8065,0.1226,-0.0388,0.026,-10.69,-36.62,-9.5,185.34,-86.76,135.41
53.223392,-1.87238,423.24,26.66,6,1.94,20 / 20,2386593,2019-11-06 14:07:07:386,-2.9575,-3.303,8.6305,0.0383,-0.0683,9.8062,0.1433,-0.051,-0.0183,-10.5,-36.44,-10,182.35,-86.95,137.67
53.223392,-1.87238,423.24,26.66,6,1.94,20 / 20,2386693,2019-11-06 14:07:07:486,-1.7917,-1.0948,11.5125,0.032,0.0536,9.8064,-0.085,-0.1522,0.0912,-10.81,-36,-9.5,189.74,-86.81,140.38
53.223392,-1.87238,423.24,26.66,6,1.94,20 / 20,2386794,2019-11-06 14:07:07:587,-1.3736,-3.846,8.3694,-0.0263,0.0219,9.8066,-0.0524,-0.335,0.2457,-11.37,-35.56,-7.25,197.37,-86.96,142.32
53.223392,-1.87238,423.24,26.66,6,1.94,20 / 20,2386893,2019-11-06 14:07:07:686,-3.2401,-5.3864,10.3447,-0.016,0.0105,9.8066,-0.109,-0.0918,-0.0022,-10.69,-34.62,-0.37,227.09,-87.06,143.93
53.223392,-1.87238,423.24,26.66,6,1.94,20 / 20,2386993,2019-11-06 14:07:07:786,-5.0196,-1.9673,9.9218,0.0175,0.0836,9.8063,0.1145,-0.5202,0.2604,-30.12,-40.37,5.56,237.2,-86.89,139.28
53.223392,-1.87238,423.24,26.66,6,1.94,18 / 20,2387093,2019-11-06 14:07:07:886,-3.2861,-6.2837,11.2738,-0.0337,0.0103,9.8065,-0.0222,-0.4208,0.2451,-16.62,-37.44,-11.62,193.38,-86.97,139.83
53.223392,-1.87238,423.24,26.66,6,1.94,18 / 20,2387193,2019-11-06 14:07:07:986,-2.0433,-0.6642,10.217,-0.0207,0.0643,9.8063,-0.1917,-0.0992,0.1597,-12.75,-37.12,-11.06,185.05,-87.31,135.79
53.223392,-1.87238,423.24,26.66,6,1.94,18 / 20,2387294,2019-11-06 14:07:08:087,-2.5968,-1.833,9.4102,-0.001,-0.0169,9.8066,-0.2625,-0.0745,0.0242,-12.19,-37.37,-11.25,178.3,-87.17,130.63
53.223392,-1.87238,423.24,26.66,6,1.94,18 / 20,2387394,2019-11-06 14:07:08:187,-1.756,-1.6966,7.7274,-0.0063,-0.0023,9.8066,0.0465,0.0204,0.0697,-13.87,-37.56,-11.75,174.15,-87.22,124.17
53.223392,-1.87238,423.24,26.66,6,1.94,18 / 20,2387493,2019-11-06 14:07:08:286,-3.1903,-2.8902,8.7762,0.0101,-0.0135,9.8066,0.0146,0.0623,-0.0418,-17.62,-38.12,-11.06,187.21,-87.12,129.28
53.223392,-1.87238,423.24,26.66,6,1.94,18 / 20,2387593,2019-11-06 14:07:08:386,-3.4577,-2.612,10.8592,0.0345,-0.0016,9.8066,-0.0063,-0.2684,0.1933,-19.25,-37.37,17.25,260.23,-86.88,132.86
53.223392,-1.87238,423.24,26.66,6,1.94,18 / 20,2387693,2019-11-06 14:07:08:486,-1.6816,-4.0805,9.7105,0.0107,0.0494,9.8064,0.0548,0.5937,-0.2108,-10.44,-34.87,-3.37,202.49,-86.98,133.03
53.223392,-1.87238,423.24,26.66,6,1.94,18 / 20,2387793,2019-11-06 14:07:08:586,-5.9773,0.6399,11.0094,0.0259,0.0264,9.8065,-0.0772,0.3664,-0.2843,-10.12,-35.75,-9,179.37,-86.95,131.27
53.223392,-1.87238,423.24,26.66,6,1.94,18 / 20,2387893,2019-11-06 14:07:08:686,0.7316,-5.7007,9.8632,-0.0476,0.0846,9.8061,-0.1005,0.5983,-0.2534,-10.69,-36.19,-10.44,179.27,-86.46,131.44
53.223392,-1.87238,423.24,26.66,6,1.94,18 / 20,2387993,2019-11-06 14:07:08:786,-5.8755,-1.8085,11.1245,0.0188,-0.0545,9.8064,0.085,0.6387,-0.3149,-10.12,-36.19,-10.06,179.5,-86.78,134.43
53.223392,-1.87238,423.24,26.66,6,1.94,19 / 20,2388093,2019-11-06 14:07:08:886,-4.1133,-3.1269,8.8037,-0.0178,-0.0103,9.8066,0.0971,0.3118,-0.5008,-10.44,-35.87,-9.81,175.65,-86.58,129.99
53.223392,-1.87238,423.24,26.66,6,1.94,19 / 20,2388193,2019-11-06 14:07:08:986,-4.4056,1.0321,9.3262,0.0485,-0.03,9.8064,-0.1411,0.8397,-0.1066,-9.31,-35.5,-5.62,187.39,-86.43,132.55
53.223392,-1.87238,423.24,26.66,6,1.94,19 / 20,2388293,2019-11-06 14:07:09:086,-3.4278,-1.75,9.6668,-0.0007,-0.0495,9.8065,0.0202,-0.0786,0.1351,-9.75,-35.37,8.63,255.38,-86.79,131.49
53.223392,-1.87238,423.24,26.66,6,1.94,19 / 20,2388393,2019-11-06 14:07:09:186,-4.4536,-2.7821,8.3705,-0.0264,-0.0765,9.8063,-0.0955,0.3687,-0.2533,-30.56,-41.31,5.5,222.57,-86.42,124.7
53.223392,-1.87238,423.24,26.66,6,1.94,19 / 20,2388493,2019-11-06 14:07:09:286,-4.317,-4.9205,10.3236,0.0192,-0.0221,9.8065,0.1373,-0.4296,0.2422,-14.87,-38.19,-11.37,180.71,-86.79,127.04
53.223392,-1.87238,423.24,26.66,6,1.94,19 / 20,2388593,2019-11-06 14:07:09:386,0.1977,-5.9326,9.0362,0.0341,0.0127,9.8065,-0.0677,0.0043,-0.0449,-13.19,-37.31,-11.19,180.1,-86.49,130.35
53.223392,-1.87238,423.24,26.66,6,1.94,19 / 20,2388693,2019-11-06 14:07:09:486,-4.9747,-0.552,11.6243,0.0393,-0.0493,9.8063,-0.1143,-0.8175,0.3555,-12.37,-37.56,-11.31,178.5,-86.49,130.79
53.223392,-1.87238,423.24,26.66,6,1.94,19 / 20,2388793,2019-11-06 14:07:09:586,-2.1629,-0.789,8.8813,-0.0279,0.0308,9.8065,0.0532,-0.6724,0.4213,-15.19,-36.69,-10.75,183.87,-86.27,130.62
53.223392,-1.87238,423.24,26.66,6,1.94,19 / 20,2388893,2019-11-06 14:07:09:686,-4.527,3.7479,10.1258,0.0327,-0.0683,9.8063,-0.0481,-0.9185,0.3791,-23.5,-39.06,-6.69,208.93,-86.38,138.65
53.223392,-1.87238,423.24,26.66,6,1.94,19 / 20,2388994,2019-11-06 14:07:09:787,-6.323,-1.3654,10.1696,0.0028,0.0812,9.8062,0.1947,-0.7134,0.3856,-19.87,-36.37,17.75,268.17,-86.11,141.39
53.223392,-1.87238,423.24,26.66,6,1.94,19 / 20,2389094,2019-11-06 14:07:09:887,-1.4636,-2.4606,9.4299,0.021,-0.0308,9.8065,0.0976,-0.475,-0.1292,-11.75,-35.81,-5.56,196.7,-86.13,136.22
53.223392,-1.87238,423.24,26.66,6,1.94,19 / 20,2389194,2019-11-06 14:07:09:987,0.8754,-7.8891,10.877,-0.0564,0.0556,9.8063,0.2625,-0.4499,0.4929,-12.87,-36.56,-7.87,191.54,-85.78,135.16
53.223392,-1.87238,423.24,26.66,6,1.94,19 / 20,2389294,2019-11-06 14:07:10:087,-0.9323,-0.9042,9.7852,0.0462,-0.0369,9.8065,-0.0074,-0.0399,-0.2702,-13.5,-36.81,-8.69,194.9,-85.84,142.06
53.223392,-1.87238,423.24,26.66,6,1.94,19 / 20,2389393,2019-11-06 14:07:10:186,-4.8782,-2.189,9.0007,-0.0656,0.0288,9.8064,0.1125,-0.5798,0.2769,-13.31,-37.06,-8.31,190.76,-85.64,134.32
53.223392,-1.87238,423.24,26.66,6,1.94,19 / 20,2389493,2019-11-06 14:07:10:286,-5.2993,-2.1082,8.0061,-0.0154,-0.0024,9.8066,-0.0958,-0.1484,-0.129,-13.06,-36.19,-7.94,191.2,-85.66,134.76
53.223392,-1.87238,423.24,26.66,6,1.94,19 / 20,2389594,2019-11-06 14:07:10:387,-3.436,-1.8954,10.2378,-0.0189,0.0355,9.8065,0.0674,-0.5791,0.0159,-12.31,-35.75,-3.81,197.87,-85.43,130.24
53.223392,-1.87238,423.24,26.66,6,1.94,19 / 20,2389694,2019-11-06 14:07:10:487,-0.3064,2.88,10.2058,0.0103,0.0735,9.8063,0.0605,-0.0469,0.0184,-22.94,-39.06,18.63,249.18,-85.04,125.64
53.223392,-1.87238,423.24,26.66,6,1.94,19 / 20,2389793,2019-11-06 14:07:10:586,-3.8744,-3.656,8.7352,0.0055,0.052,9.8064,-0.1232,-0.5587,0.0883,-25.19,-38.75,-6.62,193.92,-84.98,121.33
53.223392,-1.87238,423.24,26.66,6,1.94,19 / 20,2389893,2019-11-06 14:07:10:686,0.4813,-5.8155,10.2072,-0.054,0.0348,9.8064,0.1199,-0.5582,0.2853,-16.56,-37.94,-9.44,179.54,-84.99,117.36
53.223392,-1.87238,423.24,26.66,6,1.94,19 / 20,2389993,2019-11-06 14:07:10:786,-4.8047,-0.1279,10.0323,-0.0398,0.0264,9.8065,-0.0105,-0.6098,0.2366,-15.94,-36.75,-10.25,172.53,-85.08,113.31
53.223392,-1.87238,423.24,26.66,6,1.94,20 / 20,2390094,2019-11-06 14:07:10:887,-1.4036,-8.6803,9.711,-0.0282,0.026,9.8065,-0.0466,-0.5712,0.2157,-15.69,-37.44,-10.31,170.23,-85.3,110.71
53.223392,-1.87238,423.24,26.66,6,1.94,20 / 20,2390194,2019-11-06 14:07:10:987,-4.0759,-0.4267,9.5045,-0.0209,0.0706,9.8064,-0.0442,-0.3466,0.1175,-16.87,-37.69,-10.31,169.01,-85.44,107.84
53.223392,-1.87238,423.24,26.66,6,1.94,20 / 20,2390293,2019-11-06 14:07:11:086,-1.8137,-8.7591,10.2882,-0.03,0.091,9.8061,-0.1006,0.6896,-0.3604,-30.62,-40.69,8.63,209.9,-84.9,106.85
53.223392,-1.87238,423.24,26.66,6,1.94,20 / 20,2390393,2019-11-06 14:07:11:186,-2.4307,2.5022,9.4786,0.0208,0.0264,9.8065,0.0317,-0.0865,-0.083,-13.62,-35.25,6.38,214.99,-84.78,108.57
53.223392,-1.87238,423.24,26.66,6,1.94,20 / 20,2390493,2019-11-06 14:07:11:286,-2.5981,-6.838,9.8316,-0.0258,0.0888,9.8062,0.0335,-0.5405,0.2694,-13.44,-35.56,-4.94,177.18,-84.52,107.54
53.223392,-1.87238,423.24,26.66,6,1.94,20 / 20,2390593,2019-11-06 14:07:11:386,-5.0478,-0.2957,9.7485,-0.0086,-0.0092,9.8066,-0.0437,0.1009,-0.1569,-14.25,-37.12,-7.87,167.2,-84.72,104.31
53.223392,-1.87238,423.24,26.66,6,1.94,20 / 20,2390695,2019-11-06 14:07:11:488,-3.1965,-5.2578,9.9481,-0.0328,0.0399,9.8065,-0.0495,0.3239,-0.1571,-13.94,-36.44,-8.19,165.5,-84.56,102.27
53.223392,-1.87238,423.24,26.66,6,1.94,20 / 20,2390794,2019-11-06 14:07:11:587,-4.3432,0.3781,9.4856,0.016,-0.0106,9.8065,-0.018,0.2968,-0.2571,-13.94,-36.81,-8.56,162.84,-84.53,102.06
53.223392,-1.87238,423.24,26.66,6,1.94,20 / 20,2390893,2019-11-06 14:07:11:686,-3.3568,-3.0763,9.5499,0.0028,0.0406,9.8065,0.0335,0.1193,-0.1481,-13.37,-36.75,-6.69,168.23,-84.23,103.64
53.223392,-1.87238,423.24,26.66,6,1.94,20 / 20,2390994,2019-11-06 14:07:11:787,-2.6295,-4.4884,9.6799,0.0201,-0.0254,9.8065,-0.0338,0.3322,-0.1972,-13,-35.62,-0.69,188.64,-84.39,105.32
53.223392,-1.87238,423.24,26.66,6,1.94,20 / 21,2391093,2019-11-06 14:07:11:886,-4.5278,-1.0316,10.1264,-0.003,0.0012,9.8066,-0.0526,-0.0025,-0.0257,-26.06,-40.19,19.31,225.41,-84.26,104.2
53.223392,-1.87238,423.24,26.66,6,1.94,20 / 21,2391193,2019-11-06 14:07:11:986,-3.0679,-2.658,9.7801,0.004,-0.0166,9.8066,-0.036,0.2287,-0.1104,-20.94,-38.62,-8.87,171.96,-84.32,103.84
53.223392,-1.87238,423.24,26.66,6,1.94,20 / 21,2391293,2019-11-06 14:07:12:086,-1.1553,-4.1222,9.8502,0.0115,-0.0142,9.8066,0.0175,-0.0735,0.0223,-16.5,-37.87,-10.25,164.71,-84.26,103.74
53.223392,-1.87238,423.24,26.66,6,1.94,20 / 21,2391394,2019-11-06 14:07:12:187,-1.9626,-1.6966,10.0416,0.024,-0.0337,9.8065,-0.0273,0.1503,-0.1096,-16.31,-37.37,-9.31,166.53,-84.18,103.22
53.223392,-1.87238,423.24,26.66,6,1.94,20 / 21,2391493,2019-11-06 14:07:12:286,-1.5828,-0.8146,9.7725,0.0106,-0.0177,9.8066,0.0293,-0.0899,0.0402,-17.06,-37.69,-9.31,168.02,-84.44,103.69
53.223392,-1.87238,423.24,26.66,6,1.94,20 / 21,2391594,2019-11-06 14:07:12:387,-1.9738,-0.3052,9.5557,0.0064,-0.0262,9.8065,-0.0258,0.1175,-0.0752,-21.31,-39.25,-7.94,173.85,-84.64,103.74
53.223392,-1.87238,423.24,26.66,6,1.94,20 / 21,2391693,2019-11-06 14:07:12:486,-3.2764,0.3342,9.9682,0.0034,-0.0181,9.8065,0.0069,-0.1344,0.0477,-30.94,-41.87,14.88,215.58,-84.65,103.44
53.223392,-1.87238,423.24,26.66,6,1.94,20 / 21,2391793,2019-11-06 14:07:12:586,-2.2533,-1.7383,9.7652,-0.0064,-0.0164,9.8066,-0.0008,0.0462,-0.018,-13.75,-35.5,0.13,190.49,-84.75,102.84
53.223392,-1.87238,423.24,26.66,6,1.94,20 / 21,2391893,2019-11-06 14:07:12:686,-1.7432,-2.1982,9.8643,0.0037,-0.0291,9.8065,-0.0014,0.1058,-0.1099,-14.44,-36,-5.06,174.03,-84.85,102.41
53.223392,-1.87238,423.24,26.66,6,1.94,20 / 21,2391993,2019-11-06 14:07:12:786,-0.5631,-1.8669,9.7083,0.0058,-0.011,9.8066,0.0081,-0.0479,0.0089,-15.37,-36.94,-6.94,169.34,-84.83,102.26
53.224724,-1.872205,414.67,3.57,6,22.99,20 / 20,2392093,2019-11-06 14:07:12:886,-1.1058,-1.3044,9.9227,-0.0008,-0.0156,9.8065,-0.0027,0.0516,-0.0417,-15.44,-37.25,-6.44,172.26,-84.98,102.55
53.224724,-1.872205,414.67,3.57,6,22.99,20 / 20,2392193,2019-11-06 14:07:12:986,-0.2982,-1.3681,10.1279,0.0026,0.0137,9.8066,-0.0045,-0.0268,-0.0343,-15.25,-37.44,-6.12,172.49,-84.91,102.8
53.224724,-1.872205,414.67,3.57,6,22.99,20 / 20,2392293,2019-11-06 14:07:13:086,0.065,-1.0308,9.7625,0.0066,0.0002,9.8066,0.0463,-0.0346,0.0128,-14.69,-37.31,-2.56,181.39,-85.01,102.99
53.224724,-1.872205,414.67,3.57,6,22.99,20 / 20,2392393,2019-11-06 14:07:13:186,-0.3031,-1.3325,9.8652,0.001,-0.0013,9.8066,0.0666,-0.0091,-0.0508,-13.94,-35.87,7.69,216.44,-85.07,103.15
53.224724,-1.872205,414.67,3.57,6,22.99,20 / 20,2392493,2019-11-06 14:07:13:286,-0.9387,-0.9954,9.5285,-0.0076,0.0119,9.8066,-0.0408,0.0109,-0.0178,-33.31,-41.25,14.06,213.78,-85.14,103.79
53.224724,-1.872205,414.67,3.57,6,22.99,20 / 20,2392593,2019-11-06 14:07:13:386,0.1577,-1.6314,10.2816,-0.011,-0.0102,9.8066,-0.0156,-0.0047,0.0084,-19.62,-38.19,-7.37,173.97,-85.21,102.38
53.224724,-1.872205,414.67,3.57,6,22.99,20 / 20,2392693,2019-11-06 14:07:13:486,-0.9503,-0.1944,10.1676,-0.0137,0.0062,9.8066,-0.0317,0.0408,-0.0772,-18.06,-37.87,-7.81,168.83,-85.26,101.06
53.224724,-1.872205,414.67,3.57,6,22.99,20 / 20,2392793,2019-11-06 14:07:13:586,0.3255,-2.0257,10.2603,-0.0001,0.0027,9.8066,0.003,-0.0415,0.0277,-17.81,-37.87,-7,171.54,-85.35,101.47
53.224724,-1.872205,414.67,3.57,6,22.99,20 / 20,2392893,2019-11-06 14:07:13:686,1.0472,-0.0223,9.6731,-0.0033,0.0014,9.8066,0.0209,0.0552,-0.0996,-19.37,-38.44,-7,172.58,-85.3,101.69
53.224724,-1.872205,414.67,3.57,6,22.99,20 / 20,2392993,2019-11-06 14:07:13:786,1.2965,-1.9289,9.5936,-0.0102,0.0271,9.8065,0.0117,-0.1728,-0.043,-26.81,-39.75,-4.69,180.97,-85.22,101.57
53.224724,-1.872205,414.67,3.57,6,22.99,20 / 20,2393093,2019-11-06 14:07:13:886,-1.3579,-0.5244,9.9136,-0.0108,0.0096,9.8066,-0.0411,0.029,-0.0615,-25.62,-39.31,21.81,226.08,-85.08,99.81
53.224724,-1.872205,414.67,3.57,6,22.99,20 / 20,2393194,2019-11-06 14:07:13:987,0.4405,-1.3707,9.9727,-0.0001,0.0231,9.8065,-0.0008,-0.1722,-0.0198,-15.75,-36,0.13,186.39,-84.98,97.62
53.224724,-1.872205,414.67,3.57,6,22.99,20 / 20,2393293,2019-11-06 14:07:14:086,0.9354,-0.5307,10.0456,-0.0041,-0.0057,9.8066,0.0065,-0.1371,0.0378,-15.75,-37.31,-3.56,173.74,-85,96.57
53.224724,-1.872205,414.67,3.57,6,22.99,20 / 20,2393393,2019-11-06 14:07:14:186,0.991,-1.2697,10.0884,0.0094,0.0034,9.8066,0.0581,-0.1675,0.0464,-16.37,-37.44,-4.5,174.11,-85.01,97.02
53.224724,-1.872205,414.67,3.57,6,22.99,20 / 20,2393493,2019-11-06 14:07:14:286,0.8277,-0.6597,10.2957,0.008,-0.0129,9.8066,0.0124,-0.1556,0.0261,-16.87,-37.44,-4.69,173.96,-85.25,99.33
53.224724,-1.872205,414.67,3.57,6,22.99,20 / 20,2393593,2019-11-06 14:07:14:386,2.7433,-0.446,9.1945,-0.0179,-0.0082,9.8066,-0.0526,-0.2031,0.0284,-15.94,-37.06,-4.31,174.96,-85.35,98.09
53.224724,-1.872205,414.67,3.57,6,22.99,20 / 20,2393693,2019-11-06 14:07:14:486,2.3408,-0.867,9.2768,-0.0234,-0.0032,9.8066,-0.0337,-0.1646,-0.0163,-15.94,-36.12,-0.5,182.98,-85.4,93.51
53.224724,-1.872205,414.67,3.57,6,22.99,20 / 20,2393794,2019-11-06 14:07:14:587,-0.0639,-1.6401,9.7868,-0.0028,0.0099,9.8065,0.054,-0.1327,-0.0183,-25.44,-39.5,23.06,219.11,-85.32,89.79
53.224724,-1.872205,414.67,3.57,6,22.99,20 / 20,2393893,2019-11-06 14:07:14:686,-0.9256,-0.5964,9.9403,0.005,0.0053,9.8066,0.0178,-0.0878,-0.0434,-29.31,-40.06,-2,176.53,-85.2,90.08
53.224724,-1.872205,414.67,3.57,6,22.99,20 / 20,2393993,2019-11-06 14:07:14:786,1.3588,-0.6896,10.4093,-0.0087,-0.001,9.8066,-0.0184,-0.1794,0.0429,-20.62,-38.5,-6.06,165.67,-85.19,89.59
53.224724,-1.872205,414.67,3.57,6,22.99,20 / 21,2394093,2019-11-06 14:07:14:886,2.5362,-0.0714,10.0473,-0.0047,-0.0209,9.8066,-0.0089,-0.0867,0.0453,-18.81,-37.87,-5.44,164.76,-85.4,87.21
53.224724,-1.872205,414.67,3.57,6,22.99,20 / 21,2394194,2019-11-06 14:07:14:987,1.9816,-0.3811,9.8039,0.0041,-0.0063,9.8066,0.0301,-0.142,-0.0132,-19.31,-38.12,-5,164.82,-85.49,87.33
53.224724,-1.872205,414.67,3.57,6,22.99,20 / 21,2394293,2019-11-06 14:07:15:086,2.6766,-0.9078,9.6161,0.0034,-0.0035,9.8066,0.0295,-0.1003,-0.0029,-21.94,-38.81,-5.31,164.93,-85.62,85.81
53.224724,-1.872205,414.67,3.57,6,22.99,20 / 21,2394393,2019-11-06 14:07:15:186,2.366,-1.32,9.6973,-0.006,0.0036,9.8066,-0.0056,-0.0453,-0.0509,-35,-42.12,13.69,195.99,-85.6,85.5
53.224724,-1.872205,414.67,3.57,6,22.99,20 / 21,2394493,2019-11-06 14:07:15:286,1.8903,-1.8298,9.7915,0.0047,0.0056,9.8065,-0.028,-0.1791,0.0455,-16.62,-35.5,12.88,209.18,-85.54,85.26
53.224724,-1.872205,414.67,3.57,6,22.99,20 / 21,2394593,2019-11-06 14:07:15:386,2.1367,-1.1615,9.608,-0.0021,0.0061,9.8066,-0.011,-0.1542,-0.0244,-17.5,-36.25,1.25,177.87,-85.55,84.16
53.224724,-1.872205,414.67,3.57,6,22.99,20 / 21,2394694,2019-11-06 14:07:15:487,1.9051,-0.8195,9.7733,-0.0142,-0.0198,9.8066,-0.0315,-0.126,-0.0004,-17.69,-37.25,-2.62,163.55,-85.8,80.64
53.224724,-1.872205,414.67,3.57,6,22.99,20 / 21,2394793,2019-11-06 14:07:15:586,2.665,-0.5,9.8526,-0.0105,-0.0103,9.8066,-0.0171,-0.1805,0.0145,-18.31,-37.5,-3.62,158.07,-85.86,77.55
53.224724,-1.872205,414.67,3.57,6,22.99,20 / 21,2394893,2019-11-06 14:07:15:686,1.7906,-0.1325,9.9047,-0.0156,-0.0159,9.8066,-0.0073,-0.0969,-0.0396,-17.94,-37.12,-3.37,158.38,-85.88,74.82
53.224724,-1.872205,414.67,3.57,6,22.99,20 / 21,2394994,2019-11-06 14:07:15:787,1.8274,-1.3813,9.2864,-0.0127,0.0004,9.8065,-0.034,-0.158,0.074,-17.87,-36.5,-1,161.57,-85.81,72.15
53.224724,-1.872205,414.67,3.57,6,22.99,20 / 21,2395093,2019-11-06 14:07:15:886,3.3124,-0.8924,9.6978,-0.0147,-0.0025,9.8065,-0.0079,-0.0444,-0.0244,-17.75,-35.19,5.25,176.36,-85.83,70.36
53.224724,-1.872205,414.67,3.57,6,22.99,20 / 21,2395193,2019-11-06 14:07:15:986,2.5375,0.0636,9.3344,0.0152,0.0123,9.8065,0.0524,-0.5534,0.2185,-32.69,-40.37,23.63,194.54,-85.73,69.53
53.224724,-1.872205,414.67,3.57,6,22.99,20 / 21,2395293,2019-11-06 14:07:16:086,1.4428,1.668,10.1127,-0.0075,-0.0676,9.8064,-0.1485,0.1658,-0.1862,-27.37,-39.06,-3.25,151.64,-85.89,65.24
53.224724,-1.872205,414.67,3.57,6,22.99,20 / 21,2395393,2019-11-06 14:07:16:186,0.8461,0.3212,10.7793,0.0183,-0.0187,9.8066,0.092,-0.4188,0.2321,-21.75,-37.87,-4.31,146.68,-85.9,63.22
53.224724,-1.872205,414.67,3.57,6,22.99,20 / 21,2395493,2019-11-06 14:07:16:286,1.8667,-4.2186,8.8345,0.0207,0.0008,9.8065,0.0565,0.515,-0.3586,-20.56,-37.87,-4.19,146.92,-85.94,63.83
53.224724,-1.872205,414.67,3.57,6,22.99,20 / 21,2395593,2019-11-06 14:07:16:386,0.7435,-2.2512,9.1029,0.044,-0.0726,9.8063,-0.0884,-0.174,0.1888,-21.69,-38.37,-4.12,150.51,-86.21,67.7
53.224724,-1.872205,414.67,3.57,6,22.99,20 / 21,2395693,2019-11-06 14:07:16:486,1.9098,0.3131,9.8589,0.0405,-0.0719,9.8063,-0.0416,0.0976,0.1496,-26.87,-39.5,-2.94,159.57,-86.54,74.21
53.224724,-1.872205,414.67,3.57,6,22.99,20 / 21,2395793,2019-11-06 14:07:16:586,1.078,-0.7057,9.3904,0.015,0.0011,9.8066,0.0313,-0.4229,0.0519,-33.56,-40.06,24.13,199.02,-86.38,74.9
53.224724,-1.872205,414.67,3.57,6,22.99,20 / 21,2395893,2019-11-06 14:07:16:686,1.0041,0.3761,8.6522,-0.0072,-0.049,9.8064,0.0612,-0.1983,0.157,-18.81,-35.31,7.19,182.03,-86.44,72.02
53.224724,-1.872205,414.67,3.57,6,22.99,20 / 21,2395993,2019-11-06 14:07:16:786,2.5207,-3.4643,9.7129,-0.0153,0.0254,9.8066,-0.025,-0.3767,0.0723,-19.06,-36.69,0.31,161.49,-86.5,69.36
53.224724,-1.872205,414.67,3.57,6,22.99,20 / 20,2396093,2019-11-06 14:07:16:886,1.3029,-1.7023,10.1356,-0.0151,-0.0642,9.8064,-0.1115,-0.1759,0.0928,-20,-37.25,-1.81,152.92,-86.98,66.13
53.224724,-1.872205,414.67,3.57,6,22.99,20 / 20,2396193,2019-11-06 14:07:16:986,0.107,-2.9335,9.7941,0.0071,0.0024,9.8066,0.0195,-0.3992,0.2099,-19.69,-37.31,-1.94,153.47,-86.77,66.56
53.224724,-1.872205,414.67,3.57,6,22.99,20 / 20,2396293,2019-11-06 14:07:17:086,1.3575,1.4425,9.6571,0.0065,-0.0173,9.8065,-0.0481,-0.1053,0.0478,-20.25,-37.69,-1.94,150.34,-86.95,63.23
53.224724,-1.872205,414.67,3.57,6,22.99,20 / 20,2396393,2019-11-06 14:07:17:186,1.9544,-0.3117,10.3985,-0.0185,-0.0068,9.8066,0.0744,-0.2603,0.0877,-19.25,-36.37,0.25,151.97,-86.86,59.21
53.224724,-1.872205,414.67,3.57,6,22.99,20 / 20,2396493,2019-11-06 14:07:17:286,-0.5881,-1.7391,9.6426,-0.0253,-0.0301,9.8066,-0.0901,-0.1,0.0714,-20.75,-36.81,18.75,184.65,-87.01,52.83
53.224724,-1.872205,414.67,3.57,6,22.99,20 / 20,2396593,2019-11-06 14:07:17:386,-0.2846,-0.6938,9.7837,-0.0196,-0.0244,9.8065,-0.0128,-0.1757,0.1356,-39.44,-42,9.94,156.6,-87.13,51.05
53.224724,-1.872205,414.67,3.57,6,22.99,20 / 20,2396694,2019-11-06 14:07:17:487,1.5902,-0.8504,10.3323,0.0031,-0.0329,9.8065,-0.0832,0.0345,0.0963,-24.69,-38.87,-3.5,136.87,-87.2,50.78
53.224724,-1.872205,414.67,3.57,6,22.99,20 / 20,2396793,2019-11-06 14:07:17:586,1.624,-0.2196,10.7929,0.0227,0.0103,9.8065,0.1425,-0.0073,-0.0047,-22.44,-38.25,-3.31,136.21,-87.44,50.98
53.224724,-1.872205,414.67,3.57,6,22.99,20 / 20,2396893,2019-11-06 14:07:17:686,0.4738,-0.43,9.029,0.0307,0.0191,9.8066,0.096,0.0547,-0.0626,-22.31,-37.56,-3.25,139.53,-87.68,54.74
53.224724,-1.872205,414.67,3.57,6,22.99,20 / 20,2396997,2019-11-06 14:07:17:790,0.7162,1.7885,10.3557,0.0012,-0.0356,9.8065,0.0862,-0.1026,0.0725,-23.31,-38.37,-2.94,134.9,-87.93,49.95
53.224724,-1.872205,414.67,3.57,6,22.99,21 / 21,2397093,2019-11-06 14:07:17:886,0.5279,-2.0012,9.9206,-0.0121,-0.0484,9.8065,-0.0607,-0.265,0.1809,-34.25,-40.5,2.38,139.03,-88.21,44.3
53.224724,-1.872205,414.67,3.57,6,22.99,21 / 21,2397193,2019-11-06 14:07:17:986,0.0511,1.0709,9.9773,-0.0136,-0.0121,9.8066,-0.0627,0.1253,-0.0803,-26.44,-37,24.63,179.54,-88.2,45.64
53.224724,-1.872205,414.67,3.57,6,22.99,21 / 21,2397293,2019-11-06 14:07:18:086,0.2755,-0.2246,9.5617,0.013,0.0128,9.8065,0.0481,0.0864,-0.0915,-20.44,-35.94,4.06,151.45,-88.14,48.58
53.224724,-1.872205,414.67,3.57,6,22.99,21 / 21,2397393,2019-11-06 14:07:18:186,0.1052,1.2574,10.1673,0.0137,0.0412,9.8065,-0.0249,0.0066,-0.234,-20.25,-37.25,-1.12,150.79,-87.98,61.85
53.224724,-1.872205,414.67,3.57,6,22.99,21 / 21,2397494,2019-11-06 14:07:18:287,-0.1517,3.1567,10.2896,0.0443,-0.043,9.8064,-0.0203,0.0725,0.1513,-20.69,-37.5,-2.31,156.73,-88.04,70.82
53.224724,-1.872205,414.67,3.57,6,22.99,21 / 21,2397594,2019-11-06 14:07:18:387,-0.2731,1.0697,8.7267,0.0144,-0.036,9.8066,0.0949,-0.3363,0.0458,-19.62,-37.19,-1.44,156.02,-88.14,67.51
53.224724,-1.872205,414.67,3.57,6,22.99,21 / 21,2397693,2019-11-06 14:07:18:486,-0.4048,3.8569,8.9064,0.0283,-0.0269,9.8065,0.0639,-0.1064,0.1449,-20.19,-36.94,-0.44,166.52,-88.34,75.81
53.224724,-1.872205,414.67,3.57,6,22.99,21 / 21,2397793,2019-11-06 14:07:18:586,0.8919,2.8255,10.0955,-0.0101,-0.0372,9.8065,-0.0997,-0.1022,0.0612,-20.19,-36.25,3.63,174.56,-88.32,72.97
53.224724,-1.872205,414.67,3.57,6,22.99,21 / 21,2397893,2019-11-06 14:07:18:686,-2.0837,-1.0543,10.1728,-0.0428,-0.0085,9.8065,-0.0792,0.2948,-0.0842,-24.25,-38.37,22.75,198.85,-88.34,65.67
53.224724,-1.872205,414.67,3.57,6,22.99,21 / 21,2397993,2019-11-06 14:07:18:786,0.4391,0.5168,10.1078,-0.0033,-0.0385,9.8065,-0.0264,0.1161,0.0145,-37.06,-40.62,3.75,152.54,-88.51,55.62
53.224724,-1.872205,414.67,3.57,6,22.99,21 / 21,2398093,2019-11-06 14:07:18:886,0.6337,-1.267,9.644,0.022,0.016,9.8066,0.0625,-0.0635,0.0296,-23.62,-38.75,-3.94,148.68,-88.6,66.98
53.224724,-1.872205,414.67,3.57,6,22.99,21 / 21,2398193,2019-11-06 14:07:18:986,-0.6162,3.2713,10.1908,0.0066,-0.0179,9.8065,0.0135,0.3292,-0.1737,-21.69,-38.44,-4.44,150.45,-88.67,69.65
53.224724,-1.872205,414.67,3.57,6,22.99,21 / 21,2398293,2019-11-06 14:07:19:086,0.1896,0.2704,9.5791,-0.0111,0.0313,9.8066,-0.0357,0.3436,-0.1356,-22.25,-37.37,-3.94,154.23,-88.62,73.55
53.224724,-1.872205,414.67,3.57,6,22.99,21 / 21,2398393,2019-11-06 14:07:19:186,-0.5755,-0.3749,9.8083,-0.0018,-0.0043,9.8066,-0.0622,0.2762,-0.0813,-24.37,-38.94,-4.25,154.7,-88.4,73.07
53.224724,-1.872205,414.67,3.57,6,22.99,21 / 21,2398493,2019-11-06 14:07:19:286,-2.2507,0.4037,10.2728,-0.0262,0.0179,9.8065,-0.0904,0.1806,-0.0296,-37.44,-40.56,8.13,167.41,-88.21,64.79
53.224724,-1.872205,414.67,3.57,6,22.99,21 / 21,2398593,2019-11-06 14:07:19:386,-1.4458,1.9999,9.8148,-0.0004,0.0158,9.8065,-0.0442,0.2846,-0.0784,-21.69,-36.56,17.81,190.11,-88.09,61.25
53.224724,-1.872205,414.67,3.57,6,22.99,21 / 21,2398693,2019-11-06 14:07:19:486,-2.0845,2.8943,10.3452,0.0147,0.0125,9.8066,0.0385,0.1661,-0.0528,-18.69,-36.56,-1.06,151.96,-88.04,63.19
53.224724,-1.872205,414.67,3.57,6,22.99,21 / 21,2398794,2019-11-06 14:07:19:587,-2.7827,0.9465,9.8659,0.0012,0.0063,9.8066,-0.0042,0.2042,-0.0644,-19,-36.56,-3.31,145,-88.17,61.96
53.224724,-1.872205,414.67,3.57,6,22.99,21 / 21,2398894,2019-11-06 14:07:19:687,-2.5719,1.8052,10.138,0.0051,-0.0083,9.8066,-0.0178,0.2965,0.008,-19.25,-37.62,-3.87,143.25,-88.2,63.04
53.224724,-1.872205,414.67,3.57,6,22.99,21 / 21,2398993,2019-11-06 14:07:19:786,-2.9452,-0.0279,10.0054,-0.0035,0.012,9.8066,-0.0038,0.1753,-0.0198,-18.87,-37.19,-4.25,142.43,-88.26,62.31
53.224724,-1.872205,414.67,3.57,6,22.99,21 / 22,2399093,2019-11-06 14:07:19:886,-3.368,1.7007,9.6211,0.0007,-0.0037,9.8066,0.0431,-0.0106,0.0929,-18.81,-36.62,-3.31,137.4,-88.46,54.38
53.224724,-1.872205,414.67,3.57,6,22.99,21 / 22,2399193,2019-11-06 14:07:19:986,-2.5931,-0.7473,10.2256,-0.0051,0.0172,9.8066,-0.0101,0.3075,-0.0094,-18.25,-35.75,1.69,152.46,-88.48,54.74
53.224724,-1.872205,414.67,3.57,6,22.99,21 / 22,2399293,2019-11-06 14:07:20:086,-2.0257,1.2938,9.6588,0.0062,0.011,9.8066,-0.0161,-0.0781,0.102,-33.75,-40.69,20.06,177.2,-88.61,56.66
53.224724,-1.872205,414.67,3.57,6,22.99,21 / 22,2399394,2019-11-06 14:07:20:187,-2.9912,-1.8644,10.19,-0.0084,0.0431,9.8065,-0.031,0.2039,-0.016,-26.5,-39.31,-5.81,136.05,-88.49,57.52
53.224724,-1.872205,414.67,3.57,6,22.99,21 / 22,2399493,2019-11-06 14:07:20:286,-3.0747,1.8801,9.8312,-0.0047,0.0062,9.8066,-0.0337,0.4066,-0.1268,-20.87,-37.75,-7.69,127.18,-88.41,55.91
53.224724,-1.872205,414.67,3.57,6,22.99,21 / 22,2399593,2019-11-06 14:07:20:386,-3.7388,-1.129,9.3097,-0.0152,0.0147,9.8066,-0.0251,0.169,0.0402,-19.06,-37.5,-7.69,123.02,-88.34,53.36
53.224724,-1.872205,414.67,3.57,6,22.99,21 / 22,2399693,2019-11-06 14:07:20:486,-3.1457,-0.6675,9.8074,-0.0083,-0.0052,9.8066,-0.0012,-0.053,0.0929,-19.94,-38.12,-9.06,113.39,-88.36,45.01
53.224724,-1.872205,414.67,3.57,6,22.99,21 / 22,2399793,2019-11-06 14:07:20:586,-1.6096,-2.5894,10.1318,-0.0192,0.0173,9.8066,0.0065,0.0915,0.0415,-22.44,-38.31,-8.44,115.15,-88.26,42.59
53.224724,-1.872205,414.67,3.57,6,22.99,21 / 22,2399893,2019-11-06 14:07:20:686,-2.2205,1.4053,10.0169,0.0018,0.0163,9.8066,-0.0469,0.2829,-0.1248,-31.37,-40,16.69,168.99,-88.06,49.84
53.224724,-1.872205,414.67,3.57,6,22.99,21 / 22,2399993,2019-11-06 14:07:20:786,-2.0853,0.771,10.1097,0.0218,0.0252,9.8065,0.0224,0.0827,0.0234,-16.25,-35.12,1.56,154.99,-87.87,55.93
53.224724,-1.872205,414.67,3.57,6,22.99,21 / 22,2400093,2019-11-06 14:07:20:886,-2.4698,1.473,9.7697,0.0057,-0.0154,9.8066,-0.0187,0.2048,-0.0125,-16,-35.81,-5.87,134.04,-87.88,61.4
53.224724,-1.872205,414.67,3.57,6,22.99,21 / 22,2400193,2019-11-06 14:07:20:986,-1.0247,-1.3718,9.8182,0.0337,-0.0254,9.8065,0.0374,0.0661,0.0968,-15.87,-37.25,-8.56,125.22,-88.12,61.5
53.224724,-1.872205,414.67,3.57,6,22.99,21 / 22,2400293,2019-11-06 14:07:21:086,-1.1741,-0.2145,9.8172,0.0223,-0.0145,9.8066,0.0673,0.0234,0.0868,-16.31,-37.62,-9.12,124.86,-88.61,61.86
53.224724,-1.872205,414.67,3.57,6,22.99,21 / 22,2400393,2019-11-06 14:07:21:186,0.1792,-1.0849,9.8735,0.0085,0.0072,9.8066,0.0139,0.0464,0.0377,-15.44,-38.37,-8.87,129.4,-88.77,68.31
53.224724,-1.872205,414.67,3.57,6,22.99,21 / 22,2400493,2019-11-06 14:07:21:286,-1.1038,0.3474,9.8672,0.0064,0.0112,9.8066,0.0105,0.1959,-0.0553,-14.5,-37.81,-6.94,138.68,-88.75,73.26
53.224724,-1.872205,414.67,3.57,6,22.99,21 / 22,2400594,2019-11-06 14:07:21:387,-0.3228,-0.1044,9.8868,0.0019,0.0298,9.8065,0.0035,0.0328,0.0154,-14.06,-37.06,1.94,179.06,-88.54,80.87
53.224724,-1.872205,414.67,3.57,6,22.99,21 / 22,2400693,2019-11-06 14:07:21:486,-1.5176,0.7365,10.3014,0.0003,-0.0047,9.8066,-0.0037,0.167,-0.0098,-32.19,-43.56,11.88,192.99,-88.44,82.88
53.224724,-1.872205,414.67,3.57,6,22.99,21 / 22,2400794,2019-11-06 14:07:21:587,-0.6233,-0.9089,9.9011,0.0016,0.001,9.8066,0.0149,-0.0079,0.0667,-19.44,-42,-12.06,140,-88.45,80.42
53.224724,-1.872205,414.67,3.57,6,22.99,21 / 22,2400893,2019-11-06 14:07:21:686,-0.6993,-0.6859,9.8225,0.02,-0.0194,9.8066,0.0033,0.1085,0.0657,-16.69,-42.56,-13.06,135.91,-88.73,81.56
53.224724,-1.872205,414.67,3.57,6,22.99,21 / 22,2400993,2019-11-06 14:07:21:786,-0.1763,-1.3709,9.8189,0.0146,-0.0157,9.8066,-0.0102,0.0154,0.0807,-16.31,-43.62,-13,135.2,-88.9,82.65
53.22508,-1.871889,406.5,1.44,4,17.86,19 / 21,2401093,2019-11-06 14:07:21:886,-1.821,-0.8695,9.7799,0.0096,0.0021,9.8066,0.0297,0.1118,-0.0173,-16.19,-44.25,-12.62,133.96,-89.07,81.62
53.22508,-1.871889,406.5,1.44,4,17.86,19 / 21,2401193,2019-11-06 14:07:21:986,-0.4488,-0.9467,9.9259,0.0008,0.0101,9.8066,0.025,0.0344,0.0579,-24.44,-47.31,-10,161.74,-89.14,93.88
53.22508,-1.871889,406.5,1.44,4,17.86,19 / 21,2401293,2019-11-06 14:07:22:086,-0.9811,0.0832,9.7298,0.0034,0.0067,9.8066,-0.007,0.0968,0.0079,-23.37,-46,16.38,221.53,-89.16,97.62
53.22508,-1.871889,406.5,1.44,4,17.86,19 / 21,2401393,2019-11-06 14:07:22:186,-1.526,0.3867,9.6934,-0.0073,-0.0029,9.8066,0.0043,0.0202,0.005,-12.94,-42.75,-2.5,180.96,-89.15,99.75
53.22508,-1.871889,406.5,1.44,4,17.86,19 / 21,2401493,2019-11-06 14:07:22:286,-0.6669,-0.762,9.5854,-0.0024,-0.0063,9.8066,-0.0317,0.0263,0.0457,-12.69,-44.25,-7.37,157.26,-89.2,94.64
53.22508,-1.871889,406.5,1.44,4,17.86,19 / 21,2401593,2019-11-06 14:07:22:386,-1.0135,-0.5639,10.105,-0.0025,-0.0158,9.8066,-0.0519,0.0792,0.0123,-12.5,-44.44,-8.25,146,-89.26,88.42
53.22508,-1.871889,406.5,1.44,4,17.86,19 / 21,2401693,2019-11-06 14:07:22:486,-0.5227,-1.3531,9.9087,-0.0043,-0.0098,9.8066,-0.0013,-0.0022,0.0347,-12.37,-44.75,-7.56,136.76,-89.31,78.98
53.22508,-1.871889,406.5,1.44,4,17.86,19 / 21,2401793,2019-11-06 14:07:22:586,-0.8678,-0.3319,9.8055,0.0043,-0.0089,9.8066,0.009,0.0981,-0.0328,-12.06,-44.37,-6.19,139.71,-89.34,74.86
53.22508,-1.871889,406.5,1.44,4,17.86,19 / 21,2401893,2019-11-06 14:07:22:686,-0.7054,-1.0223,9.7135,-0.0019,0.0052,9.8066,-0.0183,0.0275,0.0189,-11,-43.31,-1.69,154.11,-89.26,73.18
53.22508,-1.871889,406.5,1.44,4,17.86,19 / 21,2401993,2019-11-06 14:07:22:786,-0.2123,0.4754,9.7447,-0.0086,-0.0024,9.8066,-0.0341,0.0696,-0.0056,-13.31,-44,17,212.53,-89.24,70.77
53.22508,-1.871889,406.5,1.44,4,17.86,20 / 22,2402093,2019-11-06 14:07:22:886,-0.5459,-0.3502,9.894,-0.0049,0.0033,9.8066,0,0.0202,0.006,-29.31,-48.44,3.25,166.45,-89.15,70.22
53.22508,-1.871889,406.5,1.44,4,17.86,20 / 22,2402193,2019-11-06 14:07:22:986,-0.6983,0.1297,9.891,-0.0017,0.0005,9.8066,-0.0064,0.1112,-0.0357,-14,-44.44,-7.69,129.32,-89.07,67.11
53.22508,-1.871889,406.5,1.44,4,17.86,20 / 22,2402293,2019-11-06 14:07:23:086,-0.2779,-0.6378,9.7809,-0.0077,0.0021,9.8066,-0.0153,0.0522,0.0186,-12.62,-44.37,-7.37,126.56,-89.01,62.49
53.22508,-1.871889,406.5,1.44,4,17.86,20 / 22,2402393,2019-11-06 14:07:23:186,0.108,-0.9266,9.8443,0.0011,-0.0069,9.8066,-0.0241,0.0826,-0.0324,-12.75,-43.69,-7.12,124.73,-89.03,60.66
53.22508,-1.871889,406.5,1.44,4,17.86,20 / 22,2402493,2019-11-06 14:07:23:286,-0.7715,-0.8983,9.8377,-0.0089,0.004,9.8066,-0.0231,0.0575,-0.0017,-14.75,-43.37,-6.94,124.54,-88.96,57.34
53.22508,-1.871889,406.5,1.44,4,17.86,20 / 22,2402593,2019-11-06 14:07:23:386,-0.0892,-0.567,9.8144,-0.007,0.0036,9.8066,0.0012,0.0736,-0.0337,-26.19,-45.81,0.31,144.3,-88.88,53.15
53.22508,-1.871889,406.5,1.44,4,17.86,20 / 22,2402693,2019-11-06 14:07:23:486,-0.6797,-0.1731,9.9482,0.0053,0.01,9.8066,-0.0069,0.0599,-0.0278,-15.69,-41.56,20.94,195.31,-88.84,53.1
53.22508,-1.871889,406.5,1.44,4,17.86,20 / 22,2402793,2019-11-06 14:07:23:586,-0.5464,0.1248,9.851,-0.0053,0.0038,9.8066,-0.018,0.0714,-0.0215,-10.56,-40.37,-0.62,140.15,-88.72,52.39
53.22508,-1.871889,406.5,1.44,4,17.86,20 / 22,2402893,2019-11-06 14:07:23:686,-0.3726,-0.1797,10.0139,-0.0059,0.0057,9.8066,-0.0123,0.0337,0.0183,-10.31,-41,-4.5,123.23,-88.61,50.61
53.22508,-1.871889,406.5,1.44,4,17.86,20 / 22,2402994,2019-11-06 14:07:23:787,-0.0321,-0.0116,9.9409,-0.005,0.0089,9.8066,0.0135,0.0467,-0.0519,-11,-40.25,-4.37,123.97,-88.54,49.81
53.22508,-1.871889,406.5,1.44,4,17.86,20 / 20,2403093,2019-11-06 14:07:23:886,-0.0938,-0.2773,9.7404,-0.0001,0.0037,9.8066,0.0126,0.0282,-0.0029,-11.31,-40.31,-4.62,120.22,-88.48,50.33
53.22508,-1.871889,406.5,1.44,4,17.86,20 / 20,2403193,2019-11-06 14:07:23:986,0.2402,-0.2184,9.7797,-0.008,0.0015,9.8066,-0.0331,0.051,-0.0033,-10.37,-39.69,-3.31,128.13,-88.42,50.07
53.22508,-1.871889,406.5,1.44,4,17.86,20 / 20,2403293,2019-11-06 14:07:24:086,-0.277,-0.5002,9.8739,-0.0059,0.0084,9.8066,0.0028,0.0474,-0.025,-9.87,-38.5,0.75,149.51,-88.33,50.61
53.22508,-1.871889,406.5,1.44,4,17.86,20 / 20,2403393,2019-11-06 14:07:24:186,-0.2675,0.1938,9.8336,0.0032,0.0094,9.8066,-0.0076,0.0522,-0.0356,-23.56,-43.06,22.75,183.12,-88.17,49.46
53.22508,-1.871889,406.5,1.44,4,17.86,20 / 20,2403493,2019-11-06 14:07:24:286,-0.0147,-0.2447,9.8856,-0.0011,0.0045,9.8066,0.0026,0.0416,0.0049,-19.69,-42.06,-4.12,131.69,-88.08,50.05
53.22508,-1.871889,406.5,1.44,4,17.86,20 / 20,2403593,2019-11-06 14:07:24:386,-0.1317,-0.5962,9.7815,-0.0018,0.0043,9.8066,-0.0038,0.0812,-0.0279,-13.94,-40.5,-5.87,121.44,-88.03,50.23
53.22508,-1.871889,406.5,1.44,4,17.86,20 / 20,2403693,2019-11-06 14:07:24:486,0.2602,-0.6977,9.9005,-0.0065,0.01,9.8066,0.0117,0.0564,-0.0231,-12.56,-40.37,-6.44,120.21,-87.97,50.1
53.22508,-1.871889,406.5,1.44,4,17.86,20 / 20,2403793,2019-11-06 14:07:24:586,0.0183,-0.647,9.9884,-0.0083,-0.0011,9.8066,-0.0123,0.1053,-0.0258,-13.5,-40.25,-6.62,116.03,-87.94,49.32
53.22508,-1.871889,406.5,1.44,4,17.86,20 / 20,2403893,2019-11-06 14:07:24:686,0.0907,-0.6822,10.0567,-0.0086,0.0087,9.8066,-0.0113,0.0333,-0.0188,-14.94,-40.69,-6.12,122.86,-87.94,50.29
53.22508,-1.871889,406.5,1.44,4,17.86,20 / 20,2403993,2019-11-06 14:07:24:786,-0.4645,-0.1871,9.8119,-0.003,0.0011,9.8066,-0.0082,0.0825,-0.0127,-27.56,-42.75,16.81,172.19,-87.85,50.55
53.22508,-1.871889,406.5,1.44,4,17.86,20 / 21,2404093,2019-11-06 14:07:24:886,-0.2809,0.1912,9.829,0.0056,0.0064,9.8066,0.001,0.0638,-0.0143,-10.94,-36.75,6.69,173.37,-87.76,50.18
53.22508,-1.871889,406.5,1.44,4,17.86,20 / 21,2404193,2019-11-06 14:07:24:986,-0.4829,-0.258,9.7624,-0.0044,0.0008,9.8066,-0.0138,0.07,-0.0118,-10.25,-37.94,-2.62,128.8,-87.76,49.15
53.22508,-1.871889,406.5,1.44,4,17.86,20 / 21,2404294,2019-11-06 14:07:25:087,-0.071,-0.488,9.962,-0.0034,0.004,9.8066,-0.0046,0.0537,-0.0111,-10.94,-38.37,-4.94,120.63,-87.72,48.91
53.22508,-1.871889,406.5,1.44,4,17.86,20 / 21,2404393,2019-11-06 14:07:25:186,-0.2401,-1.0682,9.9054,-0.005,0.0059,9.8066,-0.0065,0.0765,-0.0301,-10.69,-38.12,-5.75,116.85,-87.64,49.08
53.22508,-1.871889,406.5,1.44,4,17.86,20 / 21,2404494,2019-11-06 14:07:25:287,-0.2895,-0.719,9.7135,-0.0032,0.013,9.8065,0.004,-0.0154,0.0122,-10.94,-38.44,-5.69,117.6,-87.54,49.6
53.22508,-1.871889,406.5,1.44,4,17.86,20 / 21,2404594,2019-11-06 14:07:25:387,-0.1842,-0.8829,9.9329,-0.0048,0.0116,9.8066,0.0052,0.048,-0.0106,-10.81,-37.37,-4.56,122.36,-87.47,50.27
53.22508,-1.871889,406.5,1.44,4,17.86,20 / 21,2404693,2019-11-06 14:07:25:486,-0.2573,0.2189,9.9651,0.0011,0.009,9.8066,-0.005,-0.0256,0.0208,-9.81,-35.25,4.88,169.23,-87.41,51.16
53.22508,-1.871889,406.5,1.44,4,17.86,20 / 21,2404793,2019-11-06 14:07:25:586,-0.7484,-0.1111,9.9154,0.0055,0.0092,9.8066,-0.0119,0.0472,0.0062,-27.75,-41.69,17.75,174.14,-87.36,51.07
53.22508,-1.871889,406.5,1.44,4,17.86,20 / 21,2404893,2019-11-06 14:07:25:686,-0.1359,-0.3046,9.8673,-0.0051,0.0019,9.8066,-0.0045,0.0507,-0.029,-18,-39.12,-6.62,124.13,-87.34,50.95
53.22508,-1.871889,406.5,1.44,4,17.86,20 / 21,2404993,2019-11-06 14:07:25:786,-0.1938,-0.6956,9.8599,-0.0077,0.0042,9.8066,-0.0071,0.0218,0.0026,-13.56,-38.12,-7.19,119.46,-87.26,50.25
53.22508,-1.871889,406.5,1.44,4,17.86,20 / 22,2405093,2019-11-06 14:07:25:886,0.054,-0.4823,9.9416,-0.0025,-0.0016,9.8066,-0.0051,0.0516,0.0003,-13.37,-38.06,-7.37,117.81,-87.22,49.79
53.22508,-1.871889,406.5,1.44,4,17.86,20 / 22,2405193,2019-11-06 14:07:25:986,-0.2885,-0.5978,9.8704,-0.0049,0.0055,9.8066,-0.0027,0.0202,-0.0175,-13.25,-38.5,-7.25,118.01,-87.18,49.91
53.22508,-1.871889,406.5,1.44,4,17.86,20 / 22,2405293,2019-11-06 14:07:26:086,-0.0318,-0.4539,9.8513,-0.0034,0.0029,9.8066,0.0035,-0.011,0.004,-17.5,-38.44,-7.06,122,-87.14,49.39
53.22508,-1.871889,406.5,1.44,4,17.86,20 / 22,2405393,2019-11-06 14:07:26:186,-0.4648,-0.3871,9.8427,-0.0027,0.0064,9.8066,-0.0081,0.0182,-0.0012,-28.56,-40.75,14.94,167.86,-87.05,49.74
53.22508,-1.871889,406.5,1.44,4,17.86,20 / 22,2405493,2019-11-06 14:07:26:286,-0.3545,-0.2406,9.8814,-0.0012,0.0047,9.8066,-0.004,0.0516,-0.0125,-11.5,-35.06,1.63,154.1,-86.99,49.71
53.22508,-1.871889,406.5,1.44,4,17.86,20 / 22,2405593,2019-11-06 14:07:26:386,-0.0702,-0.6553,9.8375,-0.002,0.0065,9.8066,0.0119,-0.0029,0.0039,-11.12,-36,-4.12,127.16,-86.94,49.64
53.22508,-1.871889,406.5,1.44,4,17.86,20 / 22,2405694,2019-11-06 14:07:26:487,-0.1642,-0.5693,9.8594,-0.0041,0.0029,9.8066,0.0003,0.0043,0.0036,-11,-37.44,-5.69,119.25,-86.86,49.77
53.22508,-1.871889,406.5,1.44,4,17.86,20 / 22,2405794,2019-11-06 14:07:26:587,0.0227,-0.6728,9.9771,-0.006,0.0021,9.8065,-0.0025,0.0068,0.0071,-11.25,-37.25,-6.19,119.16,-86.8,49.53
53.22508,-1.871889,406.5,1.44,4,17.86,20 / 22,2405893,2019-11-06 14:07:26:686,0.1316,-0.3266,9.7586,-0.0046,0.0002,9.8066,-0.0124,0.0332,-0.0153,-10.69,-37,-6.19,119.21,-86.75,49.44
53.22508,-1.871889,406.5,1.44,4,17.86,20 / 22,2405993,2019-11-06 14:07:26:786,0.1666,-0.5171,9.8934,-0.0034,0.0028,9.8066,-0.0049,-0.0003,-0.0073,-10.81,-36.12,-2.44,136.1,-86.69,49.03
53.22508,-1.871889,406.5,1.44,4,17.86,20 / 21,2406093,2019-11-06 14:07:26:886,-0.4524,-0.1497,9.8274,-0.0035,0.0012,9.8066,0.0001,0.0149,-0.0015,-10,-34.69,10.38,183.08,-86.63,48.52
53.22508,-1.871889,406.5,1.44,4,17.86,20 / 21,2406193,2019-11-06 14:07:26:986,-0.1814,-0.6032,9.8855,0.0004,0.0054,9.8065,-0.0047,0.0059,-0.0063,-30.12,-41.94,11.06,160.05,-86.58,48.42
53.22508,-1.871889,406.5,1.44,4,17.86,20 / 21,2406294,2019-11-06 14:07:27:087,0.2589,-0.2262,9.8515,-0.0016,-0.0005,9.8066,0.0064,0.005,-0.0008,-15.37,-38.37,-7.06,120.25,-86.53,48.41
53.22508,-1.871889,406.5,1.44,4,17.86,20 / 21,2406393,2019-11-06 14:07:27:186,0.5062,-0.4484,9.7811,-0.0037,0.0032,9.8066,0.0037,-0.013,-0.0036,-13.37,-38.12,-7.75,114.99,-86.48,48.65
53.22508,-1.871889,406.5,1.44,4,17.86,20 / 21,2406493,2019-11-06 14:07:27:286,0.4677,-0.4033,9.9096,0,-0.0013,9.8066,-0.0016,0.013,0.0092,-13.19,-37.75,-7.81,115.1,-86.45,48.72
53.22508,-1.871889,406.5,1.44,4,17.86,20 / 21,2406593,2019-11-06 14:07:27:386,0.9781,-0.3374,9.8284,-0.0008,0.001,9.8066,-0.0097,-0.0057,0.0086,-15.25,-38.19,-7.69,117.83,-86.44,48.88
53.22508,-1.871889,406.5,1.44,4,17.86,20 / 21,2406693,2019-11-06 14:07:27:486,0.3762,-0.6407,9.8407,-0.0045,-0.0011,9.8066,-0.0012,0.0033,-0.0083,-22.25,-39.56,-4.69,130.32,-86.42,48.33
53.22508,-1.871889,406.5,1.44,4,17.86,20 / 21,2406793,2019-11-06 14:07:27:586,0.0837,-0.5383,9.8205,-0.0027,0.0005,9.8066,-0.0014,-0.0063,-0.0026,-20.75,-38.5,22,183.92,-86.39,47.89
53.22508,-1.871889,406.5,1.44,4,17.86,20 / 21,2406893,2019-11-06 14:07:27:686,0.5583,-0.3224,9.8727,-0.0033,-0.0008,9.8066,-0.0063,0.0393,-0.0145,-10.87,-34.81,-1.81,135.7,-86.34,48.04
53.22508,-1.871889,406.5,1.44,4,17.86,20 / 21,2406993,2019-11-06 14:07:27:786,0.3681,-0.2183,9.8357,-0.0026,-0.0041,9.8066,0.0023,-0.0111,-0.0004,-10.25,-36.44,-5,121.47,-86.31,47.9
53.22508,-1.871889,406.5,1.44,4,17.86,19 / 19,2407093,2019-11-06 14:07:27:886,0.6593,-0.653,9.8465,-0.0025,-0.0019,9.8066,0.0042,-0.0204,0.0161,-10.94,-36.75,-6.12,118.91,-86.3,47.95
53.22508,-1.871889,406.5,1.44,4,17.86,19 / 19,2407193,2019-11-06 14:07:27:986,0.5318,-0.1138,9.8362,-0.0017,-0.0056,9.8066,0.0009,0.0363,-0.003,-11.37,-36.81,-6.56,114.57,-86.27,47.39
53.22508,-1.871889,406.5,1.44,4,17.86,19 / 19,2407293,2019-11-06 14:07:28:086,0.2861,-0.826,9.8925,-0.0031,-0.0021,9.8066,-0.0063,-0.0198,0.0219,-11.31,-36.75,-5.06,122.48,-86.26,47.27
53.22508,-1.871889,406.5,1.44,4,17.86,19 / 19,2407393,2019-11-06 14:07:28:186,0.2319,-0.1786,9.824,-0.0004,-0.0036,9.8066,0.0089,0.0147,-0.0183,-9.69,-35.44,-1.37,139.75,-86.25,47.04
53.22508,-1.871889,406.5,1.44,4,17.86,19 / 19,2407493,2019-11-06 14:07:28:286,-0.2449,-0.5361,9.8468,-0.0004,0.0019,9.8066,-0.0093,0.0641,-0.0289,-19,-38.31,21.13,184.45,-86.23,46.97
53.22508,-1.871889,406.5,1.44,4,17.86,19 / 19,2407593,2019-11-06 14:07:28:386,0.1005,-0.2648,9.7825,-0.0008,-0.0055,9.8066,-0.0043,0.018,-0.0037,-23.5,-39.37,-3.81,131.76,-86.24,46.99
53.22508,-1.871889,406.5,1.44,4,17.86,19 / 19,2407693,2019-11-06 14:07:28:486,0.3839,-0.6598,9.8972,-0.0003,0.0019,9.8066,-0.0033,0.0027,0.0089,-14.44,-38.06,-7.81,115.02,-86.23,46.72
53.22508,-1.871889,406.5,1.44,4,17.86,19 / 19,2407793,2019-11-06 14:07:28:586,0.2828,-0.2147,9.8057,0.0031,-0.0036,9.8066,0.0086,0.0315,-0.0206,-12.44,-37.56,-8,112.32,-86.24,46.84
53.22508,-1.871889,406.5,1.44,4,17.86,19 / 19,2407893,2019-11-06 14:07:28:686,0.8111,-0.8702,9.8641,-0.0055,-0.0034,9.8066,-0.0333,0.002,0.0157,-12.75,-37.62,-8.06,113.65,-86.23,46.66
53.22508,-1.871889,406.5,1.44,4,17.86,19 / 19,2407993,2019-11-06 14:07:28:786,0.0948,-0.2756,9.9089,0.0072,-0.0025,9.8066,-0.0052,0.0448,-0.0014,-14.69,-38,-7.94,116.31,-86.27,46.93
53.22508,-1.871889,406.5,1.44,4,17.86,19 / 21,2408093,2019-11-06 14:07:28:886,-0.1785,-0.8965,9.8404,0.0016,0.0035,9.8066,0.0093,-0.0194,-0.0085,-28.5,-41.12,7.44,153.93,-86.3,47.63
53.22508,-1.871889,406.5,1.44,4,17.86,19 / 21,2408193,2019-11-06 14:07:28:986,0.0642,-0.3218,9.8951,-0.0047,-0.0016,9.8066,0.0001,0.0605,-0.0326,-11.87,-36,12.81,183.82,-86.32,47.02
53.22508,-1.871889,406.5,1.44,4,17.86,19 / 21,2408293,2019-11-06 14:07:29:086,0.0022,-0.5848,9.8,-0.0007,0.0022,9.8066,-0.0177,0.0362,0.0088,-10.37,-35.75,-2,134.82,-86.35,47.01
53.22508,-1.871889,406.5,1.44,4,17.86,19 / 21,2408394,2019-11-06 14:07:29:187,0.4834,-0.7453,9.9251,0.001,0.0011,9.8066,0.0004,0.0486,-0.0361,-10.87,-36.75,-6.69,114.29,-86.36,47.33
53.22508,-1.871889,406.5,1.44,4,17.86,19 / 21,2408493,2019-11-06 14:07:29:286,0.2753,-0.5818,9.7902,-0.0014,0.0047,9.8066,-0.0116,0.0286,0.0014,-11.06,-36.87,-7.12,114.36,-86.37,47.45
53.22508,-1.871889,406.5,1.44,4,17.86,19 / 21,2408593,2019-11-06 14:07:29:386,0.5699,-0.7537,9.8717,-0.0002,0.0027,9.8066,0.0011,0.0592,-0.0295,-10.81,-36.94,-6.69,114.18,-86.39,47.3
53.22508,-1.871889,406.5,1.44,4,17.86,19 / 21,2408693,2019-11-06 14:07:29:486,0.224,-0.7487,9.8218,-0.0017,0.004,9.8066,0.0004,-0.0161,0.0098,-10.19,-36.5,-5.12,120.61,-86.41,47.23
53.22508,-1.871889,406.5,1.44,4,17.86,19 / 21,2408793,2019-11-06 14:07:29:586,0.1809,-0.6844,9.8559,0.0004,0.0043,9.8066,-0.003,0.0345,-0.0133,-10.5,-35.25,0.25,144.26,-86.43,46.99
53.22508,-1.871889,406.5,1.44,4,17.86,19 / 21,2408893,2019-11-06 14:07:29:686,0.0936,-0.3311,9.859,0.0044,-0.0023,9.8066,0.01,-0.0324,0.0135,-19.62,-39,20.25,181.69,-86.48,46.83
53.22508,-1.871889,406.5,1.44,4,17.86,19 / 21,2408993,2019-11-06 14:07:29:786,0.6163,-0.601,9.8012,0.0053,0.0033,9.8066,0.0131,0.0127,-0.0124,-24.19,-39.25,-3.87,132.25,-86.52,47.63
53.22508,-1.871889,406.5,1.44,4,17.86,20 / 21,2409093,2019-11-06 14:07:29:886,0.8984,0.1328,9.8064,0.0083,0.0005,9.8066,0.015,0.0497,-0.0087,-14.12,-38.19,-8.19,115.97,-86.63,48.6
53.22508,-1.871889,406.5,1.44,4,17.86,20 / 21,2409193,2019-11-06 14:07:29:986,0.7925,-0.3245,9.7886,0.0046,0.0048,9.8066,0.0084,-0.012,0.002,-13.56,-37.31,-7.75,116.68,-86.68,49.64
53.22508,-1.871889,406.5,1.44,4,17.86,20 / 21,2409294,2019-11-06 14:07:30:087,0.6326,0.0322,9.9349,0.0015,-0.0018,9.8066,0.0087,-0.0157,-0.0067,-13.37,-37.75,-7.56,115.57,-86.72,49.81
53.22508,-1.871889,406.5,1.44,4,17.86,20 / 21,2409393,2019-11-06 14:07:30:186,0.8144,-0.2778,9.7885,0.004,0.0028,9.8066,0.0098,-0.0141,0.0106,-17.37,-37.87,-5.62,126.48,-86.74,50.43
53.22508,-1.871889,406.5,1.44,4,17.86,20 / 21,2409493,2019-11-06 14:07:30:286,0.8636,-0.5496,9.8014,0.0024,-0.0027,9.8066,-0.0166,0.0249,0.0012,-27.62,-40.37,14,168.2,-86.79,50.81
53.22508,-1.871889,406.5,1.44,4,17.86,20 / 21,2409593,2019-11-06 14:07:30:386,-0.0884,-0.5799,9.838,-0.0004,-0.0038,9.8066,0.0137,0.0107,-0.0044,-8.62,-34.31,9.38,185.3,-86.8,51.08
53.22508,-1.871889,406.5,1.44,4,17.86,20 / 21,2409693,2019-11-06 14:07:30:486,2.1334,0.6847,9.7824,0.012,-0.0002,9.8066,0.021,0.0523,0.0231,-7.94,-36.5,-7.12,110.49,-86.88,51.75
53.22508,-1.871889,406.5,1.44,4,17.86,20 / 21,2409793,2019-11-06 14:07:30:586,3.3613,1.5901,9.7602,0.0052,0.0077,9.8066,0.0079,-0.0464,0.0035,-10,-37.25,-8.06,113.44,-86.87,53.79
53.22508,-1.871889,406.5,1.44,4,17.86,20 / 21,2409893,2019-11-06 14:07:30:686,2.8893,1.8985,9.5842,0.0075,0.0101,9.8066,-0.0042,0.0801,-0.0752,-10.37,-37.69,-7.94,115.67,-86.9,56.05
53.22508,-1.871889,406.5,1.44,4,17.86,20 / 21,2409994,2019-11-06 14:07:30:787,3.9116,2.0608,9.772,0.0159,0.0175,9.8065,0.0595,0.0078,0.0265,-10.5,-37.5,-7.44,124.9,-86.87,62.12
53.22508,-1.871889,406.5,1.44,4,17.86,18 / 20,2410093,2019-11-06 14:07:30:886,3.4847,1.8212,9.9194,0.0094,0.0091,9.8066,-0.0105,0.1451,-0.0083,-10.19,-36.44,-5.37,139.24,-86.76,69.02
53.22508,-1.871889,406.5,1.44,4,17.86,18 / 20,2410193,2019-11-06 14:07:30:986,3.8808,-0.2544,9.5903,0.0083,0.005,9.8066,-0.0218,0.0843,-0.0042,-9.62,-35.12,1.19,169.21,-86.68,71.35
53.22508,-1.871889,406.5,1.44,4,17.86,18 / 20,2410293,2019-11-06 14:07:31:086,3.8843,-2.1487,9.3635,-0.0013,0.0013,9.8066,-0.0275,0.2288,0.017,-28.94,-41,10.38,180.68,-86.61,71.71
53.22508,-1.871889,406.5,1.44,4,17.86,18 / 20,2410393,2019-11-06 14:07:31:186,3.4851,1.8168,9.306,-0.0015,0.0176,9.8066,-0.031,0.2504,-0.0754,-15,-37.94,-8,140.03,-86.48,73.1
53.22508,-1.871889,406.5,1.44,4,17.86,18 / 20,2410494,2019-11-06 14:07:31:287,4.1453,2.7028,9.794,-0.0056,0.0284,9.8065,0.0365,0.2448,-0.0351,-10.62,-37.56,-8.75,132.35,-86.29,74.35
53.22508,-1.871889,406.5,1.44,4,17.86,18 / 20,2410593,2019-11-06 14:07:31:386,2.339,3.3401,10.0009,-0.0131,0.0195,9.8066,0.0558,0.1491,-0.0335,-9.62,-37.75,-8.75,132.92,-85.78,76.22
53.22508,-1.871889,406.5,1.44,4,17.86,18 / 20,2410693,2019-11-06 14:07:31:486,1.5592,2.5239,10.0064,0.0072,0.0029,9.8066,-0.0523,0.3378,-0.0115,-10.12,-37.94,-9.5,133.57,-85.54,76.47
53.22508,-1.871889,406.5,1.44,4,17.86,18 / 20,2410793,2019-11-06 14:07:31:586,2.1364,0.6192,9.3148,-0.0037,0.0029,9.8066,-0.1148,0.2147,0.1259,-14.06,-38.31,-8.87,140.75,-85.49,77.05
53.22508,-1.871889,406.5,1.44,4,17.86,18 / 20,2410893,2019-11-06 14:07:31:686,4.3567,-1.0533,10.3322,-0.0061,-0.0101,9.8066,-0.0834,0.2458,0.0627,-21.62,-39.75,17.31,202.86,-85.41,77.67
53.22508,-1.871889,406.5,1.44,4,17.86,18 / 20,2410993,2019-11-06 14:07:31:786,2.3826,0.732,8.8005,0.0431,0.0058,9.8065,0.07,0.2912,-0.0314,-4.94,-35.31,-1.94,158.53,-85.27,79.08
53.22516,-1.871891,405.18,4.29,4,349.81,18 / 20,2411093,2019-11-06 14:07:31:886,1.7508,2.9609,10.0783,0.0029,0.0227,9.8066,-0.1381,0.5197,-0.0626,-3.87,-35.75,-6.37,130.93,-85.09,78.46
53.22516,-1.871891,405.18,4.29,4,349.81,18 / 20,2411193,2019-11-06 14:07:31:986,0.6955,4.3027,10.408,-0.0176,-0.0054,9.8066,-0.0259,0.3686,-0.0646,-3.69,-36.25,-7.75,122.89,-84.85,78.74
53.22516,-1.871891,405.18,4.29,4,349.81,18 / 20,2411293,2019-11-06 14:07:32:086,-0.4321,4.0748,9.8218,0.0156,-0.0166,9.8065,-0.0403,0.5717,-0.09,-2.94,-36.5,-8,118.88,-84.75,78.61
53.22516,-1.871891,405.18,4.29,4,349.81,18 / 20,2411393,2019-11-06 14:07:32:186,0.2348,3.0551,9.3576,0.0091,-0.0055,9.8066,-0.0883,0.4646,0.0262,-2.69,-36.19,-7.56,118.85,-84.79,78.75
53.22516,-1.871891,405.18,4.29,4,349.81,18 / 20,2411493,2019-11-06 14:07:32:286,1.7534,0.2351,8.6343,0.0373,-0.0225,9.8065,-0.1611,0.7508,0.0434,-1.5,-35.56,-4.62,119.55,-85.24,77.56
53.22516,-1.871891,405.18,4.29,4,349.81,18 / 20,2411593,2019-11-06 14:07:32:386,4.271,-1.5547,10.8147,-0.0331,-0.0688,9.8063,0.0715,0.7188,-0.2961,-0.5,-34.44,5.94,235.11,-85.41,76.89
53.22516,-1.871891,405.18,4.29,4,349.81,18 / 20,2411693,2019-11-06 14:07:32:486,4.43,1.7671,10.8573,0.0049,0.0123,9.8066,0.1577,0.4349,-0.1456,-18,-39.69,0.06,172.9,-84.96,81.55
53.22516,-1.871891,405.18,4.29,4,349.81,18 / 20,2411793,2019-11-06 14:07:32:586,-2.4043,3.0039,10.8385,0.0188,0.0273,9.8065,0.1117,0.2697,-0.0613,-4.06,-37.31,-8.37,129.24,-84.53,84.96
53.22516,-1.871891,405.18,4.29,4,349.81,18 / 20,2411894,2019-11-06 14:07:32:687,-0.3722,2.5647,10.3616,0.0538,0.0649,9.8063,-0.0499,0.3399,0.1338,-1.31,-37.31,-7.44,120.26,-84.56,86.78
53.22516,-1.871891,405.18,4.29,4,349.81,18 / 20,2411993,2019-11-06 14:07:32:786,-0.9699,3.4302,11.3626,0.0203,0.0002,9.8066,0.1382,0.438,-0.1362,-0.94,-37.06,-7.44,124.93,-84.89,94.39
53.22516,-1.871891,405.18,4.29,4,349.81,18 / 20,2412093,2019-11-06 14:07:32:886,-1.2534,6.4706,11.1449,0.0112,0.0047,9.8066,0.1493,0.5305,-0.2927,-1.19,-37.31,-5.87,133.51,-84.52,99.2
53.22516,-1.871891,405.18,4.29,4,349.81,18 / 20,2412193,2019-11-06 14:07:32:986,-0.3835,2.6252,8.8099,0.0102,-0.0251,9.8066,0.0196,0.0151,-0.0123,-7.19,-38.87,-3.75,167.5,-84.05,101.07
53.22516,-1.871891,405.18,4.29,4,349.81,18 / 20,2412293,2019-11-06 14:07:33:086,2.3467,-0.2282,8.8613,-0.0253,0.0045,9.8066,-0.0026,0.4652,0.0179,-1.25,-36.19,20.88,266.84,-84.23,99.49
53.22516,-1.871891,405.18,4.29,4,349.81,18 / 20,2412393,2019-11-06 14:07:33:186,4.5262,-0.9147,9.6445,-0.0383,-0.0077,9.8065,-0.1343,0.6205,-0.1843,3.31,-35.37,1.19,237.46,-84.46,101.17
53.22516,-1.871891,405.18,4.29,4,349.81,18 / 20,2412493,2019-11-06 14:07:33:286,1.4803,2.3242,9.8557,0.0727,-0.001,9.8064,-0.0554,0.4761,-0.1541,3.56,-35.94,-2.56,92,-84.34,99.65
53.22516,-1.871891,405.18,4.29,4,349.81,18 / 20,2412593,2019-11-06 14:07:33:386,-3.7854,1.0313,9.7527,0.0729,-0.0086,9.8063,0.0744,-0.2975,0.2394,2.63,-35.87,-3.69,102.17,-84.84,99.62
53.22516,-1.871891,405.18,4.29,4,349.81,18 / 20,2412693,2019-11-06 14:07:33:486,2.3907,1.8481,9.4474,0.035,-0.0024,9.8066,0.0064,0.0682,0.0415,2.44,-36.37,-3.75,114.15,-85.09,101.67
53.22516,-1.871891,405.18,4.29,4,349.81,18 / 20,2412793,2019-11-06 14:07:33:586,-0.8134,1.4583,10.0775,0.0503,-0.0145,9.8065,-0.0061,0.2872,-0.1579,3.69,-36.44,-2.69,85.44,-85.27,102.12
53.22516,-1.871891,405.18,4.29,4,349.81,18 / 20,2412893,2019-11-06 14:07:33:686,0.5922,2.9781,9.0006,0.0572,0.0151,9.8064,0.1337,0.1459,-0.2201,4.06,-35.37,2.31,319.3,-85.42,100.06
53.22516,-1.871891,405.18,4.29,4,349.81,18 / 20,2412995,2019-11-06 14:07:33:788,1.4511,-1.3549,10.2211,-0.0083,-0.0024,9.8066,-0.069,0.0914,-0.0826,-2.62,-37.62,22.63,265.53,-85.17,100.88
53.22516,-1.871891,405.18,4.29,4,349.81,20 / 22,2413093,2019-11-06 14:07:33:886,0.6784,0.392,9.6882,0.0105,-0.0199,9.8066,-0.167,0.4247,-0.106,-10.75,-38.75,0.75,190.99,-85.08,99.07
53.22516,-1.871891,405.18,4.29,4,349.81,20 / 22,2413194,2019-11-06 14:07:33:987,-0.4219,2.8902,9.7298,0.0129,-0.0314,9.8066,-0.0441,0.2751,-0.2277,0,-37.5,-4.94,126.71,-85.18,96.87
53.22516,-1.871891,405.18,4.29,4,349.81,20 / 22,2413293,2019-11-06 14:07:34:086,-1.214,2.4352,10.3539,0.0513,-0.0243,9.8065,0.011,0.3638,-0.1636,1.31,-36.69,-5.62,114.14,-85.31,96.6
53.22516,-1.871891,405.18,4.29,4,349.81,20 / 22,2413394,2019-11-06 14:07:34:187,0.9067,1.2594,8.5716,0.0303,0.0005,9.8065,0.1843,-0.0383,0.0494,1.31,-37.19,-5.56,115.53,-85.27,98.1
53.22516,-1.871891,405.18,4.29,4,349.81,20 / 22,2413494,2019-11-06 14:07:34:287,2.139,0.3342,10.4274,0.0459,0.0022,9.8065,-0.1512,0.1813,-0.1213,-1.12,-37.56,-5.5,135.63,-85.26,98.88
53.22516,-1.871891,405.18,4.29,4,349.81,20 / 22,2413593,2019-11-06 14:07:34:386,0.3366,1.4192,9.0557,0.0035,0.0013,9.8066,-0.0841,0.324,-0.0848,-14.44,-40.69,9.56,216.14,-85.26,97.17
53.22516,-1.871891,405.18,4.29,4,349.81,20 / 22,2413693,2019-11-06 14:07:34:486,-0.4766,-0.661,8.6144,-0.0282,-0.0139,9.8066,-0.0844,0.152,-0.1176,2.38,-34.56,15.31,272.83,-85.1,96.66
53.22516,-1.871891,405.18,4.29,4,349.81,20 / 22,2413793,2019-11-06 14:07:34:586,-1.5941,2.2106,10.7684,-0.0371,0.0276,9.8065,-0.0653,-0.1836,0.1214,3.5,-35.81,-1.69,73.7,-85.26,97.24
53.22516,-1.871891,405.18,4.29,4,349.81,20 / 22,2413893,2019-11-06 14:07:34:686,0.5094,-0.0166,10.9631,0.0309,-0.0109,9.8066,0.1324,0.0589,-0.1094,3.38,-36.25,-3.81,96.62,-85.25,97.08
53.22516,-1.871891,405.18,4.29,4,349.81,20 / 22,2413993,2019-11-06 14:07:34:786,-1.0081,2.295,9.0178,0.0126,0.0154,9.8066,-0.0528,0.1444,0.0016,3,-36.37,-4.87,99.78,-85.07,99.14
53.22516,-1.871891,405.18,4.29,4,349.81,19 / 21,2414093,2019-11-06 14:07:34:886,1.364,0.8394,9.7361,-0.0108,0.0138,9.8065,-0.0367,-0.0035,0.0694,2.94,-36.81,-4.06,102.25,-85.07,100.54
53.22516,-1.871891,405.18,4.29,4,349.81,19 / 21,2414193,2019-11-06 14:07:34:986,0.4485,2.1229,9.1452,0.0242,-0.0213,9.8065,0,0.0189,-0.0386,3.94,-35.87,-2.94,84.02,-85.14,99.6
53.22516,-1.871891,405.18,4.29,4,349.81,19 / 21,2414294,2019-11-06 14:07:35:087,-1.0154,-1.7319,10.1757,-0.0016,0.0185,9.8066,0.0749,-0.0224,-0.0717,3.38,-34.37,2.38,283.57,-85.15,98.39
53.22516,-1.871891,405.18,4.29,4,349.81,19 / 21,2414393,2019-11-06 14:07:35:186,0.4859,-0.3041,8.9888,0.0022,-0.0119,9.8066,-0.1427,0.1518,-0.0401,-13.87,-40.69,17.81,232.25,-85.08,97.05
53.22516,-1.871891,405.18,4.29,4,349.81,19 / 21,2414494,2019-11-06 14:07:35:287,1.0274,-1.5761,10.9466,0.0198,0.002,9.8066,-0.0883,-0.0113,-0.0383,-2.94,-37.69,-5.25,145.66,-84.99,96.04
53.22516,-1.871891,405.18,4.29,4,349.81,19 / 21,2414593,2019-11-06 14:07:35:386,-0.8372,1.2789,9.6929,0.0154,0.0008,9.8065,0.0811,0.2128,-0.14,0.31,-37.12,-6.31,123.09,-84.96,96.14
53.22516,-1.871891,405.18,4.29,4,349.81,19 / 21,2414693,2019-11-06 14:07:35:486,1.2251,2.2045,9.1794,-0.011,-0.0015,9.8066,0.0409,-0.3545,0.0558,1.38,-36,-5.12,120.98,-84.71,98.34
53.22516,-1.871891,405.18,4.29,4,349.81,19 / 21,2414793,2019-11-06 14:07:35:586,3.9168,-1.575,10.4673,-0.0126,-0.0185,9.8066,-0.0207,-0.0496,0.0929,0.75,-36.94,-6.94,115.17,-84.74,97.55
53.22516,-1.871891,405.18,4.29,4,349.81,19 / 21,2414893,2019-11-06 14:07:35:686,2.4754,-3.579,10.5836,-0.0489,0.031,9.8064,0.0542,-0.4219,0.1741,-3.06,-37.62,-6.25,141.12,-84.9,96.21
53.22516,-1.871891,405.18,4.29,4,349.81,19 / 21,2414993,2019-11-06 14:07:35:786,2.3085,-2.0324,9.3648,0.0386,-0.0208,9.8065,-0.0318,0.0859,-0.0291,-9.31,-38.56,21.88,246.52,-84.65,96.78
