GPS LATITUDE (degrees), GPS LONGITUDE (degrees), GPS ALTITUDE (m), GPS SPEED (Kmh), GPS ACCURACY (m), GPS ORIENTATION (Â°),GPS SATELLITES IN RANGE, TIME SINCE START (ms), DATE (YYYY-MO-DD HH-MI-SS_SSS), ACCELEROMETER X (m/s²) , ACCELEROMETER Y (m/s²), ACCELEROMETER Z (m/s²), GRAVITY X (m/s²), GRAVITY Y (m/s²), GRAVITY Z (m/s²), GYROSCOPE Yaw (rad/s), GYROSCOPE Pitch (rad/s), GYROSCOPE Roll (rad/s), MAGNETIC FIELD X (Î¼T), MAGNETIC FIELD Y (Î¼T), MAGNETIC FIELD Z (Î¼T), ORIENTATION (Yaw) (Â°), ORIENTATION (Pitch) (Â°), ORIENTATION (Roll ) (Â°)
52.81347,-1.638823,30.15,0,6,98.12,21 / 21,12,2019-11-06 11:45:53:893,0.1178,0.1884,9.3856,0.0017,-0.0087,9.8066,-0.0553,0.0643,-0.0194,0.81,-34.81,20.56,248.82,-85.96,72.34
52.81347,-1.638823,30.15,0,6,98.12,21 / 21,112,2019-11-06 11:45:53:993,-0.2457,-0.7466,10.1908,0.0077,0.0159,9.8066,0.0509,-0.0237,0.015,0.13,-34.62,20.88,246.2,-85.92,72.39
52.81347,-1.638823,30.15,0,6,98.12,21 / 21,212,2019-11-06 11:45:54:093,0.4026,-0.4365,10.0668,-0.0117,0.0052,9.8066,0.011,0.0885,-0.0871,0.25,-34.06,20.94,246.34,-85.95,72.31
52.81347,-1.638823,30.15,0,6,98.12,21 / 21,311,2019-11-06 11:45:54:192,-0.7064,-0.3386,9.6977,0.0114,-0.0021,9.8066,0.0178,0.0545,-0.0453,0.31,-34.06,20.75,246.62,-85.86,72.73
52.81347,-1.638823,30.15,0,6,98.12,21 / 21,412,2019-11-06 11:45:54:293,0.0287,-0.0196,9.649,-0.0027,-0.0046,9.8066,-0.032,0.0871,-0.0291,0.06,-34.5,21.13,246.13,-85.87,72.2
52.81347,-1.638823,30.15,0,6,98.12,20 / 20,512,2019-11-06 11:45:54:393,-0.692,-0.4064,9.9562,-0.0049,0.005,9.8066,-0.0158,-0.0097,-0.0027,0.81,-34.75,21.31,248.23,-85.86,71.87
52.81347,-1.638823,30.15,0,6,98.12,20 / 20,612,2019-11-06 11:45:54:493,-0.9291,-0.2037,9.6061,-0.0071,0.0038,9.8066,0.0802,0.0401,-0.0395,0,-34.25,21,245.99,-85.85,72.09
52.81347,-1.638823,30.15,0,6,98.12,20 / 20,712,2019-11-06 11:45:54:593,-0.8801,-0.3381,9.7604,-0.0097,0.0131,9.8066,0.0456,-0.0093,0.0009,0.44,-34.06,21.19,246.69,-85.86,72.81
52.81347,-1.638823,30.15,0,6,98.12,20 / 20,813,2019-11-06 11:45:54:694,-0.4219,-0.5032,9.9084,0.0022,-0.0053,9.8066,-0.0324,0.0557,-0.0496,0.5,-34.69,20.88,248.96,-85.83,72.69
52.81347,-1.638823,30.15,0,6,98.12,20 / 20,911,2019-11-06 11:45:54:792,-0.1952,-0.2526,9.8439,0.0008,-0.0006,9.8066,-0.0005,0.0058,-0.0401,0.25,-34.44,20.88,246.36,-85.8,72.55
52.81347,-1.638823,30.15,0,6,98.12,20 / 20,1012,2019-11-06 11:45:54:893,-0.4857,-0.3356,9.8798,0.0003,-0.0015,9.8066,0.0123,0.0459,-0.0336,1,-34.62,20.5,248.72,-85.79,72.5
52.81347,-1.638823,30.15,0,6,98.12,20 / 20,1112,2019-11-06 11:45:54:993,-0.2765,-0.0805,9.6682,-0.0052,0.0044,9.8066,-0.048,0.0287,-0.0092,0.69,-34.56,20.06,248.54,-85.77,72.53
52.81347,-1.638823,30.15,0,6,98.12,20 / 20,1212,2019-11-06 11:45:55:093,-0.6711,-0.53,9.9423,0.0031,0.0026,9.8066,0.0021,-0.0052,0.0064,0.56,-34.75,20.25,248.92,-85.78,72.92
52.81347,-1.638823,30.15,0,6,98.12,20 / 20,1312,2019-11-06 11:45:55:193,-0.4623,-0.3249,9.8176,-0.0007,-0.0016,9.8066,-0.0126,0.0447,-0.0193,1.06,-34.56,20.25,248.89,-85.76,72.91
52.81347,-1.638823,30.15,0,6,98.12,20 / 20,1412,2019-11-06 11:45:55:293,-0.2579,-0.1803,9.8224,0.0028,0.0014,9.8066,-0.0135,0.0063,-0.0106,0.44,-34.31,20.63,246.67,-85.73,72.97
52.81347,-1.638823,30.15,0,6,98.12,21 / 22,1512,2019-11-06 11:45:55:393,-0.4132,-0.3386,9.8615,-0.0024,0.0008,9.8066,-0.005,0.0422,-0.0104,0.38,-34.5,20.13,246.42,-85.72,73.05
52.81347,-1.638823,30.15,0,6,98.12,21 / 22,1611,2019-11-06 11:45:55:492,-0.3041,-0.2463,9.7693,-0.0013,-0.0025,9.8066,-0.0329,0.0363,-0.0155,1,-34.5,20.56,249.41,-85.74,73.1
52.81347,-1.638823,30.15,0,6,98.12,21 / 22,1712,2019-11-06 11:45:55:593,-0.3369,-0.3953,9.9163,-0.0043,0.0002,9.8066,-0.0119,0.036,-0.0155,0.19,-34.25,20.75,246.7,-85.75,72.98
52.81347,-1.638823,30.15,0,6,98.12,21 / 22,1812,2019-11-06 11:45:55:693,-0.3306,-0.4261,9.8445,-0.0019,0.0001,9.8066,-0.0125,0.0031,0.0191,0.63,-34.37,20.69,249.5,-85.75,73.18
52.81347,-1.638823,30.15,0,6,98.12,21 / 22,1912,2019-11-06 11:45:55:793,-0.8357,-0.176,9.7627,-0.0023,-0.0001,9.8066,-0.0165,0.0284,-0.0008,0.56,-34.44,20.31,249.28,-85.76,73.13
52.81347,-1.638823,30.15,0,6,98.12,21 / 22,2012,2019-11-06 11:45:55:893,-0.4594,-0.1462,9.7835,-0.0047,-0.0004,9.8066,0.0065,0.0093,0.0075,0.25,-34.25,20.56,246.94,-85.77,73.22
52.81347,-1.638823,30.15,0,6,98.12,21 / 22,2112,2019-11-06 11:45:55:993,-1.0408,0.0487,9.2357,0.0201,-0.0109,9.8065,-0.0946,-0.103,0.121,0.69,-34.37,20.63,249.62,-85.77,73.28
52.81347,-1.638823,30.15,0,6,98.12,21 / 22,2212,2019-11-06 11:45:56:093,-0.6469,-0.8043,10.1903,-0.0007,0.0113,9.8066,-0.0145,0.0676,0.0419,0.25,-34.81,20.88,246.45,-85.76,72.89
52.81347,-1.638823,30.15,0,6,98.12,21 / 22,2312,2019-11-06 11:45:56:193,-0.6435,-0.5741,9.9414,-0.002,0.0069,9.8066,0.0194,-0.0203,-0.0371,0.25,-34.5,20.88,246.78,-85.73,73.11
52.81347,-1.638823,30.15,0,6,98.12,21 / 22,2412,2019-11-06 11:45:56:293,-0.8307,-0.1986,9.732,0.0163,-0.0009,9.8066,0.0099,0.0795,-0.038,0.25,-33.69,20.88,247.04,-85.68,73.44
52.81347,-1.638823,30.15,0,6,98.12,20 / 21,2512,2019-11-06 11:45:56:393,-0.0435,-0.3944,9.9578,0.0093,-0.0028,9.8066,-0.0257,0.0267,0.0122,0.44,-34.87,20.81,246.66,-85.69,73.22
52.81347,-1.638823,30.15,0,6,98.12,20 / 21,2612,2019-11-06 11:45:56:493,-0.6536,-0.4554,9.8171,0.0077,0.0018,9.8066,-0.0331,0.0746,-0.0482,-0.12,-34.31,21.31,246.43,-85.67,72.82
52.81347,-1.638823,30.15,0,6,98.12,20 / 21,2712,2019-11-06 11:45:56:593,-0.1187,-0.5198,9.9605,-0.0021,0.0054,9.8066,0.0317,0.0457,-0.0209,0.75,-34.87,20.5,249.05,-85.69,72.99
52.81347,-1.638823,30.15,0,6,98.12,20 / 21,2813,2019-11-06 11:45:56:694,-0.655,-0.1231,9.689,0.0025,-0.0013,9.8066,-0.0125,-0.0067,-0.0123,1.06,-33.75,20.69,249.18,-85.68,72.95
52.81347,-1.638823,30.15,0,6,98.12,20 / 21,2912,2019-11-06 11:45:56:793,-0.2993,-0.2171,9.7612,-0.0025,-0.0018,9.8066,-0.0053,0.0387,-0.0249,0.38,-34,20.81,246.3,-85.67,72.67
52.81347,-1.638823,30.15,0,6,98.12,20 / 21,3012,2019-11-06 11:45:56:893,-0.7669,-0.4175,9.8026,0.0147,-0.0137,9.8065,-0.0555,-0.0081,0.0405,0.56,-33.87,20.44,249.82,-85.62,73.91
52.81347,-1.638823,30.15,0,6,98.12,20 / 21,3112,2019-11-06 11:45:56:993,-0.8033,-0.508,9.742,0.011,-0.0002,9.8066,-0.0066,0.0627,-0.0755,-0.25,-34.12,20.69,246.52,-85.61,73
52.81347,-1.638823,30.15,0,6,98.12,20 / 21,3212,2019-11-06 11:45:57:093,0.0971,-0.271,9.9181,0.0142,0.0009,9.8066,-0.0127,0.0064,0.0593,0.75,-34.19,20.81,249.01,-85.67,72.79
52.81347,-1.638823,30.15,0,6,98.12,20 / 21,3312,2019-11-06 11:45:57:193,-0.625,-0.3225,9.8293,0.0047,-0.0025,9.8066,-0.0334,0.0909,-0.0366,0.31,-34.56,20.81,246.33,-85.65,72.94
52.81347,-1.638823,30.15,0,6,98.12,20 / 21,3412,2019-11-06 11:45:57:293,-0.0608,-0.314,9.7895,0.0003,0.0013,9.8066,-0.0101,0.0425,-0.0006,0.63,-34.62,20.63,248.81,-85.63,72.84
52.81347,-1.638823,30.15,0,6,98.12,23 / 23,3511,2019-11-06 11:45:57:392,-0.7155,-0.4678,9.846,0.0061,0.0028,9.8066,-0.0213,0.0961,-0.0119,0.19,-34.44,20.06,246.05,-85.63,72.81
52.81347,-1.638823,30.15,0,6,98.12,23 / 23,3612,2019-11-06 11:45:57:493,-0.2705,-0.5498,9.9727,-0.0036,-0.0002,9.8066,-0.0109,0.0547,-0.0278,0.56,-34.56,20.44,248.38,-85.64,72.58
52.81347,-1.638823,30.15,0,6,98.12,23 / 23,3712,2019-11-06 11:45:57:593,-0.7621,-0.3889,9.804,0.0042,0.0012,9.8066,-0.0077,0.0542,-0.0007,0.5,-34.31,20.38,248.7,-85.62,72.73
52.81347,-1.638823,30.15,0,6,98.12,23 / 23,3812,2019-11-06 11:45:57:693,-0.6738,-0.2729,9.7656,-0.0047,-0.0016,9.8066,-0.0176,0.0661,-0.0287,0.25,-34.87,20.75,246.12,-85.63,72.75
52.81347,-1.638823,30.15,0,6,98.12,23 / 23,3912,2019-11-06 11:45:57:793,-0.7774,-0.2323,9.7856,-0.0011,-0.0003,9.8066,-0.0105,0.0566,-0.0045,1,-34.62,21.13,248.87,-85.64,72.89
52.81347,-1.638823,30.15,0,6,98.12,23 / 23,4012,2019-11-06 11:45:57:893,-0.5199,-0.4596,9.8399,0.0003,0.0013,9.8066,-0.0121,0.053,-0.0094,0.25,-34.5,21.25,246.24,-85.65,72.65
52.81347,-1.638823,30.15,0,6,98.12,23 / 23,4112,2019-11-06 11:45:57:993,-0.2637,-0.5734,9.921,0.0032,-0.0003,9.8066,-0.0018,0.0093,0.0009,0.69,-33.87,21.06,248.92,-85.66,72.7
52.81347,-1.638823,30.15,0,6,98.12,23 / 23,4213,2019-11-06 11:45:58:094,-0.4122,-0.4516,9.8995,0.0026,0.0002,9.8066,0.0026,0.0338,-0.0018,0,-34.5,21.31,246.26,-85.68,72.63
52.81347,-1.638823,30.15,0,6,98.12,23 / 23,4312,2019-11-06 11:45:58:193,-0.3477,-0.2305,9.795,0.0009,-0.0009,9.8066,0.0065,-0.0172,0.0075,0.56,-34.5,21.25,248.94,-85.7,72.67
52.81347,-1.638823,30.15,0,6,98.12,23 / 23,4412,2019-11-06 11:45:58:293,-0.7146,-0.4194,9.8726,0.0028,0.0007,9.8066,0.0167,0.0058,0.006,0.13,-34.56,20.88,246.05,-85.71,72.54
52.81347,-1.638823,30.15,0,6,98.12,20 / 21,4512,2019-11-06 11:45:58:393,-0.472,-0.4686,9.843,-0.0022,-0.0006,9.8066,-0.0029,0.0265,-0.0238,0.5,-34.62,20.75,248.73,-85.74,72.58
52.81347,-1.638823,30.15,0,6,98.12,20 / 21,4612,2019-11-06 11:45:58:493,-0.6964,-0.515,9.9137,0.0017,-0.0014,9.8066,0.0149,-0.0141,0.0002,0.5,-34.37,21.06,249.13,-85.78,72.76
52.81347,-1.638823,30.15,0,6,98.12,20 / 21,4712,2019-11-06 11:45:58:593,-0.4254,-0.1596,9.758,-0.0032,-0.0016,9.8066,0.0194,-0.0285,0.0071,0,-34.81,20.63,246.32,-85.81,72.69
52.81347,-1.638823,30.15,0,6,98.12,20 / 21,4812,2019-11-06 11:45:58:693,-0.7201,-0.3268,9.8219,0.0007,0.0003,9.8066,0.0065,-0.0354,-0.0009,0,-35.06,21.31,246.53,-85.82,72.88
52.81347,-1.638823,30.15,0,6,98.12,20 / 21,4912,2019-11-06 11:45:58:793,-0.3822,-0.3725,9.7363,-0.0038,-0.003,9.8066,0.0174,-0.0063,-0.0063,-0.06,-34.19,20.88,246.78,-85.85,72.91
52.81347,-1.638823,30.15,0,6,98.12,20 / 21,5012,2019-11-06 11:45:58:893,-0.4359,-0.4542,9.8658,-0.0014,0.0009,9.8066,0.0063,-0.0222,-0.0157,0.56,-34.56,20.5,249.26,-85.85,72.96
52.81347,-1.638823,30.15,0,6,98.12,20 / 21,5112,2019-11-06 11:45:58:993,-0.4521,-0.4136,9.8344,-0.0012,-0.0008,9.8066,0.0112,-0.0153,-0.0194,0,-34.56,21.38,246.57,-85.88,72.84
52.81347,-1.638823,30.15,0,6,98.12,20 / 21,5212,2019-11-06 11:45:59:093,-0.5159,-0.4462,9.893,-0.0009,0.0025,9.8066,-0.0045,-0.0154,-0.0079,0.06,-34.06,20.94,246.47,-85.88,72.55
52.81347,-1.638823,30.15,0,6,98.12,20 / 21,5312,2019-11-06 11:45:59:193,-0.5114,-0.3516,9.7884,0.0002,0.0009,9.8066,-0.0111,-0.0049,-0.0343,0,-34.62,21.06,246.43,-85.89,72.68
52.81347,-1.638823,30.15,0,6,98.12,20 / 21,5412,2019-11-06 11:45:59:293,-0.3065,-0.3446,9.8274,-0.005,-0.0006,9.8066,0.0081,0.003,-0.018,0.13,-34.06,20.94,246.45,-85.9,72.51
52.81347,-1.638823,30.15,0,6,98.12,20 / 21,5511,2019-11-06 11:45:59:392,-0.7463,-0.6595,9.9131,0.0033,0.0023,9.8066,-0.0087,0.0009,-0.0245,0.25,-34.44,21,246.42,-85.91,72.45
52.81347,-1.638823,30.15,0,6,98.12,20 / 21,5612,2019-11-06 11:45:59:493,-0.3502,-0.2867,9.8632,-0.0028,-0.0001,9.8066,-0.0013,0.0047,-0.0267,0.38,-34.19,20.88,246.21,-85.93,72.22
52.81347,-1.638823,30.15,0,6,98.12,20 / 21,5712,2019-11-06 11:45:59:593,-0.3673,-0.2051,9.6545,0.0014,0.0026,9.8066,-0.0033,-0.0028,-0.0024,0.25,-34.56,20.88,245.99,-85.89,72.21
52.81347,-1.638823,30.15,0,6,98.12,20 / 21,5812,2019-11-06 11:45:59:693,-0.2592,-0.3127,9.8037,0.0001,0.0013,9.8066,-0.0088,0.001,-0.0262,-0.06,-34,20.56,246.17,-85.91,72.19
52.81347,-1.638823,30.15,0,6,98.12,20 / 21,5912,2019-11-06 11:45:59:793,-0.4699,-0.353,9.799,0.003,-0.002,9.8066,0.0047,-0.0128,-0.0046,0.56,-34.25,21.81,248.91,-85.9,72.18
52.81347,-1.638823,30.15,0,6,98.12,20 / 21,6012,2019-11-06 11:45:59:893,-0.6343,-0.5996,9.9326,0.0015,0.0023,9.8066,-0.0209,0.0059,-0.0203,0.69,-34.62,21,248.36,-85.91,71.94
52.81347,-1.638823,30.15,0,6,98.12,20 / 21,6112,2019-11-06 11:45:59:993,-0.5651,-0.3504,9.8363,0.0021,0.0016,9.8066,-0.0079,-0.0113,-0.0004,0.69,-34.37,21.13,248.54,-85.92,71.93
52.81347,-1.638823,30.15,0,6,98.12,20 / 21,6212,2019-11-06 11:46:00:093,-0.4978,-0.2804,9.8435,0.0015,0.0028,9.8066,-0.0187,0.02,-0.0137,0.56,-34.87,20.25,247.86,-85.89,71.62
52.81347,-1.638823,30.15,0,6,98.12,20 / 21,6312,2019-11-06 11:46:00:193,-0.3207,-0.4434,9.8499,0.0014,0.0028,9.8066,-0.0178,0.0018,-0.0102,0.25,-34.56,20.06,245.13,-85.9,71.6
52.81347,-1.638823,30.15,0,6,98.12,20 / 21,6412,2019-11-06 11:46:00:293,-0.523,-0.5363,9.8711,0.0007,-0.0015,9.8066,-0.018,0.02,-0.0024,0.94,-34.12,20.69,248.38,-85.91,71.77
52.81347,-1.638823,30.15,0,6,98.12,20 / 20,6512,2019-11-06 11:46:00:393,-0.4006,-0.5587,9.9228,0.0008,0.0019,9.8066,-0.0198,0.0039,-0.0003,0.25,-34.25,21.13,245.82,-85.92,71.82
52.81347,-1.638823,30.15,0,6,98.12,20 / 20,6612,2019-11-06 11:46:00:493,-0.4854,-0.224,9.7843,0.0007,-0.0008,9.8066,-0.0028,0.0198,-0.0062,0,-34.25,20.38,245.48,-85.91,71.76
52.81347,-1.638823,30.15,0,6,98.12,20 / 20,6712,2019-11-06 11:46:00:593,-0.4471,-0.319,9.836,0,-0.0005,9.8066,-0.0104,0.0232,0.0053,0.56,-34.69,21,248.09,-85.92,71.64
52.81347,-1.638823,30.15,0,6,98.12,20 / 20,6812,2019-11-06 11:46:00:693,-0.4874,-0.2942,9.7341,0.0005,-0.0016,9.8066,-0.0185,0.0297,-0.001,0.31,-34.87,20.25,245.47,-85.93,71.91
52.81347,-1.638823,30.15,0,6,98.12,20 / 20,6912,2019-11-06 11:46:00:793,-0.508,-0.4442,9.8693,-0.0003,0.0001,9.8066,-0.0045,0.0308,0.0009,0.88,-34.5,20.81,248.45,-85.94,71.79
52.81347,-1.638823,30.15,0,6,98.12,20 / 20,7011,2019-11-06 11:46:00:892,-0.479,-0.4281,9.8863,-0.0012,0.0024,9.8066,-0.0172,0.0448,0.0075,0.5,-34.12,20.88,248.3,-85.94,71.64
52.81347,-1.638823,30.15,0,6,98.12,20 / 20,7112,2019-11-06 11:46:00:993,-0.5845,-0.2995,9.855,0.0002,-0.0003,9.8066,-0.0039,0.0233,0.0071,0.88,-34.81,20.44,248,-85.96,71.66
52.81347,-1.638823,30.15,0,6,98.12,20 / 20,7211,2019-11-06 11:46:01:092,-0.3931,-0.4704,9.7302,-0.001,-0.0012,9.8066,-0.0109,0.0336,0.015,0.38,-34.87,21,245.63,-85.96,71.73
52.81347,-1.638823,30.15,0,6,98.12,20 / 20,7312,2019-11-06 11:46:01:193,-0.4344,-0.3336,9.753,0.0008,0.0016,9.8066,-0.0012,0.023,0.0061,0.31,-34.12,20.69,245.61,-85.96,71.54
52.81347,-1.638823,30.15,0,6,98.12,20 / 20,7412,2019-11-06 11:46:01:293,-0.4352,-0.5073,9.9445,-0.0007,0.0013,9.8066,0.0043,0.021,-0.0027,0.56,-34.5,20.75,247.99,-85.97,71.28
52.81347,-1.638823,30.15,0,6,98.12,19 / 20,7512,2019-11-06 11:46:01:393,-0.5318,-0.2034,9.7957,0.0002,0.0019,9.8066,-0.0023,0.0026,-0.0061,0.19,-34.5,20.63,245.41,-85.96,71.32
52.81347,-1.638823,30.15,0,6,98.12,19 / 20,7612,2019-11-06 11:46:01:493,-0.4356,-0.37,9.86,0,-0.0009,9.8066,0.0065,0.0011,-0.0119,-0.31,-34.62,20.69,245.19,-85.96,71.26
52.81347,-1.638823,30.15,0,6,98.12,19 / 20,7712,2019-11-06 11:46:01:593,-0.3498,-0.3968,9.8753,0.0025,-0.0007,9.8066,-0.0094,-0.0129,0.0056,0.38,-34.75,20.94,245.19,-85.93,71.3
52.81347,-1.638823,30.15,0,6,98.12,19 / 20,7812,2019-11-06 11:46:01:693,-0.53,-0.2832,9.8603,0.0014,0.0013,9.8066,-0.0043,-0.0031,-0.0057,0.56,-34.75,20.69,247.46,-85.94,70.95
52.81347,-1.638823,30.15,0,6,98.12,19 / 20,7912,2019-11-06 11:46:01:793,-0.5276,-0.1627,9.8459,-0.0033,-0.001,9.8065,0.0012,0.0131,0.0147,0.5,-34.19,19.94,247.55,-85.96,71
52.81347,-1.638823,30.15,0,6,98.12,19 / 20,8012,2019-11-06 11:46:01:893,-0.2212,-0.5462,9.8401,0.0011,0.0013,9.8066,-0.0188,0.0246,-0.0302,0.06,-34.75,20.88,245.01,-85.97,71.07
52.81347,-1.638823,30.15,0,6,98.12,19 / 20,8112,2019-11-06 11:46:01:993,-0.659,-0.2468,9.9413,-0.0033,0.0025,9.8066,-0.0424,0.0411,-0.0001,0,-34.19,21.06,245.73,-85.98,71.63
52.81347,-1.638823,30.15,0,6,98.12,19 / 20,8212,2019-11-06 11:46:02:093,-1.0192,-0.0961,10.0078,0.0014,-0.0044,9.8066,-0.0097,-0.0363,0.0308,0.13,-34.87,20.81,245.61,-85.97,71.69
52.81347,-1.638823,30.15,0,6,98.12,19 / 20,8312,2019-11-06 11:46:02:193,-0.2118,-0.2269,9.6697,-0.002,-0.008,9.8066,0.0174,0.0069,0.0024,0,-34.5,21.19,245.62,-85.96,71.55
52.81347,-1.638823,30.15,0,6,98.12,19 / 20,8412,2019-11-06 11:46:02:293,-0.0556,-0.1389,10.0159,-0.0037,0.0043,9.8066,-0.0011,-0.0259,0.0078,0.38,-34.25,21.44,244.74,-85.95,70.63
52.81347,-1.638823,30.15,0,6,98.12,20 / 21,8513,2019-11-06 11:46:02:394,-0.97,0.0431,9.6709,-0.0105,0.004,9.8066,-0.0213,-0.0467,0.0385,-0.25,-34.5,21.69,245.22,-85.89,70.95
52.81347,-1.638823,30.15,0,6,98.12,20 / 21,8612,2019-11-06 11:46:02:493,-0.1226,-0.0533,9.6656,-0.0063,-0.0034,9.8066,-0.0169,0.0049,-0.0016,0.56,-35.25,20.81,247.37,-85.92,70.88
52.81347,-1.638823,30.15,0,6,98.12,20 / 21,8712,2019-11-06 11:46:02:593,-1.0755,0.0657,9.8761,-0.0008,-0.0009,9.8066,-0.0069,0.072,-0.0421,0,-34.44,21.63,244.95,-85.89,70.67
52.81347,-1.638823,30.15,0,6,98.12,20 / 21,8812,2019-11-06 11:46:02:693,-0.099,-0.2082,9.8003,-0.008,0.0006,9.8066,-0.0058,0.0327,-0.0302,0,-34.25,21.94,244.7,-85.89,70.41
52.81347,-1.638823,30.15,0,6,98.12,20 / 21,8912,2019-11-06 11:46:02:793,-1.1372,-0.1053,9.875,0.0035,0.0053,9.8066,-0.0146,0.0788,-0.0398,-0.25,-34.37,20.94,244.27,-85.85,70.29
52.81347,-1.638823,30.15,0,6,98.12,20 / 21,9012,2019-11-06 11:46:02:893,-0.4704,0.0379,9.9141,-0.0061,0.0024,9.8066,-0.0199,0.0737,-0.038,-0.19,-34.87,21,243.89,-85.85,70.05
52.81347,-1.638823,30.15,0,6,98.12,20 / 21,9112,2019-11-06 11:46:02:993,0.1525,-0.1805,9.8469,0.0111,0.0029,9.8066,-0.0048,0.0202,-0.0154,-0.44,-34.94,21.38,243.76,-85.86,69.91
52.81347,-1.638823,30.15,0,6,98.12,20 / 21,9212,2019-11-06 11:46:03:093,-0.2787,0.0805,9.8928,-0.0005,0.0034,9.8066,-0.0082,0.0877,-0.0505,-0.06,-34.69,21.5,243.72,-85.81,69.65
52.81347,-1.638823,30.15,0,6,98.12,20 / 21,9312,2019-11-06 11:46:03:193,0.1088,-0.3416,9.7165,0.0129,0.0021,9.8066,0.0197,-0.0092,0.0061,-0.06,-35.31,21.75,243.82,-85.75,69.85
52.81347,-1.638823,30.15,0,6,98.12,20 / 21,9412,2019-11-06 11:46:03:293,-0.1419,-0.3604,9.7298,0.0057,0,9.8066,-0.0062,0.0483,-0.0295,-0.25,-35,21.44,243.8,-85.78,70.07
52.81347,-1.638823,30.15,0,6,98.12,23 / 23,9512,2019-11-06 11:46:03:393,-0.2306,-0.6923,9.8504,0.0085,-0.0028,9.8066,0.0079,-0.0474,0.0347,-0.12,-34.75,21.75,244.82,-85.79,70.84
52.81347,-1.638823,30.15,0,6,98.12,23 / 23,9612,2019-11-06 11:46:03:493,-1.021,-0.9367,9.9055,0.0126,0.0019,9.8066,0.0018,0.0241,-0.0213,0,-34.75,21.81,244.86,-85.79,70.88
52.81347,-1.638823,30.15,0,6,98.12,23 / 23,9712,2019-11-06 11:46:03:593,-0.4508,-0.3594,9.8479,0.0061,0.0023,9.8065,0.0078,-0.0656,0.0292,-0.87,-34.62,21.44,241.62,-85.83,70.41
52.81347,-1.638823,30.15,0,6,98.12,23 / 23,9812,2019-11-06 11:46:03:693,-1.0917,-0.1315,9.8939,0.0132,0.0037,9.8066,-0.0068,-0.0198,-0.0045,0.31,-34.44,21.44,244.28,-85.74,70.46
52.81347,-1.638823,30.15,0,6,98.12,23 / 23,9912,2019-11-06 11:46:03:793,0.0317,-0.1085,9.7961,0.0034,0.001,9.8066,0.0232,-0.0704,0.0243,0.13,-34.75,21.38,243.75,-85.71,70.12
52.81347,-1.638823,30.15,0,6,98.12,23 / 23,10011,2019-11-06 11:46:03:892,-0.3616,-0.3685,9.819,0.0085,0.0053,9.8066,-0.0051,-0.0187,0.0089,0.38,-34.37,20.75,243.64,-85.69,69.85
52.81347,-1.638823,30.15,0,6,98.12,23 / 23,10112,2019-11-06 11:46:03:993,-0.1736,-0.1179,9.805,0.0006,0.0004,9.8066,-0.0031,-0.0377,0.0219,0.38,-35,20.88,243.44,-85.7,69.8
52.81347,-1.638823,30.15,0,6,98.12,23 / 23,10212,2019-11-06 11:46:04:093,-0.6857,-0.5192,9.8799,0.0065,0.0008,9.8066,0.0069,-0.031,0.0068,0,-34.56,20.56,243.53,-85.69,69.93
52.81347,-1.638823,30.15,0,6,98.12,23 / 23,10312,2019-11-06 11:46:04:193,-0.2101,-0.7476,9.8193,-0.0001,-0.0054,9.8066,0.0154,-0.0297,0.0099,0.13,-34.75,19.69,243.82,-85.71,70.52
52.81347,-1.638823,30.15,0,6,98.12,23 / 23,10412,2019-11-06 11:46:04:293,-0.7588,-0.5193,9.786,0.0046,-0.0038,9.8066,0.0058,-0.0342,0.015,0.13,-35.12,21.56,244.92,-85.71,71.07
52.81347,-1.638823,30.15,0,6,98.12,20 / 21,10512,2019-11-06 11:46:04:393,-0.3408,-0.6566,9.7703,-0.0025,-0.0025,9.8066,0.0007,0.01,-0.0146,0.31,-35.25,21.31,245.04,-85.73,71.45
52.81347,-1.638823,30.15,0,6,98.12,20 / 21,10612,2019-11-06 11:46:04:493,-0.6937,-0.6061,9.8658,-0.0005,0.0019,9.8066,-0.0121,-0.0314,0.0138,-0.06,-34.25,21,244.96,-85.72,71.2
52.81347,-1.638823,30.15,0,6,98.12,20 / 21,10712,2019-11-06 11:46:04:593,-0.3941,-0.2909,9.869,-0.0049,0.0008,9.8065,-0.009,0.0068,-0.0006,0.25,-35.06,21.19,244.64,-85.71,71.06
52.81347,-1.638823,30.15,0,6,98.12,20 / 21,10812,2019-11-06 11:46:04:693,-0.2631,-0.0531,9.8183,-0.0009,-0.0004,9.8066,-0.005,-0.01,-0.0103,0.13,-34.81,21,244.39,-85.72,70.77
52.81347,-1.638823,30.15,0,6,98.12,20 / 21,10912,2019-11-06 11:46:04:793,-0.3865,-0.7132,9.8737,-0.0025,0.0004,9.8066,-0.0017,0.032,-0.0274,-0.06,-35.19,20.94,244.34,-85.73,70.72
52.81347,-1.638823,30.15,0,6,98.12,20 / 21,11012,2019-11-06 11:46:04:893,-0.1237,-0.5671,9.8138,-0.006,-0.0003,9.8066,-0.0152,0.0245,-0.0107,0.19,-35.31,20.94,244.43,-85.74,70.79
52.81347,-1.638823,30.15,0,6,98.12,20 / 21,11111,2019-11-06 11:46:04:992,-0.5873,-0.4898,9.8362,0.0018,-0.0004,9.8066,-0.0032,0.0315,-0.0216,0.13,-34.75,20.63,244.62,-85.73,71
52.81347,-1.638823,30.15,0,6,98.12,20 / 21,11212,2019-11-06 11:46:05:093,-0.1215,-0.8579,9.7713,-0.0046,-0.0007,9.8066,0.0004,0.0338,-0.0275,-0.19,-35.12,20.94,244.51,-85.76,70.84
52.81347,-1.638823,30.15,0,6,98.12,20 / 21,11312,2019-11-06 11:46:05:193,-0.5672,-0.9388,9.8436,0.0023,0.0005,9.8066,-0.0042,0.0025,-0.0048,-0.19,-35.5,20.81,244.77,-85.77,71.11
52.81347,-1.638823,30.15,0,6,98.12,20 / 21,11412,2019-11-06 11:46:05:293,-0.4764,-0.6121,9.7876,0.0007,-0.0022,9.8066,-0.0033,0.0509,-0.0204,0.44,-35.44,20.94,245.14,-85.77,71.5
52.81347,-1.638823,30.15,0,6,98.12,19 / 19,11512,2019-11-06 11:46:05:393,-0.5991,-1.0556,9.8335,0.0047,-0.0009,9.8066,-0.0023,0.01,-0.0167,-0.37,-35.37,21.94,245.68,-85.77,71.78
52.81347,-1.638823,30.15,0,6,98.12,19 / 19,11612,2019-11-06 11:46:05:493,-0.2502,-0.6914,9.8398,-0.0015,0.0014,9.8066,-0.0065,0.0419,-0.0174,0.25,-35.19,21.69,245.56,-85.79,71.62
52.81347,-1.638823,30.15,0,6,98.12,19 / 19,11712,2019-11-06 11:46:05:593,-0.2477,-0.3042,9.8307,0.0026,0.0058,9.8066,-0.0143,0.0072,0.0018,-0.56,-35.81,22.75,243.15,-85.79,71.47
52.81347,-1.638823,30.15,0,6,98.12,19 / 19,11812,2019-11-06 11:46:05:693,-0.3258,-0.0997,9.9089,-0.0015,0.0046,9.8066,-0.0173,0.0246,-0.021,-0.56,-35.56,23.06,242.5,-85.81,70.77
52.81347,-1.638823,30.15,0,6,98.12,19 / 19,11912,2019-11-06 11:46:05:793,-0.559,-0.1878,9.7595,0.004,0.0001,9.8066,-0.0144,0.0247,-0.0129,0.06,-35,22.31,244.32,-85.81,70.28
52.81347,-1.638823,30.15,0,6,98.12,19 / 19,12012,2019-11-06 11:46:05:893,-0.7159,-0.5018,9.8521,0.0012,0.0001,9.8066,-0.0019,0.0518,-0.0179,-0.19,-35,21.19,244.29,-85.8,70.55
52.81347,-1.638823,30.15,0,6,98.12,19 / 19,12112,2019-11-06 11:46:05:993,-0.0331,-0.4283,9.9037,0.0075,-0.0027,9.8066,-0.0094,0.0504,-0.0404,-0.06,-34.87,21.38,244.75,-85.79,71.05
52.81347,-1.638823,30.15,0,6,98.12,19 / 19,12212,2019-11-06 11:46:06:093,-0.275,-0.4145,9.9052,0.0058,0.0009,9.8066,0.0092,0.0218,-0.0134,-0.25,-35.44,20.75,244.71,-85.81,70.98
52.81347,-1.638823,30.15,0,6,98.12,19 / 19,12312,2019-11-06 11:46:06:193,-0.1134,-0.2347,9.8262,0.0025,-0.0003,9.8066,-0.0016,-0.0298,0.0294,-0.37,-34.87,20.94,244.72,-85.83,70.97
52.81347,-1.638823,30.15,0,6,98.12,19 / 19,12412,2019-11-06 11:46:06:293,-0.8321,-0.5996,9.8261,0.0087,-0.0005,9.8066,-0.0001,-0.016,-0.0068,-0.12,-34.87,20.69,244.88,-85.82,71.16
52.81347,-1.638823,30.15,0,6,98.12,19 / 22,12512,2019-11-06 11:46:06:393,-0.1996,-0.256,9.8438,-0.0023,0.0006,9.8066,-0.0044,-0.0442,0.0258,-0.25,-35.31,20.56,244.76,-85.84,71
52.81347,-1.638823,30.15,0,6,98.12,19 / 22,12611,2019-11-06 11:46:06:492,-0.9273,-0.4086,9.831,0.005,-0.001,9.8066,0.0035,-0.0262,0.0332,-0.19,-35,21.63,245.1,-85.84,71.07
52.81347,-1.638823,30.15,0,6,98.12,19 / 22,12712,2019-11-06 11:46:06:593,-0.3252,-0.3348,9.8599,-0.0043,-0.0009,9.8066,-0.0061,-0.0372,0.0102,-0.12,-34.94,20.69,244.74,-85.87,70.93
52.81347,-1.638823,30.15,0,6,98.12,19 / 22,12812,2019-11-06 11:46:06:693,-0.8668,-0.5488,9.8635,0.0011,0.0001,9.8066,-0.0033,-0.0337,0.0282,0.19,-35.06,21,244.74,-85.87,70.93
52.81347,-1.638823,30.15,0,6,98.12,19 / 22,12912,2019-11-06 11:46:06:793,-0.3102,-0.1438,9.7975,-0.0069,-0.0002,9.8066,0.0086,0.0206,-0.0091,0.13,-35,21.44,244.57,-85.89,70.72
52.81347,-1.638823,30.15,0,6,98.12,19 / 22,13012,2019-11-06 11:46:06:893,-0.0277,-0.453,9.8772,-0.0034,0.0011,9.8066,-0.0111,-0.0298,0.0136,-0.69,-35.06,20.75,242.12,-85.88,70.87
52.81347,-1.638823,30.15,0,6,98.12,19 / 22,13112,2019-11-06 11:46:06:993,-0.7749,-0.3339,9.7959,-0.0069,-0.0009,9.8066,-0.0048,0.0342,-0.0202,0.13,-34.94,20.69,244.72,-85.86,70.92
52.81347,-1.638823,30.15,0,6,98.12,19 / 22,13212,2019-11-06 11:46:07:093,-0.3924,-0.5587,9.946,-0.0059,-0.0028,9.8066,-0.0007,0.0101,-0.008,0.06,-35.06,21.25,244.81,-85.9,70.95
52.81347,-1.638823,30.15,0,6,98.12,19 / 22,13311,2019-11-06 11:46:07:192,-0.7835,-0.309,9.8088,-0.0012,-0.0011,9.8066,-0.005,0.0678,-0.0283,-0.69,-34.87,20.81,242.14,-85.9,70.86
52.81347,-1.638823,30.15,0,6,98.12,19 / 22,13412,2019-11-06 11:46:07:293,-0.0848,-0.3436,9.7661,-0.0067,-0.0026,9.8066,-0.0072,0.0287,-0.0112,-0.62,-35.44,20.94,242.29,-85.93,70.97
52.81347,-1.638823,30.15,0,6,98.12,20 / 21,13512,2019-11-06 11:46:07:393,-0.3292,-0.3972,9.9011,0.0009,-0.0004,9.8066,0.0027,-0.0105,-0.0014,-0.5,-34.87,20.81,244.93,-85.92,71.05
52.81347,-1.638823,30.15,0,6,98.12,20 / 21,13612,2019-11-06 11:46:07:493,-0.5865,-0.4396,9.8773,-0.0011,0.0004,9.8066,-0.0084,0.0205,-0.0322,-0.25,-34.56,21.44,244.96,-85.94,71.06
52.81347,-1.638823,30.15,0,6,98.12,20 / 21,13712,2019-11-06 11:46:07:593,-0.5619,-0.347,9.8337,0.0005,0.0014,9.8066,-0.0164,0.0183,0.0041,0.06,-34.44,20.44,244.82,-85.93,71.05
52.81347,-1.638823,30.15,0,6,98.12,20 / 21,13812,2019-11-06 11:46:07:693,-0.4919,-0.3194,9.8829,0.0001,0.0017,9.8066,-0.0118,0.0503,-0.0321,0.19,-35.06,21.25,244.82,-85.93,70.93
52.81347,-1.638823,30.15,0,6,98.12,20 / 21,13912,2019-11-06 11:46:07:793,-0.6386,-0.366,9.7291,0.0041,-0.0008,9.8066,0.0029,0.0198,0.0091,-0.06,-35.75,20.88,244.77,-85.92,71.06
52.81347,-1.638823,30.15,0,6,98.12,20 / 21,14012,2019-11-06 11:46:07:893,-0.414,-0.4174,9.9616,0.0034,0.0004,9.8066,0.0034,0.0512,-0.0292,-0.81,-35.06,21.38,242.35,-85.93,71.03
52.81347,-1.638823,30.15,0,6,98.12,20 / 21,14111,2019-11-06 11:46:07:992,-0.2613,-0.024,9.8218,0.0037,0.0016,9.8065,0.0018,-0.0305,0.0071,-0.12,-35.12,20.94,244.89,-85.96,70.95
52.81347,-1.638823,30.15,0,6,98.12,20 / 21,14211,2019-11-06 11:46:08:092,-0.5168,-0.243,9.9935,0.0065,-0.0029,9.8066,0.0222,-0.0137,0.0071,-0.12,-35.06,21.94,245.52,-85.93,71.38
52.81347,-1.638823,30.15,0,6,98.12,20 / 21,14311,2019-11-06 11:46:08:192,0.06,-0.4443,9.6136,0.0032,-0.0055,9.8065,0.0349,-0.0643,0.0129,-0.69,-35.25,22.56,243.58,-85.93,71.57
52.81347,-1.638823,30.15,0,6,98.12,20 / 21,14412,2019-11-06 11:46:08:293,-0.6441,-0.4207,9.8676,0.0049,0.0009,9.8066,0.0085,-0.0405,0.0204,-0.25,-35.94,22.19,245.6,-85.93,71.63
52.81347,-1.638823,30.15,0,6,98.12,20 / 20,14512,2019-11-06 11:46:08:393,-0.0784,-0.5922,9.939,-0.0057,-0.0006,9.8066,-0.0013,-0.0215,0.0321,0.25,-35.31,22.19,245.89,-85.91,71.79
52.81347,-1.638823,30.15,0,6,98.12,20 / 20,14614,2019-11-06 11:46:08:495,-0.8576,-0.6835,9.8125,0.0063,0.0022,9.8066,-0.017,-0.0343,0.0157,-0.62,-35.75,22.75,243.92,-85.91,72.1
52.81347,-1.638823,30.15,0,6,98.12,20 / 20,14712,2019-11-06 11:46:08:593,-0.1519,-0.5836,9.8314,-0.0086,-0.0033,9.8066,0.0016,-0.0051,0.0115,-0.25,-35.19,22.88,246.46,-85.96,72.07
52.81347,-1.638823,30.15,0,6,98.12,20 / 20,14812,2019-11-06 11:46:08:693,-0.1709,-0.7941,9.8376,0.0008,-0.0011,9.8066,-0.0014,-0.0615,0.0189,-1.25,-35.06,22.38,243.98,-85.91,72.38
52.81347,-1.638823,30.15,0,6,98.12,20 / 20,14913,2019-11-06 11:46:08:794,-0.2667,-0.5966,9.7663,-0.007,-0.0022,9.8066,0.0055,0.0152,0.0019,-0.87,-35.31,23.13,244.36,-85.97,72.33
52.81347,-1.638823,30.15,0,6,98.12,20 / 20,15012,2019-11-06 11:46:08:893,-0.3958,-1.0357,9.8896,-0.0015,0.0022,9.8066,0.0019,-0.0154,0.0015,-0.94,-35.56,23.13,243.86,-85.95,72
52.81347,-1.638823,30.15,0,6,98.12,20 / 20,15112,2019-11-06 11:46:08:993,-0.6027,-0.6371,9.8067,-0.0039,0.0006,9.8066,-0.0105,-0.0277,-0.0009,-0.94,-36.06,23.44,243.57,-85.96,71.68
52.81347,-1.638823,30.15,0,6,98.12,20 / 20,15212,2019-11-06 11:46:09:093,-0.2419,-0.8875,9.7352,-0.003,0.0001,9.8066,0.0098,-0.0515,0.0194,-0.75,-36.31,24.06,243.68,-85.99,71.41
52.81347,-1.638823,30.15,0,6,98.12,20 / 20,15311,2019-11-06 11:46:09:192,-0.6059,-0.6737,9.8714,-0.0073,-0.001,9.8066,-0.0154,-0.0096,-0.0039,-1.5,-36,24.63,243.71,-86.07,71.04
52.81347,-1.638823,30.15,0,6,98.12,20 / 20,15411,2019-11-06 11:46:09:292,-0.3129,-0.8477,9.8603,-0.0076,0.0001,9.8066,-0.019,-0.0629,0.0184,-0.37,-36.19,23.19,245.07,-86.1,70.57
52.81347,-1.638823,30.15,0,6,98.12,22 / 22,15512,2019-11-06 11:46:09:393,-0.4653,-0.7351,9.8877,-0.013,0.0027,9.8066,-0.0008,-0.0288,-0.0151,-0.31,-35,21.69,244.03,-86.2,69.42
52.81347,-1.638823,30.15,0,6,98.12,22 / 22,15612,2019-11-06 11:46:09:493,-0.3985,-0.6241,9.8279,-0.0146,0.0011,9.8066,-0.013,-0.0718,0.0122,-1.25,-34.87,21.38,240.57,-86.27,68.66
52.81347,-1.638823,30.15,0,6,98.12,22 / 22,15712,2019-11-06 11:46:09:593,-0.9751,-0.9308,9.9105,-0.0042,0.0008,9.8066,-0.0135,-0.01,-0.0371,-0.19,-35.5,21,242.75,-86.31,68.18
52.81347,-1.638823,30.15,0,6,98.12,22 / 22,15812,2019-11-06 11:46:09:693,-0.5218,-0.7303,9.8992,-0.0171,-0.0021,9.8066,-0.0035,-0.0764,0.0165,-0.31,-34.31,20.44,241.91,-86.43,67.24
52.81347,-1.638823,30.15,0,6,98.12,22 / 22,15912,2019-11-06 11:46:09:793,-0.9774,-0.1607,9.9307,-0.0066,0.0039,9.8065,-0.0192,-0.0112,-0.0334,-0.06,-35.62,20.38,240.39,-86.45,65.91
52.81347,-1.638823,30.15,0,6,98.12,22 / 22,16012,2019-11-06 11:46:09:893,0.1076,0.2981,9.804,-0.0149,0.0017,9.8065,-0.0112,-0.052,-0.0102,0,-35.75,20.19,239.51,-86.5,64.9
52.81347,-1.638823,30.15,0,6,98.12,22 / 22,16112,2019-11-06 11:46:09:993,-0.704,0.0834,9.7919,-0.0032,0.0039,9.8066,-0.009,-0.0108,-0.0249,-0.31,-35,19.06,238.27,-86.49,63.73
52.81347,-1.638823,30.15,0,6,98.12,22 / 22,16212,2019-11-06 11:46:10:093,0.1446,0.1892,9.8795,-0.0142,0.0011,9.8066,-0.0143,-0.0154,-0.0189,-0.12,-35.44,19.63,237.5,-86.57,62.53
52.81347,-1.638823,30.15,0,6,98.12,22 / 22,16312,2019-11-06 11:46:10:193,-0.424,0.3193,10.0177,0.0053,0.0015,9.8066,-0.0164,-0.0058,-0.0263,0.19,-35,19.63,236.89,-86.61,61.83
52.81347,-1.638823,30.15,0,6,98.12,22 / 22,16412,2019-11-06 11:46:10:293,0.1071,0.1549,9.8474,-0.0041,-0.0011,9.8066,-0.0073,0.0103,-0.0209,0.13,-35.12,18.63,236.37,-86.6,61.55
52.81347,-1.638823,30.15,0,6,98.12,22 / 22,16512,2019-11-06 11:46:10:393,-0.4778,0.082,9.8749,0.0036,0.0055,9.8066,-0.0127,-0.0441,-0.0061,0.31,-35.19,18.44,235.22,-86.6,60.6
52.81347,-1.638823,30.15,0,6,98.12,22 / 22,16612,2019-11-06 11:46:10:493,-0.4936,0.4285,9.9151,-0.0022,0.0006,9.8066,-0.0091,-0.0042,-0.0036,0.38,-34.81,18.31,234.67,-86.64,59.97
52.81347,-1.638823,30.15,0,6,98.12,22 / 22,16712,2019-11-06 11:46:10:593,-0.0428,0.328,9.8993,0.0042,0.0016,9.8066,0.008,-0.0215,0.0128,0.25,-35.31,18.94,234.16,-86.68,59.08
52.81347,-1.638823,30.15,0,6,98.12,22 / 22,16812,2019-11-06 11:46:10:693,-0.4697,0.1594,9.8507,0.0017,0.0016,9.8066,-0.0059,-0.0113,-0.0018,-0.62,-35.69,18.63,230.97,-86.67,58.83
52.81347,-1.638823,30.15,0,6,98.12,22 / 22,16911,2019-11-06 11:46:10:792,-0.0281,-0.0854,9.8854,-0.0016,-0.0001,9.8066,-0.0032,-0.0267,0.0274,0.13,-35.31,18.63,233.93,-86.69,58.81
52.81347,-1.638823,30.15,0,6,98.12,22 / 22,17012,2019-11-06 11:46:10:893,-0.391,-0.0885,9.8603,0.0045,-0.0005,9.8065,-0.0066,-0.0031,0.004,-0.19,-35.31,18.75,234.13,-86.7,59.02
52.81347,-1.638823,30.15,0,6,98.12,22 / 22,17112,2019-11-06 11:46:10:993,-0.1399,-0.2755,9.8042,-0.0036,-0.0022,9.8066,0.0014,-0.0081,0.0056,0,-35.37,17.88,233.94,-86.73,59.05
52.81347,-1.638823,30.15,0,6,98.12,22 / 22,17212,2019-11-06 11:46:11:093,-0.5313,-0.5588,9.8944,-0.0022,-0.0016,9.8066,0.005,0.0018,0.0141,0,-35.19,18.56,234.33,-86.74,59.17
52.81347,-1.638823,30.15,0,6,98.12,22 / 22,17312,2019-11-06 11:46:11:193,-0.5172,-0.3895,9.7334,-0.0016,-0.0021,9.8066,0.0013,0.0095,-0.0123,0.13,-35.06,19.13,234.64,-86.79,59.42
52.81347,-1.638823,30.15,0,6,98.12,22 / 22,17412,2019-11-06 11:46:11:293,-0.328,-0.6884,9.8621,-0.0004,-0.0011,9.8066,-0.0025,0.0081,-0.0098,-0.25,-35.44,18.63,235,-86.81,59.78
52.81347,-1.638823,30.15,0,6,98.12,21 / 22,17516,2019-11-06 11:46:11:397,-0.4941,-0.464,9.841,0.0042,-0.0009,9.8066,0.0001,0.037,-0.0214,-0.06,-35.75,19.19,235.67,-86.83,60.6
52.81347,-1.638823,30.15,0,6,98.12,21 / 22,17612,2019-11-06 11:46:11:493,-0.7255,-0.8389,9.8684,0.005,-0.0001,9.8066,-0.0009,0.0072,-0.0178,0.13,-36,19.81,235.88,-86.83,60.57
52.81347,-1.638823,30.15,0,6,98.12,21 / 22,17712,2019-11-06 11:46:11:593,-0.5759,-0.5543,9.7815,0.0045,-0.0011,9.8066,0.0042,-0.0455,0.025,0.06,-35.94,20.06,236.19,-86.84,60.88
52.81347,-1.638823,30.15,0,6,98.12,21 / 22,17812,2019-11-06 11:46:11:693,-0.859,-0.7322,9.8184,0.0073,0.0019,9.8066,-0.0095,-0.0091,-0.0043,-0.19,-35.75,20.25,236.01,-86.84,60.7
52.81347,-1.638823,30.15,0,6,98.12,21 / 22,17912,2019-11-06 11:46:11:793,-0.0733,-0.7186,9.8703,-0.0011,-0.0016,9.8066,0.0068,-0.087,0.0338,-0.62,-35.62,19.25,232.99,-86.86,60.71
52.81347,-1.638823,30.15,0,6,98.12,21 / 22,18012,2019-11-06 11:46:11:893,-0.7886,-0.6678,9.8493,0.0065,0.0001,9.8066,0.0094,-0.0684,0.0184,0.19,-35.44,20.06,236.26,-86.87,60.78
52.81347,-1.638823,30.15,0,6,98.12,21 / 22,18112,2019-11-06 11:46:11:993,0.1279,-0.7803,9.9106,-0.0087,-0.0008,9.8066,-0.0141,-0.0823,0.0264,-0.31,-35,20.19,235.63,-86.93,60.04
52.81347,-1.638823,30.15,0,6,98.12,21 / 22,18211,2019-11-06 11:46:12:092,-0.5074,-0.3987,9.8427,0.0021,-0.0024,9.8066,0.0206,-0.1027,0.0443,-0.87,-35.75,20.06,233.03,-86.92,60.28
52.81347,-1.638823,30.15,0,6,98.12,21 / 22,18312,2019-11-06 11:46:12:193,-1.252,-0.7268,9.8563,-0.0113,-0.0016,9.8066,-0.0036,-0.0694,0.0151,-0.56,-36.12,20.13,232.75,-86.97,59.91
52.81347,-1.638823,30.15,0,6,98.12,21 / 22,18412,2019-11-06 11:46:12:293,-0.7485,-0.53,9.7904,-0.0036,-0.0032,9.8066,0.0032,-0.1353,0.0412,-1.12,-35.25,20.25,233.29,-86.95,60.39
52.81347,-1.638823,30.15,0,6,98.12,23 / 23,18512,2019-11-06 11:46:12:393,-1.1707,-0.6622,9.8932,-0.0109,-0.0019,9.8066,-0.0156,0.0089,-0.0371,-0.31,-36.56,20,236.24,-86.89,60.99
52.81347,-1.638823,30.15,0,6,98.12,23 / 23,18612,2019-11-06 11:46:12:493,-0.9466,-0.8555,9.8261,-0.0102,-0.0029,9.8066,0.0047,-0.1341,0.0208,0.13,-35.56,18.88,236.05,-86.92,60.85
52.81347,-1.638823,30.15,0,6,98.12,23 / 23,18712,2019-11-06 11:46:12:593,-1.169,-0.763,9.8556,-0.0108,0.0009,9.8066,-0.0157,0.0359,-0.0594,0.25,-34.69,18.13,235.7,-86.94,60.59
52.81347,-1.638823,30.15,0,6,98.12,23 / 23,18812,2019-11-06 11:46:12:693,0.2904,-0.6598,9.8177,-0.0149,-0.0018,9.8066,-0.0114,-0.068,-0.0216,0.56,-34.25,17.06,238.68,-86.93,60.51
52.81347,-1.638823,30.15,0,6,98.12,23 / 23,18912,2019-11-06 11:46:12:793,-0.9168,-0.7241,9.8709,0.0035,-0.0009,9.8066,0.0177,-0.1782,0.0387,0.75,-34.94,16.88,239.25,-86.87,61.39
52.81347,-1.638823,30.15,0,6,98.12,23 / 23,19012,2019-11-06 11:46:12:893,0.6603,-0.5857,9.6999,-0.0145,-0.0022,9.8066,-0.0049,-0.0278,-0.0553,0.19,-35.12,16.44,235.81,-86.88,61.42
52.81347,-1.638823,30.15,0,6,98.12,23 / 23,19112,2019-11-06 11:46:12:993,-1.9008,-0.8255,10.0578,0.0021,0.0028,9.8066,-0.0144,-0.0023,-0.086,0.81,-35.94,16.38,239.2,-86.9,61.58
52.81347,-1.638823,30.15,0,6,98.12,23 / 23,19212,2019-11-06 11:46:13:093,-0.2576,-0.5591,9.7323,-0.009,-0.0059,9.8066,0.0072,-0.0111,-0.0633,1.25,-35.75,16.31,239.81,-86.95,62.14
52.81347,-1.638823,30.15,0,6,98.12,23 / 23,19312,2019-11-06 11:46:13:193,-1.5153,-0.8489,9.6995,0.0117,-0.0038,9.8066,0.0122,-0.0899,-0.0425,-0.06,-35.12,15.69,237.73,-86.9,63.44
52.81347,-1.638823,30.15,0,6,98.12,23 / 23,19412,2019-11-06 11:46:13:293,-0.2665,-0.8669,9.8435,-0.0028,0.0007,9.8066,0.0135,-0.0733,-0.052,0.06,-35.69,15.88,237.19,-86.95,62.94
52.81347,-1.638823,30.15,0,6,98.12,23 / 23,19512,2019-11-06 11:46:13:393,0.1938,-0.7357,9.7351,0.0071,0.0021,9.8066,0.0001,-0.1781,0.0211,0.44,-35.12,14.56,237.55,-86.96,63.51
52.81347,-1.638823,30.15,0,6,98.12,23 / 23,19612,2019-11-06 11:46:13:493,-1.1784,-0.6356,9.7798,0.0063,0.0028,9.8066,0.0004,-0.0959,-0.0234,0.13,-35.62,14.25,236.8,-86.97,63.3
52.81347,-1.638823,30.15,0,6,98.12,23 / 23,19711,2019-11-06 11:46:13:592,-0.3582,-0.4703,9.7538,0.0069,0.0038,9.8066,0.0186,-0.2272,0.0606,0,-35.31,14.06,235.9,-86.99,62.11
52.81347,-1.638823,30.15,0,6,98.12,23 / 23,19812,2019-11-06 11:46:13:693,-1.3645,-0.7274,9.938,0.004,0.0068,9.8066,-0.0117,-0.1269,-0.0339,-0.06,-35.81,13.13,233.9,-87.07,60.43
52.81347,-1.638823,30.15,0,6,98.12,23 / 23,19913,2019-11-06 11:46:13:794,-0.6373,-0.6147,9.804,-0.0045,0.003,9.8066,0.0048,-0.2399,0.0447,0.06,-35.69,12.81,232.46,-87.18,58.63
52.81347,-1.638823,30.15,0,6,98.12,23 / 23,20012,2019-11-06 11:46:13:893,-1.1521,-0.8176,9.5702,-0.002,0.0018,9.8066,-0.0212,-0.2319,0.0372,0.31,-35.81,13.06,231.67,-87.26,57.6
52.81347,-1.638823,30.15,0,6,98.12,23 / 23,20112,2019-11-06 11:46:13:993,-0.0516,-1.2464,10.0919,-0.0109,0.0023,9.8066,-0.001,-0.2646,0.0749,0.06,-36.06,12.5,229.97,-87.38,55.51
52.81347,-1.638823,30.15,0,6,98.12,23 / 23,20212,2019-11-06 11:46:14:093,-0.6197,-1.3377,10.0156,0.0094,0.001,9.8066,-0.0026,-0.2139,-0.0022,0.19,-35.37,11.19,227.8,-87.44,53.82
52.81347,-1.638823,30.15,0,6,98.12,23 / 23,20312,2019-11-06 11:46:14:193,-0.3384,-1.0708,9.7597,-0.0002,0.0036,9.8065,0.0218,-0.2604,-0.0001,0.13,-35.44,11.06,227.34,-87.51,53.14
52.81347,-1.638823,30.15,0,6,98.12,23 / 23,20412,2019-11-06 11:46:14:293,-0.8759,-1.4335,9.847,-0.0025,-0.0029,9.8066,0.0223,-0.2634,0.043,-0.06,-35.69,11.25,227.99,-87.56,53.91
52.81347,-1.638823,30.15,0,6,98.12,20 / 20,20511,2019-11-06 11:46:14:392,-0.4403,-1.4039,9.864,-0.0034,-0.0037,9.8066,0.0156,-0.23,-0.0299,-0.62,-35.81,11.19,224.21,-87.63,54.78
52.81347,-1.638823,30.15,0,6,98.12,20 / 20,20612,2019-11-06 11:46:14:493,0.3242,-2.5586,9.5174,0.0162,0.0199,9.8066,0.009,-0.2102,-0.0451,-0.81,-35.62,11.06,224.51,-87.29,55.89
52.81347,-1.638823,30.15,0,6,98.12,20 / 20,20712,2019-11-06 11:46:14:593,0.0979,-2.9358,9.5597,0.0104,0.0116,9.8065,-0.0029,-0.1846,-0.0226,-0.5,-36.06,10.25,229.6,-87.15,57.41
52.81347,-1.638823,30.15,0,6,98.12,20 / 20,20812,2019-11-06 11:46:14:693,1.1624,-2.873,9.6172,0.0127,0.0008,9.8066,0.0184,-0.2448,0.0191,-0.94,-35.94,10.56,225.48,-87.01,57.59
52.81347,-1.638823,30.15,0,6,98.12,20 / 20,20912,2019-11-06 11:46:14:793,1.3049,-2.2064,9.7786,0.0097,0.0062,9.8066,0.0067,-0.1066,-0.0264,-0.75,-36.5,9.94,224.41,-86.98,57.68
52.81347,-1.638823,30.15,0,6,98.12,20 / 20,21012,2019-11-06 11:46:14:893,1.0567,-2.5698,9.6318,0.0175,0.0048,9.8066,-0.007,-0.1789,0.0052,-0.69,-36.06,9.38,222.43,-86.94,56.97
52.81347,-1.638823,30.15,0,6,98.12,20 / 20,21112,2019-11-06 11:46:14:993,0.0638,-3.1406,9.9028,0.0187,0.0176,9.8065,-0.0257,0.057,-0.0741,-0.37,-36.31,9.19,227.77,-86.74,57.43
52.81347,-1.638823,30.15,0,6,98.12,20 / 20,21212,2019-11-06 11:46:15:093,0.9711,-1.76,9.5373,0.0248,0.0057,9.8065,-0.0191,0.0276,-0.0282,-0.31,-36.5,8.88,228.11,-86.53,58.46
52.81347,-1.638823,30.15,0,6,98.12,20 / 20,21312,2019-11-06 11:46:15:193,-0.0882,-1.6627,9.8289,0.0271,0.0111,9.8066,-0.0587,0.1153,-0.0971,-0.31,-35.87,9.63,229.21,-86.35,59.14
52.81347,-1.638823,30.15,0,6,98.12,20 / 20,21412,2019-11-06 11:46:15:293,1.5856,-2.6889,9.6424,0.0064,0.0159,9.8065,-0.0648,0.1718,-0.0349,-0.94,-35.75,8.88,220.45,-86.11,56.8
52.81347,-1.638823,30.15,0,6,98.12,21 / 22,21513,2019-11-06 11:46:15:394,2.1737,-3.533,9.6109,0.0085,0.0187,9.8066,-0.0606,0.1587,0.0247,-0.5,-35.81,9.38,224.46,-85.88,56.01
52.81347,-1.638823,30.15,0,6,98.12,21 / 22,21612,2019-11-06 11:46:15:493,2.921,-3.09,9.6013,-0.002,0.0219,9.8065,-0.0772,0.1526,0.0308,-0.31,-36.31,9.63,224.36,-85.69,55.2
52.81347,-1.638823,30.15,0,6,98.12,21 / 22,21712,2019-11-06 11:46:15:593,1.0884,-2.1511,9.4202,0.0055,0.0022,9.8066,0.012,0.1491,0.0909,-0.44,-36.56,10.19,222.25,-85.49,53.45
52.81347,-1.638823,30.15,0,6,98.12,21 / 22,21812,2019-11-06 11:46:15:693,0.3097,-1.7364,9.859,-0.0203,-0.0108,9.8066,-0.007,0.2886,-0.0183,-0.31,-36.5,10.06,223.08,-85.64,53.79
52.81347,-1.638823,30.15,0,6,98.12,21 / 22,21912,2019-11-06 11:46:15:793,-0.252,-1.9413,9.9055,0.0041,-0.0069,9.8066,0.0076,0.1808,0.0798,-0.25,-36.12,10.19,224.45,-85.59,55.54
52.81347,-1.638823,30.15,0,6,98.12,21 / 22,22012,2019-11-06 11:46:15:893,1.0835,-1.7941,9.7551,-0.0165,-0.0013,9.8065,-0.0402,0.3487,-0.05,0,-35.81,10.75,226.74,-85.55,57.33
52.81347,-1.638823,30.15,0,6,98.12,21 / 22,22112,2019-11-06 11:46:15:993,2.2591,-0.886,9.6709,0.0056,0.005,9.8066,-0.0539,0.2057,-0.0046,0.13,-36.31,11.75,228.45,-85.31,58.95
52.81347,-1.638823,30.15,0,6,98.12,21 / 22,22212,2019-11-06 11:46:16:093,2.2293,-0.9911,9.6144,0.0081,-0.0127,9.8065,-0.0235,0.4605,-0.0756,0.44,-37.12,11.56,229.19,-85.01,60.82
52.81347,-1.638823,30.15,0,6,98.12,21 / 22,22312,2019-11-06 11:46:16:193,2.427,-1.9928,10.1351,-0.0136,-0.0129,9.8066,0.0457,0.2753,-0.0484,0.94,-36.06,12.31,235.35,-84.95,63.03
52.81347,-1.638823,30.15,0,6,98.12,21 / 22,22412,2019-11-06 11:46:16:293,0.1241,-1.9895,9.5046,-0.0027,-0.0048,9.8066,-0.0291,0.2197,0.1233,0.31,-35.62,14.19,235.07,-84.97,65.64
52.81347,-1.638823,30.15,0,6,98.12,21 / 22,22512,2019-11-06 11:46:16:393,2.2225,-1.8461,9.9292,-0.015,0.0014,9.8066,-0.0038,0.4127,-0.0838,0.88,-36.12,14.69,239.81,-84.94,66.45
52.81347,-1.638823,30.15,0,6,98.12,21 / 22,22612,2019-11-06 11:46:16:493,-0.2775,-1.5421,9.8156,0.0177,0.0037,9.8066,-0.0489,0.4482,-0.1038,0.81,-36.06,15.19,239.9,-84.97,66.47
52.81347,-1.638823,30.15,0,6,98.12,21 / 22,22712,2019-11-06 11:46:16:593,1.1048,-1.9447,10.0491,0.0051,0.0058,9.8066,-0.0111,0.4875,-0.1122,1.06,-36.06,15.75,240.2,-84.76,66.81
52.81347,-1.638823,30.15,0,6,98.12,21 / 22,22812,2019-11-06 11:46:16:693,0.9226,-2.5236,10.2688,0.0383,0.0077,9.8066,-0.029,0.2842,-0.0757,0.94,-35.5,16.88,242.33,-84.47,68.99
52.81347,-1.638823,30.15,0,6,98.12,21 / 22,22912,2019-11-06 11:46:16:793,2.1693,-2.9264,9.5053,0.0214,-0.0026,9.8066,-0.0031,0.4724,-0.0504,1.25,-35.25,17,243.53,-84.33,70.57
52.81347,-1.638823,30.15,0,6,98.12,21 / 22,23011,2019-11-06 11:46:16:892,2.0348,-1.9358,9.7608,0.0348,-0.0095,9.8065,-0.0307,0.3862,-0.0491,1.19,-35.19,17.56,246.67,-84.16,73.89
52.81347,-1.638823,30.15,0,6,98.12,21 / 22,23112,2019-11-06 11:46:16:993,3.183,-2.2218,10.2698,0.0084,-0.015,9.8065,0.0423,0.58,-0.0998,1.75,-34.81,17.75,250.94,-84.24,75.13
52.81347,-1.638823,30.15,0,6,98.12,21 / 22,23212,2019-11-06 11:46:17:093,0.7493,-1.9676,9.3986,0.0293,-0.016,9.8065,0.0852,0.2864,-0.0029,1.44,-35.31,19.19,249.22,-84.25,76.08
52.81347,-1.638823,30.15,0,6,98.12,21 / 22,23312,2019-11-06 11:46:17:193,-0.1122,-2.5688,9.9602,0.0022,0.0018,9.8066,-0.0353,0.4474,-0.0607,1.75,-35.19,19.38,254.66,-84.3,78.74
52.81347,-1.638823,30.15,0,6,98.12,21 / 22,23412,2019-11-06 11:46:17:293,0.4457,-1.8581,9.6515,0.0125,-0.0074,9.8066,-0.0101,0.14,0.1318,2,-35,19.44,256.76,-84.27,80.99
52.81347,-1.638823,30.15,0,6,98.12,19 / 21,23512,2019-11-06 11:46:17:393,0.2907,-2.0331,10.1532,0.0211,-0.0108,9.8066,0.0222,0.2329,-0.1058,1.88,-34.81,19.63,258.16,-84.32,82.15
52.81347,-1.638823,30.15,0,6,98.12,19 / 21,23612,2019-11-06 11:46:17:493,0.5281,-1.4714,10.3081,0.0089,-0.0158,9.8066,-0.002,0.0478,0.1058,1.38,-35.19,20.25,257.22,-84.45,83.82
52.81347,-1.638823,30.15,0,6,98.12,19 / 21,23712,2019-11-06 11:46:17:593,-0.091,-2.1788,9.8646,0.0193,-0.0036,9.8066,0.0127,0.1207,-0.0181,1,-35.5,20,257.48,-84.47,84.06
52.81347,-1.638823,30.15,0,6,98.12,19 / 21,23812,2019-11-06 11:46:17:693,0.436,-0.9917,9.5796,0.004,-0.008,9.8066,0.0212,-0.0755,0.0115,0.69,-35.25,20.75,258.42,-84.63,84.47
52.81347,-1.638823,30.15,0,6,98.12,19 / 21,23912,2019-11-06 11:46:17:793,-0.3538,-2.33,9.7757,0.0142,0.0009,9.8066,-0.0753,-0.1522,0.1404,0.5,-35.44,19.94,258.83,-84.49,85.44
52.81347,-1.638823,30.15,0,6,98.12,19 / 21,24012,2019-11-06 11:46:17:893,0.3873,-0.8658,9.6417,-0.0064,-0.0015,9.8065,-0.0341,-0.0512,0.1203,0.63,-35.69,20.81,258.99,-84.32,85.83
52.81347,-1.638823,30.15,0,6,98.12,19 / 21,24112,2019-11-06 11:46:17:993,-1.6238,-2.3825,10.6494,0.0336,-0.0056,9.8065,0.1406,-0.1504,0.017,0.5,-35,21.56,259.07,-84.11,85.67
52.81347,-1.638823,30.15,0,6,98.12,19 / 21,24212,2019-11-06 11:46:18:093,-0.1787,-0.6257,8.8311,-0.0258,-0.0135,9.8066,0.1164,-0.0843,0.0902,0.88,-34.69,20.69,259.84,-84.18,86.68
52.81347,-1.638823,30.15,0,6,98.12,19 / 21,24312,2019-11-06 11:46:18:193,-1.5018,-0.8544,8.9048,-0.0037,0.0064,9.8066,-0.0679,-0.1713,0.0748,0.31,-34.81,21.56,258.57,-84.12,87.75
52.81347,-1.638823,30.15,0,6,98.12,19 / 21,24412,2019-11-06 11:46:18:293,-1.0858,-1.1162,10.5047,-0.0458,-0.0013,9.8065,0.0544,-0.1565,0.2425,0.88,-35.25,20.88,262.19,-84.29,88.92
52.813427,-1.639014,65.94,7.12,4,252.47,22 / 22,24512,2019-11-06 11:46:18:393,-1.5687,-1.7769,10.1002,-0.0099,-0.0161,9.8066,0.0083,-0.25,0.1893,0.13,-34.94,21.56,260.37,-84.28,89.35
52.813427,-1.639014,65.94,7.12,4,252.47,22 / 22,24612,2019-11-06 11:46:18:493,0.186,-1.9513,9.5547,-0.0391,-0.0089,9.8065,-0.039,0.0495,-0.0205,0.81,-35.62,21.25,262.62,-84.41,89.42
52.813427,-1.639014,65.94,7.12,4,252.47,22 / 22,24712,2019-11-06 11:46:18:593,0.8631,-0.8254,9.7391,-0.046,-0.0089,9.8065,0.0844,-0.2383,0.1416,-0.12,-35,21.44,260.54,-84.56,89.51
52.813427,-1.639014,65.94,7.12,4,252.47,22 / 22,24812,2019-11-06 11:46:18:693,0.2831,-2.2019,10.4963,-0.0344,0.0103,9.8065,-0.0158,0.2101,-0.176,0.13,-34.87,21.44,258.94,-84.78,87.48
52.813427,-1.639014,65.94,7.12,4,252.47,22 / 22,24912,2019-11-06 11:46:18:793,0.7416,0.2983,9.6675,-0.0492,0.0061,9.8065,-0.049,-0.0677,0.0423,-0.56,-35.94,21.19,255.46,-84.8,86.81
52.813427,-1.639014,65.94,7.12,4,252.47,22 / 22,25012,2019-11-06 11:46:18:893,-2.6207,-0.8843,10.3357,-0.011,-0.005,9.8066,-0.065,0.2778,-0.0988,-0.19,-34.56,22.38,257.97,-84.6,86.37
52.813427,-1.639014,65.94,7.12,4,252.47,22 / 22,25112,2019-11-06 11:46:18:993,0.8921,-1.8703,9.7604,-0.0105,-0.0282,9.8065,0.0346,0.1085,-0.1491,0.81,-35.25,21.69,262.77,-84.6,88.7
52.813427,-1.639014,65.94,7.12,4,252.47,22 / 22,25212,2019-11-06 11:46:19:093,-2.1902,-1.4625,9.5151,0.0259,0.0035,9.8065,-0.0727,0.1687,0.052,0.75,-35.19,22.06,262.4,-84.45,88.56
52.813427,-1.639014,65.94,7.12,4,252.47,22 / 22,25312,2019-11-06 11:46:19:193,-2.4083,-2.4258,10.162,-0.0144,0.0039,9.8066,-0.0486,0.1721,-0.2343,0.94,-34.75,21.38,261.59,-84.76,87.52
52.813427,-1.639014,65.94,7.12,4,252.47,22 / 22,25412,2019-11-06 11:46:19:293,-2.7458,-1.5264,9.7084,0.017,0.004,9.8066,0.0344,-0.1136,-0.033,0.19,-34.94,21,256.53,-84.95,84.72
52.813427,-1.639014,65.94,7.12,4,252.47,23 / 23,25512,2019-11-06 11:46:19:393,-0.6737,-1.476,10.8544,0.0061,0.0291,9.8066,0.039,0.0275,-0.1136,0,-33.87,21.25,254.59,-84.91,82.51
52.813427,-1.639014,65.94,7.12,4,252.47,23 / 23,25612,2019-11-06 11:46:19:493,-0.925,-0.2576,8.881,0.0144,0.0193,9.8065,0.08,-0.0359,-0.1122,0,-34,20.44,254.17,-84.89,82.51
52.813427,-1.639014,65.94,7.12,4,252.47,23 / 23,25712,2019-11-06 11:46:19:593,-0.826,0.6807,9.4838,0.0049,0.0015,9.8066,-0.0639,0.059,0.0691,0.88,-33.37,20.13,258.35,-84.67,84.09
52.813427,-1.639014,65.94,7.12,4,252.47,23 / 23,25812,2019-11-06 11:46:19:693,-0.9698,-1.5564,10.2476,0.0054,0.0013,9.8066,-0.0811,-0.0492,0.1392,1.19,-33.31,19.75,260.77,-84.58,86.75
52.813427,-1.639014,65.94,7.12,4,252.47,23 / 23,25912,2019-11-06 11:46:19:793,-2.3272,0.793,9.3314,0.0354,-0.0213,9.8065,0.0919,0.1037,-0.1604,1.5,-33.56,19.81,263.96,-84.67,87.25
52.813427,-1.639014,65.94,7.12,4,252.47,23 / 23,26012,2019-11-06 11:46:19:893,-1.8397,-0.1616,9.7279,0.0171,-0.0118,9.8066,0.1396,-0.204,0.0923,2,-33.12,19.63,265.44,-84.73,88.39
52.813427,-1.639014,65.94,7.12,4,252.47,23 / 23,26112,2019-11-06 11:46:19:993,-2.6577,-1.8217,9.0655,0.032,0.0164,9.8066,-0.0695,-0.1702,0.0511,2.13,-34.06,20.56,264.92,-84.65,88.11
52.813427,-1.639014,65.94,7.12,4,252.47,23 / 23,26212,2019-11-06 11:46:20:093,0.6812,-0.6379,10.1608,-0.0323,0.018,9.8065,-0.0608,-0.3904,0.2867,2.31,-34.62,20.69,268.65,-84.65,92.14
52.813427,-1.639014,65.94,7.12,4,252.47,23 / 23,26312,2019-11-06 11:46:20:193,-2.6056,-0.8765,9.7872,0.066,-0.0186,9.8064,-0.0036,-0.3204,0.0928,2.25,-34.44,20.94,269.11,-84.48,92.63
52.813427,-1.639014,65.94,7.12,4,252.47,23 / 23,26413,2019-11-06 11:46:20:294,1.2052,-0.19,9.795,-0.0326,-0.0003,9.8065,0.0368,-0.3331,0.0426,1.56,-34.44,21.06,269.32,-84.83,92.26
52.813427,-1.639014,65.94,7.12,4,252.47,23 / 23,26511,2019-11-06 11:46:20:392,-0.486,-2.6273,10.0283,0.022,-0.0008,9.8066,-0.0313,-0.394,0.3152,1.75,-34.69,20.88,268.42,-84.52,92.13
52.813427,-1.639014,65.94,7.12,4,252.47,23 / 23,26612,2019-11-06 11:46:20:493,2.0153,-2.5151,9.8837,-0.0346,0.0258,9.8065,-0.1242,-0.068,-0.0638,1.75,-35.06,21.19,267.81,-84.56,91.45
52.813427,-1.639014,65.94,7.12,4,252.47,23 / 23,26712,2019-11-06 11:46:20:593,-1.1411,-0.6693,10.0236,-0.0144,-0.0003,9.8066,0.0677,-0.346,0.1977,2.06,-34.69,21.56,266.61,-84.41,90.3
52.813427,-1.639014,65.94,7.12,4,252.47,23 / 23,26812,2019-11-06 11:46:20:693,-2.5046,-0.6468,8.7502,-0.0504,0.0224,9.8065,0.0191,0.1681,-0.107,2,-34.69,20.56,264.36,-84.13,88.66
52.813427,-1.639014,65.94,7.12,4,252.47,23 / 23,26912,2019-11-06 11:46:20:793,-1.7571,-1.0936,9.4126,-0.0351,0.0297,9.8065,-0.084,-0.1204,0.0845,2.69,-34.25,21,265.02,-84.33,85.99
52.813427,-1.639014,65.94,7.12,4,252.47,23 / 23,27012,2019-11-06 11:46:20:893,-1.2221,0.1624,10.0038,-0.041,0.0199,9.8065,-0.0359,0.2321,-0.034,2.75,-34.25,20.13,263.68,-84.25,84.81
52.813427,-1.639014,65.94,7.12,4,252.47,23 / 23,27112,2019-11-06 11:46:20:993,1.0315,-1.3285,9.0486,-0.0178,-0.0007,9.8066,-0.0578,-0.0118,0.0183,3.19,-34.56,21.13,263.81,-84.16,85.3
52.813427,-1.639014,65.94,7.12,4,252.47,23 / 23,27213,2019-11-06 11:46:21:094,0.019,-1.2771,10.2616,0.0083,-0.0048,9.8066,0.043,-0.0009,0.0122,2.56,-34.94,20.75,263.15,-84.26,84.46
52.813427,-1.639014,65.94,7.12,4,252.47,23 / 23,27312,2019-11-06 11:46:21:193,0.4776,-3.3516,9.9193,-0.0063,0.0099,9.8066,-0.056,0.1193,-0.0616,4.63,-34.25,21.5,267.26,-84.26,83.15
52.813427,-1.639014,65.94,7.12,4,252.47,23 / 23,27412,2019-11-06 11:46:21:293,-1.8471,-0.1474,9.9568,0.0223,0.0015,9.8065,-0.0541,0.0904,-0.0468,5.19,-34.25,20,266.08,-84.25,81.56
52.813427,-1.639014,65.94,7.12,4,252.47,21 / 22,27512,2019-11-06 11:46:21:393,-1.7325,-0.5451,10.5278,0.0173,0.0009,9.8065,0.0053,0.2773,-0.1367,5.25,-35.06,18.88,265.03,-84.23,80.6
52.813427,-1.639014,65.94,7.12,4,252.47,21 / 22,27612,2019-11-06 11:46:21:493,-0.4155,-0.662,9.9622,0.0323,-0.0021,9.8066,-0.0404,0.0974,-0.0625,4.19,-35.37,15.75,263.7,-84.2,82
52.813427,-1.639014,65.94,7.12,4,252.47,21 / 22,27712,2019-11-06 11:46:21:593,1.2091,-0.1898,10.9448,-0.0134,-0.016,9.8066,0.0619,0.2998,-0.1159,0.94,-35.56,14.25,252.96,-84.41,82.67
52.813427,-1.639014,65.94,7.12,4,252.47,21 / 22,27812,2019-11-06 11:46:21:693,-0.4466,1.0277,9.2206,0.0351,-0.0029,9.8066,0.0277,0.0579,-0.0337,-2.69,-35.94,14.94,239.45,-84.41,82.06
52.813427,-1.639014,65.94,7.12,4,252.47,21 / 22,27912,2019-11-06 11:46:21:793,-0.3419,0.2055,9.8331,-0.0298,0.0004,9.8065,-0.0333,-0.0237,0.0585,-4.44,-35.31,18.63,241.12,-84.51,81.62
52.813427,-1.639014,65.94,7.12,4,252.47,21 / 22,28012,2019-11-06 11:46:21:893,-0.031,-2.2688,10.3773,-0.0184,-0.0019,9.8066,0.0068,-0.01,-0.0009,-4.37,-35.62,20.81,242.76,-84.47,81.76
52.813427,-1.639014,65.94,7.12,4,252.47,21 / 22,28112,2019-11-06 11:46:21:993,0.479,-0.8522,10.0166,0.031,-0.0178,9.8065,0.0899,0.0106,-0.194,-2.69,-35.25,21.75,246.95,-84.27,82.98
52.813427,-1.639014,65.94,7.12,4,252.47,21 / 22,28212,2019-11-06 11:46:22:093,-1.009,-1.2241,8.869,0.0039,-0.0344,9.8066,0.1421,0.0337,-0.1482,-1.69,-35.81,22.69,246.73,-84.35,79.74
52.813427,-1.639014,65.94,7.12,4,252.47,21 / 22,28312,2019-11-06 11:46:22:193,-0.1466,-1.0352,9.9958,-0.0142,0.0012,9.8066,-0.0067,-0.0748,0.045,-0.37,-35.31,22.63,253.13,-84.28,81.43
52.813427,-1.639014,65.94,7.12,4,252.47,21 / 22,28412,2019-11-06 11:46:22:293,-0.8269,-0.2043,9.6599,-0.0196,0.0201,9.8065,-0.0411,0.029,0.0401,0.25,-35.44,22.19,253.67,-84.18,82.54
52.813427,-1.639014,65.94,7.12,4,252.47,20 / 21,28513,2019-11-06 11:46:22:394,-0.8142,-0.3536,10.4632,0.0029,-0.0247,9.8066,0.0374,0.0344,-0.0419,0.56,-35.19,20.88,258.47,-84.18,85.26
52.813427,-1.639014,65.94,7.12,4,252.47,20 / 21,28612,2019-11-06 11:46:22:493,-2.7239,-1.1447,9.9116,0.0304,-0.0234,9.8066,0.0306,0.101,-0.1158,1.19,-34.31,21.56,259.57,-84.28,85.67
52.813427,-1.639014,65.94,7.12,4,252.47,20 / 21,28712,2019-11-06 11:46:22:593,-1.0621,-0.2626,10.4085,-0.0059,-0.0069,9.8066,0.0783,0.1649,-0.1455,0.63,-35,22.06,261.79,-84.21,88.33
52.813427,-1.639014,65.94,7.12,4,252.47,20 / 21,28813,2019-11-06 11:46:22:694,-1.1644,-3.2293,9.4135,0.0324,-0.0043,9.8066,-0.0311,0.0171,-0.018,0.88,-35.19,22.25,263.72,-83.87,90.84
52.813427,-1.639014,65.94,7.12,4,252.47,20 / 21,28912,2019-11-06 11:46:22:793,-0.2281,3.0014,9.9519,0.0083,-0.0026,9.8066,-0.06,0.2363,-0.1618,0.56,-34.25,21.25,263.87,-83.91,90.99
52.813427,-1.639014,65.94,7.12,4,252.47,20 / 21,29012,2019-11-06 11:46:22:893,0.8768,-0.9979,10.3944,0.0527,0.0067,9.8064,-0.0244,-0.0217,-0.014,1.81,-35.19,21.25,263.4,-83.68,88.43
52.813427,-1.639014,65.94,7.12,4,252.47,20 / 21,29112,2019-11-06 11:46:22:993,-0.2797,0.5213,10.4688,0.0187,0.0022,9.8066,0.0581,0.0381,-0.0944,2.31,-34.56,21.44,262.09,-83.74,86.98
52.813427,-1.639014,65.94,7.12,4,252.47,20 / 21,29212,2019-11-06 11:46:23:093,-0.0504,0.6075,9.5767,-0.0121,0.0065,9.8066,-0.1033,0.0286,0.0126,2.81,-34.56,21.69,265,-83.78,87.06
52.813427,-1.639014,65.94,7.12,4,252.47,20 / 21,29313,2019-11-06 11:46:23:194,-0.3642,0.1433,9.4315,-0.0158,0.0217,9.8066,-0.0409,0.1721,0.0112,3.31,-34.75,21.69,264.56,-83.89,86.44
52.813427,-1.639014,65.94,7.12,4,252.47,20 / 21,29411,2019-11-06 11:46:23:292,-0.7195,-0.9023,10.2382,-0.0569,0.0208,9.8064,-0.1136,-0.1213,0.1575,3.31,-35.19,18.69,264.46,-84.01,86.42
52.813427,-1.639014,65.94,7.12,4,252.47,21 / 21,29512,2019-11-06 11:46:23:393,-1.8836,0.7071,9.6641,-0.0242,0.0177,9.8066,0.03,0.2081,-0.1656,2.88,-35.87,18.38,260.98,-84.44,82.4
52.813427,-1.639014,65.94,7.12,4,252.47,21 / 21,29612,2019-11-06 11:46:23:493,-1.0845,0.6192,10.6231,-0.0092,0.0213,9.8066,0.0915,-0.0133,-0.0676,0.56,-35.56,19.75,255.05,-84.36,82
52.813427,-1.639014,65.94,7.12,4,252.47,21 / 21,29712,2019-11-06 11:46:23:593,0.1732,0.0785,10.1225,-0.0018,-0.0079,9.8066,0.0458,0.141,0.0222,1.13,-35.62,20.19,256.39,-84.32,83.47
52.813427,-1.639014,65.94,7.12,4,252.47,21 / 21,29812,2019-11-06 11:46:23:693,1.0695,-0.7978,9.3713,-0.0559,-0.0157,9.8065,0.0921,-0.1404,0.0803,0.94,-35.81,20.75,259.27,-84.44,85.92
52.813427,-1.639014,65.94,7.12,4,252.47,21 / 21,29912,2019-11-06 11:46:23:793,-0.5311,0.5174,9.8761,-0.0172,0.001,9.8066,0.0856,0.0445,-0.0874,0.63,-35.87,21.38,261.97,-84.11,89.28
52.813427,-1.639014,65.94,7.12,4,252.47,21 / 21,30011,2019-11-06 11:46:23:892,0.6817,0.0237,9.2687,0.024,-0.0113,9.8066,-0.041,0.0073,0.0345,1.31,-35.06,20.94,263.69,-84.07,90.82
52.813427,-1.639014,65.94,7.12,4,252.47,21 / 21,30112,2019-11-06 11:46:23:993,-0.2444,-0.6721,9.3736,-0.0159,-0.0356,9.8065,-0.0604,0.1998,-0.0976,1.13,-35.94,20.63,265.42,-84.18,92.7
52.813427,-1.639014,65.94,7.12,4,252.47,21 / 21,30213,2019-11-06 11:46:24:094,1.1001,-0.7021,10.3317,-0.024,0.0079,9.8065,-0.1102,-0.0514,0.1332,1.25,-34.81,20.75,264.89,-84.17,91.88
52.813427,-1.639014,65.94,7.12,4,252.47,21 / 21,30312,2019-11-06 11:46:24:193,0.7826,-1.7297,9.669,-0.0316,0.0046,9.8065,-0.0353,0.0786,-0.1433,0.94,-35.31,19.63,262.9,-84.2,90.14
52.813427,-1.639014,65.94,7.12,4,252.47,21 / 21,30413,2019-11-06 11:46:24:294,-0.6591,2.0354,9.6566,-0.0002,0.0328,9.8066,-0.0478,0.1047,0.0593,0.44,-34.94,20.31,257.62,-84.07,87.79
52.813427,-1.639014,65.94,7.12,4,252.47,22 / 22,30513,2019-11-06 11:46:24:394,-1.7271,-0.5387,10.5845,0.0222,-0.0059,9.8065,-0.0021,-0.0397,-0.0064,1.19,-34.81,19.75,259.8,-84.19,86.96
52.813427,-1.639014,65.94,7.12,4,252.47,22 / 22,30611,2019-11-06 11:46:24:492,-2.2098,0.0072,9.5076,0.0043,0.0037,9.8066,0.0636,0.0481,0.0622,1,-35.37,20.94,260.34,-83.9,87.66
52.813427,-1.639014,65.94,7.12,4,252.47,22 / 22,30712,2019-11-06 11:46:24:593,-2.3737,-1.9576,10.2685,0.0171,0.0295,9.8065,0.0922,-0.2056,0.1321,1.13,-34.44,20.5,260.34,-83.95,87.29
52.813427,-1.639014,65.94,7.12,4,252.47,22 / 22,30812,2019-11-06 11:46:24:693,-2.4599,1.6034,9.4893,0.0193,0.0168,9.8065,-0.1445,-0.1674,0.147,0.94,-34.12,20.63,259.53,-83.97,86.42
52.813427,-1.639014,65.94,7.12,4,252.47,22 / 22,30913,2019-11-06 11:46:24:794,2.4036,-1.981,9.9469,0.0317,0.0122,9.8065,0.0435,-0.1607,0.12,1.13,-34.06,20.56,257.29,-84.07,83.92
52.813427,-1.639014,65.94,7.12,4,252.47,22 / 22,31012,2019-11-06 11:46:24:893,0.5447,-3.7656,10.0925,0.04,0.0032,9.8065,-0.1005,0.3081,-0.1704,1.31,-34.75,21.13,256.07,-83.95,83.13
52.813427,-1.639014,65.94,7.12,4,252.47,22 / 22,31113,2019-11-06 11:46:24:994,1.3686,0.9911,9.6549,0.0261,0.0022,9.8065,-0.1536,0.046,-0.0126,1.31,-35.31,20.5,253.78,-83.89,80.82
52.813427,-1.639014,65.94,7.12,4,252.47,22 / 22,31213,2019-11-06 11:46:25:094,-1.8571,-2.6538,9.518,0.0385,0.0331,9.8064,-0.0982,0.3598,-0.1024,1.19,-34.31,21.56,251.55,-83.79,78.01
52.813427,-1.639014,65.94,7.12,4,252.47,22 / 22,31312,2019-11-06 11:46:25:193,2.0486,0.4076,10.6719,-0.0291,0.0297,9.8065,0.0265,0.2931,-0.2494,1.75,-35,20.75,250.03,-83.75,74.31
52.813427,-1.639014,65.94,7.12,4,252.47,22 / 22,31412,2019-11-06 11:46:25:293,-4.3731,-1.9241,8.0461,0.027,0.0066,9.8065,0.0255,0.3133,-0.2975,2.38,-35.06,21.31,250.32,-83.49,75.02
52.813427,-1.639014,65.94,7.12,4,252.47,21 / 21,31512,2019-11-06 11:46:25:393,0.2225,2.1775,11.0607,-0.0359,0.0096,9.8065,0.1026,0.5099,-0.3511,2.38,-34.37,21.06,251.22,-83.34,75.92
52.813427,-1.639014,65.94,7.12,4,252.47,21 / 21,31612,2019-11-06 11:46:25:493,-3.9953,-1.1375,9.2776,0.0535,-0.0426,9.8064,0.1251,0.1857,-0.3002,2.44,-34.87,20.25,252.51,-83.18,78.13
52.813427,-1.639014,65.94,7.12,4,252.47,21 / 21,31713,2019-11-06 11:46:25:594,-0.9767,1.0134,10.9569,0.0101,-0.0518,9.8065,0.0814,0.2437,-0.0929,2.31,-34.5,20.69,256.2,-83.14,81.51
52.813427,-1.639014,65.94,7.12,4,252.47,21 / 21,31812,2019-11-06 11:46:25:693,0.3056,-0.2404,9.6121,0.0064,-0.0514,9.8065,0.0596,0.1755,-0.1068,1.63,-35,19.88,260.19,-83.08,86.43
52.813427,-1.639014,65.94,7.12,4,252.47,21 / 21,31912,2019-11-06 11:46:25:793,-3.475,1.8563,10.108,-0.0178,0.0067,9.8066,-0.1064,0.0114,-0.0086,1.63,-35.75,20.88,261.24,-83,87.69
52.813427,-1.639014,65.94,7.12,4,252.47,21 / 21,32012,2019-11-06 11:46:25:893,1.4977,-2.2158,9.8229,-0.0589,0.0448,9.8064,-0.0415,0.198,-0.0881,0.81,-34.75,19.88,254.91,-83.02,83.87
52.813427,-1.639014,65.94,7.12,4,252.47,21 / 21,32112,2019-11-06 11:46:25:993,0.1207,-2.784,9.4427,-0.0299,0.0279,9.8065,0.0371,-0.1056,0.0226,1.06,-35.19,20.06,252.9,-83.02,81.71
52.813427,-1.639014,65.94,7.12,4,252.47,21 / 21,32212,2019-11-06 11:46:26:093,-0.9396,1.9893,9.374,-0.0268,0.001,9.8065,0.0565,-0.1124,0.0597,0.44,-35.06,20.31,248.57,-83.31,79.45
52.813427,-1.639014,65.94,7.12,4,252.47,21 / 21,32312,2019-11-06 11:46:26:193,-0.7335,-2.6746,9.6216,-0.0257,0.0131,9.8065,-0.0177,-0.0819,0.0542,0.56,-35.62,20.75,249.33,-83.65,76.74
52.813427,-1.639014,65.94,7.12,4,252.47,21 / 21,32412,2019-11-06 11:46:26:293,1.2025,-1.056,9.8059,-0.0417,0.0226,9.8065,-0.1131,-0.1069,0.102,1.31,-35.56,21.25,246.5,-83.89,73.33
52.813427,-1.639014,65.94,7.12,4,252.47,23 / 23,32514,2019-11-06 11:46:26:395,-1.7224,-1.0174,10.0312,0.0109,0.024,9.8066,-0.0276,-0.1078,0.1412,0.94,-35.94,21.44,243.39,-83.95,69.86
52.813427,-1.639014,65.94,7.12,4,252.47,23 / 23,32612,2019-11-06 11:46:26:493,-1.3284,-1.2616,10.1502,-0.0244,0.0217,9.8065,-0.0275,-0.0413,-0.0311,1.13,-36,21,240.39,-83.96,66.58
52.813427,-1.639014,65.94,7.12,4,252.47,23 / 23,32712,2019-11-06 11:46:26:593,-2.3016,-0.6236,10.5878,0.0258,0.028,9.8065,0.0621,-0.1715,0.0243,1.5,-35.94,20.63,242.35,-83.63,66.47
52.813427,-1.639014,65.94,7.12,4,252.47,23 / 23,32812,2019-11-06 11:46:26:693,-0.0508,-0.6382,9.7469,0.0074,0.0112,9.8066,0.0265,-0.0034,-0.015,2.19,-35.81,21.06,242.12,-83.57,66.31
52.813427,-1.639014,65.94,7.12,4,252.47,23 / 23,32912,2019-11-06 11:46:26:793,-0.5342,1.3289,9.5803,0.0596,-0.004,9.8064,-0.0544,-0.1694,0.1476,2,-35.87,20.94,240.77,-83.55,64.85
52.813427,-1.639014,65.94,7.12,4,252.47,23 / 23,33012,2019-11-06 11:46:26:893,-1.7154,-2.2071,10.0436,0.0025,0.0019,9.8066,0.0499,-0.0387,-0.0601,2.31,-35.56,20.31,241.72,-83.3,66.51
52.813427,-1.639014,65.94,7.12,4,252.47,23 / 23,33113,2019-11-06 11:46:26:994,0.7387,-1.8038,9.4034,0.0132,0.0146,9.8066,0.07,-0.0578,-0.0939,1.94,-35.62,20.88,242.37,-83.06,67.34
