GPS LATITUDE (degrees), GPS LONGITUDE (degrees), GPS ALTITUDE (m), GPS SPEED (Kmh), GPS ACCURACY (m), GPS ORIENTATION (Â°),GPS SATELLITES IN RANGE, TIME SINCE START (ms), DATE (YYYY-MO-DD HH-MI-SS_SSS), ACCELEROMETER X (m/s²) , ACCELEROMETER Y (m/s²), ACCELEROMETER Z (m/s²), GRAVITY X (m/s²), GRAVITY Y (m/s²), GRAVITY Z (m/s²), GYROSCOPE Yaw (rad/s), GYROSCOPE Pitch (rad/s), GYROSCOPE Roll (rad/s), MAGNETIC FIELD X (Î¼T), MAGNETIC FIELD Y (Î¼T), MAGNETIC FIELD Z (Î¼T), ORIENTATION (Yaw) (Â°), ORIENTATION (Pitch) (Â°), ORIENTATION (Roll ) (Â°)
52.557327,-1.478358,145.26,20.7,4,116.95,22 / 22,8205914,2019-11-06 18:23:06:376,1.1894,-0.5525,9.9482,-0.0403,-0.0216,9.8065,-0.0685,0.0827,-0.0164,-25.06,-36.37,22.63,340.58,-88.15,-151.37
52.557327,-1.478358,145.26,20.7,4,116.95,22 / 22,8206013,2019-11-06 18:23:06:475,-1.9637,-1.8864,9.842,0.0308,0.0303,9.8065,-0.0551,-0.3144,0.1191,-25.37,-36.37,23.69,329.95,-88.26,-162.97
52.557327,-1.478358,145.26,20.7,4,116.95,22 / 22,8206113,2019-11-06 18:23:06:575,0.6271,0.1002,9.9151,0.0156,0.013,9.8066,0.0471,0.0535,-0.0331,-25.06,-36.37,22.44,326.33,-88.29,-163.98
52.557327,-1.478358,145.26,20.7,4,116.95,22 / 22,8206214,2019-11-06 18:23:06:676,-0.7882,-2.1642,9.074,0.0205,0.026,9.8065,0.0773,-0.1651,-0.0077,-24.87,-36.19,23.19,318.16,-88.12,-173.11
52.557327,-1.478358,145.26,20.7,4,116.95,22 / 22,8206314,2019-11-06 18:23:06:776,3.5357,-1.1031,10.2243,-0.0252,-0.032,9.8065,-0.1868,0.3184,-0.2124,-25.69,-36.81,22.94,312.22,-88.03,-177.7
52.557327,-1.478358,145.26,20.7,4,116.95,22 / 22,8206414,2019-11-06 18:23:06:876,0.4558,3.1131,8.7617,0.0256,0.0099,9.8065,-0.1108,0.1331,0.07,-24.94,-36.06,22.44,317.42,-88.17,-172.57
52.557327,-1.478358,145.26,20.7,4,116.95,22 / 22,8206513,2019-11-06 18:23:06:975,1.2477,1.9898,8.2008,-0.0254,-0.0739,9.8063,-0.1343,0.5164,-0.3593,-25,-36.25,22.75,330.92,-88.01,-160.66
52.557327,-1.478358,145.26,20.7,4,116.95,22 / 22,8206614,2019-11-06 18:23:07:076,1.0734,1.5945,10.8612,-0.0089,0.0091,9.8066,0.1118,0.2729,-0.0616,-25.31,-36,21.5,322.43,-88.23,-167.74
52.557327,-1.478358,145.26,20.7,4,116.95,22 / 22,8206714,2019-11-06 18:23:07:176,-2.6661,-3.7866,10.3164,-0.0135,-0.062,9.8064,-0.0115,0.5488,-0.3441,-25.12,-35.5,22.5,319.07,-88.14,-172.27
52.557327,-1.478358,145.26,20.7,4,116.95,22 / 22,8206814,2019-11-06 18:23:07:276,-1.6946,0.9664,10.3131,-0.0027,-0.0323,9.8065,-0.0901,0.575,-0.1617,-25.75,-35.19,22.25,314.79,-87.7,-173.75
52.557327,-1.478358,145.26,20.7,4,116.95,22 / 22,8206914,2019-11-06 18:23:07:376,-1.6214,1.8342,9.1143,-0.023,-0.0678,9.8064,-0.2211,0.5772,-0.2513,-26.06,-35.94,23.13,315.13,-87.93,-174.83
52.557327,-1.478358,145.26,20.7,4,116.95,22 / 22,8207013,2019-11-06 18:23:07:475,3.4794,1.7343,9.9858,-0.0566,-0.0072,9.8064,0.0699,0.466,-0.2762,-25.69,-36.31,23.56,324.2,-88.14,-167.39
52.557327,-1.478358,145.26,20.7,4,116.95,22 / 22,8207113,2019-11-06 18:23:07:575,-4.6657,-0.1203,9.37,-0.0481,-0.0135,9.8065,-0.0036,0.1229,-0.0983,-25.12,-36.25,23.38,326.16,-88.34,-165.47
52.557327,-1.478358,145.26,20.7,4,116.95,22 / 22,8207214,2019-11-06 18:23:07:676,1.6181,-0.1225,9.6455,0,-0.0225,9.8066,-0.0565,0.1921,-0.1111,-25.19,-36.37,22.63,320.79,-88.38,-170.74
52.557327,-1.478358,145.26,20.7,4,116.95,22 / 22,8207314,2019-11-06 18:23:07:776,-1.5463,0.1922,11.1777,0.0222,-0.0098,9.8066,0.0117,-0.1367,0.0379,-24.69,-36.12,22.13,314.97,-88.21,-174.99
52.557327,-1.478358,145.26,20.7,4,116.95,22 / 22,8207414,2019-11-06 18:23:07:876,-1.1572,-0.6684,9.7585,0.0242,-0.0181,9.8065,-0.0901,0.0742,-0.0151,-25.19,-36.56,22.69,313.93,-87.98,-177.08
52.557327,-1.478358,145.26,20.7,4,116.95,22 / 22,8207514,2019-11-06 18:23:07:976,-1.6428,-0.7291,9.8182,0.0286,0.006,9.8066,-0.0289,-0.0228,0.0329,-24.12,-36.56,22.25,311.5,-88.18,-179.45
52.557327,-1.478358,145.26,20.7,4,116.95,22 / 22,8207616,2019-11-06 18:23:08:078,-0.2648,2.7081,9.7788,-0.0094,-0.0338,9.8065,0.0103,0.229,-0.2051,-25.06,-37.5,22.63,306.53,-87.97,175.71
52.557327,-1.478358,145.26,20.7,4,116.95,22 / 22,8207713,2019-11-06 18:23:08:175,-1.3551,-0.2285,9.5121,-0.0243,-0.0112,9.8065,0.1201,0.0687,-0.0956,-23.87,-36.12,21.94,303.12,-87.93,172.54
52.557327,-1.478358,145.26,20.7,4,116.95,22 / 22,8207814,2019-11-06 18:23:08:276,-0.1513,0.2124,8.9075,0.0027,-0.0172,9.8066,0.0743,0.084,-0.0589,-24,-36.75,22.38,299.9,-88,169.37
52.557327,-1.478358,145.26,20.7,4,116.95,22 / 22,8207913,2019-11-06 18:23:08:375,-0.5243,0.4469,9.4322,-0.0205,-0.013,9.8066,-0.0024,0.0394,0.0604,-24.12,-36,22.44,302.27,-88.02,171.63
52.557327,-1.478358,145.26,20.7,4,116.95,22 / 22,8208014,2019-11-06 18:23:08:476,-1.2736,0.5342,10.3215,-0.0265,-0.0216,9.8066,-0.0739,-0.0849,0.1112,-24.56,-36.25,22.19,315.8,-88.04,-174.05
52.557327,-1.478358,145.26,20.7,4,116.95,22 / 22,8208114,2019-11-06 18:23:08:576,-0.5523,-1.7789,11.4311,-0.0148,-0.007,9.8065,0.018,-0.1346,0.1603,-25.06,-36.5,22.94,318.87,-87.87,-172.25
52.557327,-1.478358,145.26,20.7,4,116.95,22 / 22,8208213,2019-11-06 18:23:08:675,0.5375,2.6245,10.4104,-0.014,-0.0167,9.8065,0.0126,0.2831,-0.1141,-25.19,-35.69,22.56,315.26,-87.5,-175.46
52.557327,-1.478358,145.26,20.7,4,116.95,22 / 22,8208313,2019-11-06 18:23:08:775,-1.5728,-1.3438,8.9465,0.0472,0.0231,9.8064,0.122,0.1706,-0.1367,-24.69,-36.5,23.06,314.19,-87.2,-176.26
52.557327,-1.478358,145.26,20.7,4,116.95,22 / 22,8208413,2019-11-06 18:23:08:875,-0.5189,1.6136,7.9841,0.0483,0.0097,9.8064,0.0496,0.3599,-0.2009,-24.87,-36.62,22.88,319.08,-87.23,-171.52
52.557327,-1.478358,145.26,20.7,4,116.95,22 / 22,8208514,2019-11-06 18:23:08:976,-1.8979,-1.0324,11.3056,-0.0196,0.0441,9.8065,0.1854,0.1913,-0.2168,-24.87,-36.69,22.94,319.11,-87.44,-171.65
52.557327,-1.478358,145.26,20.7,4,116.95,22 / 22,8208613,2019-11-06 18:23:09:075,0.5506,1.9578,9.1217,0.0024,0.0301,9.8065,-0.2216,0.2829,-0.0114,-24.44,-36,22.75,320.16,-87.32,-171.74
52.557327,-1.478358,145.26,20.7,4,116.95,22 / 22,8208713,2019-11-06 18:23:09:175,0.3392,-0.0308,9.4862,-0.0133,0.0209,9.8066,-0.1062,0.0879,-0.036,-24.06,-36.94,22.94,320.19,-87.26,-171.61
52.557327,-1.478358,145.26,20.7,4,116.95,22 / 22,8208813,2019-11-06 18:23:09:275,0.3812,0.327,10.2825,-0.0075,0.0009,9.8066,0.0761,0.049,0.0297,-24.12,-36.81,22.38,319.73,-87.12,-170.62
52.557327,-1.478358,145.26,20.7,4,116.95,20 / 21,8208913,2019-11-06 18:23:09:375,-1.4823,1.1783,9.1079,0.0115,-0.0008,9.8066,0.0939,-0.0906,0.0516,-24.87,-36.5,22.56,320.92,-87.18,-169.78
52.557327,-1.478358,145.26,20.7,4,116.95,20 / 21,8209013,2019-11-06 18:23:09:475,-0.4964,0.3195,9.5766,0.0215,-0.0025,9.8066,0.0771,0.0111,-0.0358,-24.94,-36.37,22.75,326.22,-87.3,-164.78
52.557327,-1.478358,145.26,20.7,4,116.95,20 / 21,8209114,2019-11-06 18:23:09:576,-1.5555,0.7858,9.6496,-0.0101,0.0065,9.8066,0.2033,0.1189,-0.0806,-25,-36.06,22.69,325.64,-87.31,-165.34
52.557327,-1.478358,145.26,20.7,4,116.95,20 / 21,8209214,2019-11-06 18:23:09:676,1.0792,-1.4654,10.216,0.0494,-0.0043,9.8065,0.0378,-0.1037,0.0629,-24.94,-36.56,22,320.26,-86.97,-168.9
52.557327,-1.478358,145.26,20.7,4,116.95,20 / 21,8209314,2019-11-06 18:23:09:776,2.7853,-2.2186,10.3356,-0.0337,-0.0202,9.8065,0.0699,-0.0282,0.1359,-25.12,-36.06,23.56,323.73,-86.93,-168.17
52.557327,-1.478358,145.26,20.7,4,116.95,20 / 21,8209413,2019-11-06 18:23:09:875,0.9988,-0.6442,10.2929,-0.0407,-0.0019,9.8065,-0.0982,-0.0224,0.0084,-25.44,-36.31,22.19,313.89,-86.61,-174.76
52.557327,-1.478358,145.26,20.7,4,116.95,20 / 21,8209513,2019-11-06 18:23:09:975,-1.4751,1.6893,9.0613,0.0214,-0.0027,9.8065,0.079,-0.0379,0.0676,-25.75,-36.5,22.38,314.52,-86.81,-173.27
52.557327,-1.478358,145.26,20.7,4,116.95,20 / 21,8209613,2019-11-06 18:23:10:075,1.2169,-0.1808,9.5904,0.0309,-0.0084,9.8066,0.0855,0.0642,-0.0874,-25.44,-36.12,22.5,319.74,-87.05,-170.82
52.557327,-1.478358,145.26,20.7,4,116.95,20 / 21,8209713,2019-11-06 18:23:10:175,-0.5526,0.6149,9.871,0.0085,-0.0157,9.8065,0.1024,-0.0303,0.0525,-26.19,-37.44,22.06,316.27,-86.88,-171.58
52.557327,-1.478358,145.26,20.7,4,116.95,20 / 21,8209814,2019-11-06 18:23:10:276,-1.3942,-0.9766,10.3901,0.0032,-0.0096,9.8065,-0.0202,-0.1563,0.0138,-25.81,-37.19,22.88,317.85,-86.87,-171.36
52.557327,-1.478358,145.26,20.7,4,116.95,21 / 21,8209914,2019-11-06 18:23:10:376,-0.6262,1.1184,10.2231,-0.0261,-0.0139,9.8066,0.0476,-0.1609,0.1128,-25.5,-36.87,23,320.54,-86.95,-169.93
52.557327,-1.478358,145.26,20.7,4,116.95,21 / 21,8210014,2019-11-06 18:23:10:476,-2.0413,-1.3455,10.9663,0.0101,-0.0329,9.8065,0.1221,-0.3534,0.1016,-25.56,-36.62,23.81,318.04,-86.73,-172.33
52.557327,-1.478358,145.26,20.7,4,116.95,21 / 21,8210113,2019-11-06 18:23:10:575,2.2729,1.9949,8.7633,0.0108,-0.0554,9.8064,0.122,-0.224,0.1071,-25.44,-36.44,23.44,319.72,-86.34,-170.32
52.557327,-1.478358,145.26,20.7,4,116.95,21 / 21,8210213,2019-11-06 18:23:10:675,-2.4147,-1.3271,9.1369,-0.0201,-0.0298,9.8066,-0.0237,-0.596,0.2076,-25.37,-36.5,22.81,319.85,-86.53,-170.34
52.557327,-1.478358,145.26,20.7,4,116.95,21 / 21,8210314,2019-11-06 18:23:10:776,3.4241,5.8516,10.5194,-0.0522,-0.0625,9.8063,0.0225,-0.1364,0.0093,-25,-36.81,22.44,323.41,-86.55,-165.6
52.557327,-1.478358,145.26,20.7,4,116.95,21 / 21,8210413,2019-11-06 18:23:10:875,-2.5404,-3.4208,9.7631,-0.0344,-0.0413,9.8065,0.0272,-1.029,0.5252,-25.12,-36.44,23.75,320.64,-86.68,-170.96
52.557327,-1.478358,145.26,20.7,4,116.95,21 / 21,8210513,2019-11-06 18:23:10:975,2.4915,6.1392,8.6871,-0.0838,-0.0884,9.8059,-0.1269,0.0896,0.0051,-25.69,-35.69,22.31,324.74,-86.64,-163.4
52.557327,-1.478358,145.26,20.7,4,116.95,21 / 21,8210613,2019-11-06 18:23:11:075,-5.9571,-5.0009,9.8089,-0.0241,-0.0084,9.8066,0.0237,-0.8877,0.4318,-24.81,-36.19,23.25,322.79,-87.02,-167.87
52.557327,-1.478358,145.26,20.7,4,116.95,21 / 21,8210713,2019-11-06 18:23:11:175,0.385,0.6197,11.1084,-0.0431,-0.0893,9.8061,-0.1571,0.3186,-0.159,-25.5,-36.12,22.88,327.09,-86.83,-163.66
52.557327,-1.478358,145.26,20.7,4,116.95,21 / 21,8210816,2019-11-06 18:23:11:278,-3.7649,-4.1482,11.7834,-0.018,0.0063,9.8066,0.0799,-0.643,0.3927,-25.37,-36.31,22.94,322.49,-86.9,-168.09
52.557327,-1.478358,145.26,20.7,4,116.95,21 / 21,8210914,2019-11-06 18:23:11:376,0.9676,3.0851,9.4091,-0.0061,-0.0663,9.8064,0.0226,0.3945,-0.2404,-24.87,-36.37,22.88,322.41,-86.73,-168.05
52.557327,-1.478358,145.26,20.7,4,116.95,21 / 21,8211014,2019-11-06 18:23:11:476,1.6349,2.3665,9.9319,0.0408,0.0421,9.8064,0.0595,-0.284,0.102,-24.62,-35.69,23.56,324.55,-86.77,-167.29
52.557327,-1.478358,145.26,20.7,4,116.95,21 / 21,8211114,2019-11-06 18:23:11:576,3.616,4.7049,9.125,-0.0388,-0.0342,9.8065,-0.0999,0.4231,-0.2596,-24.94,-36.94,22.94,322.3,-86.78,-168.12
52.557327,-1.478358,145.26,20.7,4,116.95,21 / 21,8211213,2019-11-06 18:23:11:675,-2.195,-2.0903,9.648,-0.0053,0.0341,9.8065,-0.0368,-0.3615,0.2162,-25.69,-36.31,23.25,319.75,-86.58,-169.4
52.557327,-1.478358,145.26,20.7,4,116.95,21 / 21,8211313,2019-11-06 18:23:11:775,-1.3447,-0.6185,10.5076,-0.0058,-0.0567,9.8064,-0.111,0.3999,-0.2024,-25,-35.94,24.38,323.42,-86.43,-168.15
52.557327,-1.478358,145.26,20.7,4,116.95,21 / 21,8211416,2019-11-06 18:23:11:878,-4.7912,-3.1059,10.541,0.011,0.0419,9.8065,0.004,-0.3372,0.1255,-24.37,-33.56,30,326.66,-86.52,-172.94
52.557327,-1.478358,145.26,20.7,4,116.95,21 / 21,8211514,2019-11-06 18:23:11:976,3.4008,4.1125,8.371,-0.0384,-0.0254,9.8065,-0.1951,0.3819,-0.2223,-29.31,-36.69,49.69,339.46,-86.45,-169.59
52.557327,-1.478358,145.26,20.7,4,116.95,21 / 21,8211614,2019-11-06 18:23:12:076,-3.1769,-2.1081,10.6999,-0.0305,0.0202,9.8065,0.001,-0.2979,0.2661,-44.5,-40.5,31.19,311.7,-86.48,-171.45
52.557327,-1.478358,145.26,20.7,4,116.95,21 / 21,8211714,2019-11-06 18:23:12:176,-1.1967,-0.0393,9.2897,0.0271,-0.0493,9.8065,-0.0342,0.187,-0.1112,-29.81,-37.37,20.56,309.28,-86.36,-172.81
52.557327,-1.478358,145.26,20.7,4,116.95,21 / 21,8211813,2019-11-06 18:23:12:275,-5.6449,-2.5753,10.2272,0.0302,0.0159,9.8065,0.2098,-0.4999,0.1125,-27.25,-36.87,21.81,314.92,-86.68,-171.7
52.557327,-1.478358,145.26,20.7,4,116.95,20 / 21,8211913,2019-11-06 18:23:12:375,4.1237,3.6098,11.2722,-0.0133,-0.0602,9.8064,0.2365,0.2878,-0.2587,-26.37,-36.81,20.75,316.38,-86.77,-170.04
52.557327,-1.478358,145.26,20.7,4,116.95,20 / 21,8212013,2019-11-06 18:23:12:475,-3.152,-2.6621,8.8659,0.0282,0.0096,9.8066,-0.0946,-0.4796,0.2423,-28.37,-37.06,21.69,310.93,-86.52,-174.44
52.557327,-1.478358,145.26,20.7,4,116.95,20 / 21,8212113,2019-11-06 18:23:12:575,0.9563,-1.6389,10.9601,-0.0515,-0.0713,9.8062,-0.1731,0.3983,-0.0436,-31.56,-38.37,21.81,312.69,-86.33,-169.12
52.557327,-1.478358,145.26,20.7,4,116.95,20 / 21,8212214,2019-11-06 18:23:12:676,-1.0522,-4.0794,11.3012,-0.0201,0.0217,9.8066,0.0529,-0.367,0.1247,-44.81,-40.87,38.06,315.07,-86.19,-173.18
52.557327,-1.478358,145.26,20.7,4,116.95,20 / 21,8212314,2019-11-06 18:23:12:776,0.5939,2.687,8.4634,-0.0062,-0.0506,9.8065,0.0236,0.358,-0.1802,-25,-34.31,36.06,331.91,-86.18,-171.86
52.557327,-1.478358,145.26,20.7,4,116.95,20 / 21,8212413,2019-11-06 18:23:12:875,1.9026,0.9951,11.4984,0.0457,0.0071,9.8065,0.1036,-0.1177,0.0079,-25,-35.44,27.5,325.28,-86.49,-171.05
52.557327,-1.478358,145.26,20.7,4,116.95,20 / 21,8212513,2019-11-06 18:23:12:975,4.4351,0.3516,11.4115,-0.0295,-0.0136,9.8066,0.1488,0.2066,-0.2603,-24.75,-35.37,24.5,323.33,-86.58,-169.6
52.557327,-1.478358,145.26,20.7,4,116.95,20 / 21,8212613,2019-11-06 18:23:13:075,-2.5922,-0.5426,8.5482,-0.0017,0.0123,9.8066,-0.1732,-0.0553,0.183,-24.94,-35.81,23.31,317.87,-86.44,-172.16
52.557327,-1.478358,145.26,20.7,4,116.95,20 / 21,8212713,2019-11-06 18:23:13:175,0.114,0.2559,10.5362,-0.0264,0.0043,9.8066,-0.1326,-0.036,0.0126,-24.62,-36,23.19,315.5,-86.39,-174.38
52.557327,-1.478358,145.26,20.7,4,116.95,20 / 21,8212813,2019-11-06 18:23:13:275,1.146,-1.8517,9.569,0.0007,0.0077,9.8066,0.1368,-0.1288,-0.0085,-24.87,-36.75,23.25,312.72,-86.42,-176.97
52.557327,-1.478358,145.26,20.7,4,116.95,21 / 21,8212915,2019-11-06 18:23:13:377,-0.4408,2.623,9.9351,0.0213,-0.0154,9.8066,0.0807,-0.0498,-0.0089,-25.31,-36.75,23.06,310.48,-86.38,-179.08
52.557327,-1.478358,145.26,20.7,4,116.95,21 / 21,8213014,2019-11-06 18:23:13:476,-1.2844,-0.7269,9.6876,0.0183,-0.0172,9.8066,0.008,-0.1696,0.111,-24.62,-36.06,22.94,311.68,-86.24,-177.89
52.557327,-1.478358,145.26,20.7,4,116.95,21 / 21,8213114,2019-11-06 18:23:13:576,-0.4776,1.3415,8.285,-0.0126,-0.0156,9.8066,0.2332,-0.1473,-0.0177,-25.5,-36.69,23,312.18,-86.24,-177.33
52.557327,-1.478358,145.26,20.7,4,116.95,21 / 21,8213214,2019-11-06 18:23:13:676,-2.536,-1.8245,8.9465,0.029,-0.0179,9.8066,0.0009,-0.4278,0.1452,-25.25,-36.25,23.63,313.13,-86.24,-177.79
52.557327,-1.478358,145.26,20.7,4,116.95,21 / 21,8213313,2019-11-06 18:23:13:775,3.2668,4.1182,10.1541,-0.0641,-0.0309,9.8063,0.0911,-0.2054,0.0301,-24.94,-35.94,22.81,315.42,-86.31,-174.39
52.557327,-1.478358,145.26,20.7,4,116.95,21 / 21,8213413,2019-11-06 18:23:13:875,-4.8491,-0.9863,8.4695,-0.0451,-0.0143,9.8065,-0.058,-0.7244,0.4606,-25.12,-36.12,23.06,311.4,-86.38,-178.28
52.557327,-1.478358,145.26,20.7,4,116.95,21 / 21,8213513,2019-11-06 18:23:13:975,0.1706,2.954,7.5483,-0.0149,-0.075,9.8063,-0.1258,-0.0241,0.14,-25.19,-36.06,23.25,313.06,-86.37,-176.68
52.557327,-1.478358,145.26,20.7,4,116.95,21 / 21,8213613,2019-11-06 18:23:14:075,-1.9091,-3.1406,12.3546,-0.0012,-0.0064,9.8066,0.2728,-0.4952,0.1332,-24.69,-36,23.25,309.56,-86.26,-179.94
52.557327,-1.478358,145.26,20.7,4,116.95,21 / 21,8213713,2019-11-06 18:23:14:175,-1.8356,0.3445,8.605,0.0194,-0.0521,9.8064,0.135,0.215,-0.1794,-24.87,-36.31,22.56,309.51,-86.24,-179.96
52.557327,-1.478358,145.26,20.7,4,116.95,21 / 21,8213813,2019-11-06 18:23:14:275,-3.3348,-1.6811,8.1251,0.0616,0.0037,9.8064,0.0675,-0.166,0.075,-25.25,-36.56,22.56,311.77,-86.51,-177.95
52.557327,-1.478358,145.26,20.7,4,116.95,21 / 21,8213913,2019-11-06 18:23:14:375,3.7466,2.267,10.9693,-0.0473,-0.0244,9.8064,0.0136,0.3622,-0.2545,-24.75,-36.37,23.63,314.35,-86.42,-176.76
52.557327,-1.478358,145.26,20.7,4,116.95,21 / 21,8214013,2019-11-06 18:23:14:475,-2.3478,-0.6134,9.0204,-0.014,0.0229,9.8066,-0.1539,-0.1381,0.1658,-24.81,-36.31,23.25,311.18,-86.2,-178.34
52.557327,-1.478358,145.26,20.7,4,116.95,21 / 21,8214114,2019-11-06 18:23:14:576,-1.62,-1.6352,10.4143,-0.0083,-0.0234,9.8065,-0.1044,0.445,-0.1874,-25.31,-36.87,23.25,310.93,-86.15,-178.44
52.557327,-1.478358,145.26,20.7,4,116.95,21 / 21,8214214,2019-11-06 18:23:14:676,-2.5628,-2.4661,9.6292,0.0379,0.0257,9.8065,0.127,0.0402,-0.073,-24.56,-36.19,23.56,312.78,-86.13,-178.03
52.557327,-1.478358,145.26,20.7,4,116.95,21 / 21,8214313,2019-11-06 18:23:14:775,-0.9991,-0.4863,10.0898,0.0058,-0.0026,9.8066,-0.0077,0.8687,-0.493,-24.62,-36.06,22.94,310.8,-86.06,-178.58
52.557327,-1.478358,145.26,20.7,4,116.95,21 / 21,8214414,2019-11-06 18:23:14:876,3.1138,6.5673,8.3429,0.0197,0.0885,9.8061,-0.2008,0.3622,-0.1182,-25.12,-36.12,23.5,308.35,-86.3,177.59
52.557327,-1.478358,145.26,20.7,4,116.95,21 / 21,8214513,2019-11-06 18:23:14:975,-0.919,2.6352,8.1111,-0.0071,0.0241,9.8066,-0.2883,1.0184,-0.3256,-25.06,-35.69,23.06,311.63,-86.1,-177.83
52.557327,-1.478358,145.26,20.7,4,116.95,21 / 21,8214613,2019-11-06 18:23:15:075,3.9753,4.8012,9.961,0.0121,0.0922,9.8062,-0.0834,0.754,-0.4636,-24.62,-35.94,22.44,313.57,-86.04,-174.61
52.557327,-1.478358,145.26,20.7,4,116.95,21 / 21,8214713,2019-11-06 18:23:15:175,-5.6959,-3.9679,9.523,0.0442,0.0705,9.8062,0.026,0.6423,-0.3032,-24.87,-36.56,23.06,310.26,-86.37,-179.28
52.557327,-1.478358,145.26,20.7,4,116.95,21 / 21,8214813,2019-11-06 18:23:15:275,0.4708,2.3411,8.7334,0.0558,0.0579,9.8062,-0.0948,0.8479,-0.5201,-25.19,-36.62,23,316.07,-86.51,-173.85
52.556625,-1.475977,147.18,18.24,4,116.51,21 / 21,8214914,2019-11-06 18:23:15:376,-2.404,1.2375,9.2736,0.0202,0.0621,9.8064,0.1271,-0.6722,0.3037,-24.81,-36.37,23.25,318.99,-86.39,-171.06
52.556625,-1.475977,147.18,18.24,4,116.51,21 / 21,8215013,2019-11-06 18:23:15:475,-1.3369,3.0916,9.1208,-0.0205,0.0363,9.8065,-0.205,0.5208,-0.194,-25.5,-36.37,23.06,317.91,-86.57,-172.22
52.556625,-1.475977,147.18,18.24,4,116.51,21 / 21,8215113,2019-11-06 18:23:15:575,0.0934,-2.6199,9.7311,0.0403,0.0286,9.8065,0.0605,0.2303,-0.0636,-25.12,-35.25,23.19,316.01,-86.67,-174.17
52.556625,-1.475977,147.18,18.24,4,116.51,21 / 21,8215213,2019-11-06 18:23:15:675,2.0208,2.6004,9.3711,0.054,0.0215,9.8064,0.0446,0.4146,-0.3014,-24.87,-35.62,23.06,313.84,-86.49,-176.04
52.556625,-1.475977,147.18,18.24,4,116.51,21 / 21,8215313,2019-11-06 18:23:15:775,-2.7608,-2.0211,9.2285,0.0103,0.0312,9.8065,0.1177,0.2858,-0.1463,-25,-36.19,23.69,317.35,-86.62,-174.05
52.556625,-1.475977,147.18,18.24,4,116.51,21 / 21,8215413,2019-11-06 18:23:15:875,2.4544,3.0315,8.5313,0.0345,0.025,9.8065,-0.1824,0.6514,-0.3072,-25.06,-35.94,22.81,317,-86.55,-173.07
52.556625,-1.475977,147.18,18.24,4,116.51,21 / 21,8215513,2019-11-06 18:23:15:975,-3.7787,-4.0262,10.4077,0.0139,0.0668,9.8063,0.0141,-0.0678,0.0724,-25.06,-35.19,22.44,309.72,-86.56,-178.79
52.556625,-1.475977,147.18,18.24,4,116.51,21 / 21,8215614,2019-11-06 18:23:16:076,0.6408,0.2566,10.2929,0.019,-0.0114,9.8066,0.0062,0.595,-0.3978,-24.69,-36,22.13,308.54,-86.55,-179.84
52.556625,-1.475977,147.18,18.24,4,116.51,21 / 21,8215714,2019-11-06 18:23:16:176,-3.1265,-4.115,10.7136,0.0207,0.0607,9.8064,0.0312,-0.2527,0.236,-24.56,-35.62,22.88,307.42,-86.55,177.77
52.556625,-1.475977,147.18,18.24,4,116.51,21 / 21,8215814,2019-11-06 18:23:16:276,1.0664,2.1231,8.9626,-0.0116,-0.0301,9.8065,-0.0892,0.2119,-0.1878,-25.44,-36.37,22.56,309.65,-86.57,179.89
52.556625,-1.475977,147.18,18.24,4,116.51,22 / 22,8215914,2019-11-06 18:23:16:376,2.1094,0.9764,9.6587,-0.0123,0.0103,9.8066,-0.0041,-0.2211,0.2428,-25.25,-36.31,22.69,310.83,-86.61,-179.02
52.556625,-1.475977,147.18,18.24,4,116.51,22 / 22,8216014,2019-11-06 18:23:16:476,0.3637,1.2012,9.3388,-0.0075,-0.0305,9.8065,0.0311,-0.0423,-0.0802,-25,-36.69,23.31,311.18,-86.73,-178.7
52.556625,-1.475977,147.18,18.24,4,116.51,22 / 22,8216114,2019-11-06 18:23:16:576,1.1543,1.2406,9.1839,-0.0187,-0.0069,9.8065,0.0065,-0.0466,-0.0191,-24.94,-36.31,22.63,317.13,-86.75,-173.09
52.556625,-1.475977,147.18,18.24,4,116.51,22 / 22,8216214,2019-11-06 18:23:16:676,-0.3062,-0.024,10.3406,0.0137,-0.0155,9.8066,-0.0208,-0.2132,0.0972,-24.5,-35.75,22.06,318.15,-86.98,-172.09
52.556625,-1.475977,147.18,18.24,4,116.51,22 / 22,8216315,2019-11-06 18:23:16:777,2.6896,1.6818,9.3652,-0.0303,-0.0226,9.8065,0.0134,0.0841,-0.1278,-25,-36.37,22,320.58,-86.89,-168.6
52.556625,-1.475977,147.18,18.24,4,116.51,22 / 22,8216413,2019-11-06 18:23:16:875,-1.59,-1.7273,9.7761,-0.0051,-0.0147,9.8066,0.0431,-0.3022,0.1284,-25.12,-36.12,22.69,319.69,-87.02,-170.84
52.556625,-1.475977,147.18,18.24,4,116.51,22 / 22,8216513,2019-11-06 18:23:16:975,-0.1011,-0.531,9.6689,-0.0135,-0.0313,9.8066,0.0359,0.2031,-0.1893,-25.12,-35.56,21.75,320.76,-87.02,-168.51
52.556625,-1.475977,147.18,18.24,4,116.51,22 / 22,8216614,2019-11-06 18:23:17:076,-3.4878,-1.2001,9.3422,0.0073,-0.0009,9.8066,-0.028,-0.2908,0.2435,-25.25,-35.87,22.06,321.66,-87.19,-167.77
52.556625,-1.475977,147.18,18.24,4,116.51,22 / 22,8216714,2019-11-06 18:23:17:176,1.273,1.4956,10.0198,-0.0363,-0.0306,9.8064,-0.053,0.1296,-0.0888,-25.94,-36.44,22.56,323.97,-87.21,-165.79
52.556625,-1.475977,147.18,18.24,4,116.51,22 / 22,8216814,2019-11-06 18:23:17:276,-0.163,-0.4496,8.8951,-0.007,-0.0086,9.8066,-0.0353,-0.2762,0.1974,-25.37,-36.25,22.13,322.26,-87.23,-167.22
52.556625,-1.475977,147.18,18.24,4,116.51,22 / 23,8216914,2019-11-06 18:23:17:376,0.4726,1.1432,9.9017,-0.0323,-0.0267,9.8065,-0.0402,-0.0487,0.0449,-25.87,-36.69,21.63,323.47,-87.17,-164.9
52.556625,-1.475977,147.18,18.24,4,116.51,22 / 23,8217014,2019-11-06 18:23:17:476,-0.6736,-1.8661,9.5677,-0.0111,-0.0185,9.8066,0.0413,-0.4256,0.181,-25.5,-36.06,22.5,323.19,-87.37,-167.72
52.556625,-1.475977,147.18,18.24,4,116.51,22 / 23,8217113,2019-11-06 18:23:17:575,1.803,3.7182,9.7503,-0.0274,-0.0551,9.8064,0.0334,-0.1433,0.1228,-25.12,-36.12,21.44,323.39,-87.2,-164.76
52.556625,-1.475977,147.18,18.24,4,116.51,22 / 23,8217213,2019-11-06 18:23:17:675,1.0768,-3.0635,10.0924,-0.0112,-0.0389,9.8066,0.1517,-0.4807,0.24,-26.06,-35.31,21.63,317.26,-87.12,-170.93
52.556625,-1.475977,147.18,18.24,4,116.51,22 / 23,8217314,2019-11-06 18:23:17:776,1.5116,0.2324,10.2693,-0.01,-0.0361,9.8065,0.0022,0.1436,0.0102,-25.94,-36.44,21.88,320.14,-86.91,-167.96
52.556625,-1.475977,147.18,18.24,4,116.51,22 / 23,8217414,2019-11-06 18:23:17:876,3.1615,0.8919,8.848,0.0057,0.0212,9.8066,-0.1237,0.278,-0.1578,-25.62,-35.81,21.75,321.62,-87.12,-166.69
52.556625,-1.475977,147.18,18.24,4,116.51,22 / 23,8217514,2019-11-06 18:23:17:976,-3.6239,-3.319,10.3203,-0.0213,0.0428,9.8064,0.0246,0.207,-0.1285,-25.87,-35.87,22.44,328.65,-87.33,-160.09
52.556625,-1.475977,147.18,18.24,4,116.51,22 / 23,8217614,2019-11-06 18:23:18:076,2.5028,3.2479,8.2542,0.006,0.018,9.8066,-0.2103,0.6839,-0.2554,-25.75,-36.31,21.38,330.45,-87.31,-157.02
52.556625,-1.475977,147.18,18.24,4,116.51,22 / 23,8217713,2019-11-06 18:23:18:175,-2.2817,-4.8066,10.5678,0.0068,0.0744,9.8063,-0.0028,-0.1808,0.1225,-26.12,-36.31,22,330.73,-87.53,-158.21
52.556625,-1.475977,147.18,18.24,4,116.51,22 / 23,8217813,2019-11-06 18:23:18:275,0.0185,-1.0375,9.3954,-0.0117,-0.0158,9.8066,-0.0702,0.6155,-0.2794,-26.25,-35.94,21.81,332.09,-87.36,-156.81
52.556625,-1.475977,147.18,18.24,4,116.51,20 / 20,8217913,2019-11-06 18:23:18:375,-4.2577,-3.9807,9.3846,0.0443,0.0652,9.8063,-0.0267,-0.3212,0.2116,-26.31,-36.31,22.31,328.67,-87.4,-160.11
52.556625,-1.475977,147.18,18.24,4,116.51,20 / 20,8218013,2019-11-06 18:23:18:475,4.3339,2.2646,10.4896,0.0107,-0.0169,9.8066,0.0732,0.4746,-0.3204,-25.75,-36.44,22.13,333,-87.49,-156.01
52.556625,-1.475977,147.18,18.24,4,116.51,20 / 20,8218114,2019-11-06 18:23:18:576,-0.374,2.2462,9.0607,0.045,0.0536,9.8063,0.1721,-0.4895,0.1334,-25.56,-35.56,22.75,333.59,-87.64,-156.8
52.556625,-1.475977,147.18,18.24,4,116.51,20 / 20,8218214,2019-11-06 18:23:18:676,2.0258,4.413,8.3619,-0.0131,-0.0394,9.8065,-0.161,0.2318,-0.0325,-25.37,-36.56,21.75,334.9,-87.74,-155.37
52.556625,-1.475977,147.18,18.24,4,116.51,20 / 20,8218313,2019-11-06 18:23:18:775,0.6845,-2.1205,10.2732,-0.0154,0.0504,9.8065,-0.1105,-0.7153,0.5009,-25.87,-35.87,22.5,331.9,-87.74,-158.48
52.556625,-1.475977,147.18,18.24,4,116.51,20 / 20,8218414,2019-11-06 18:23:18:876,-3.843,-4.2577,10.3012,-0.0511,-0.0601,9.8063,0.0643,0.0075,-0.0431,-25.69,-36.25,21.63,336.91,-87.7,-152.36
52.556625,-1.475977,147.18,18.24,4,116.51,20 / 20,8218514,2019-11-06 18:23:18:976,-2.7182,-4.6017,9.3105,0.0411,0.0257,9.8065,0.1252,-0.8948,0.4045,-25.69,-36.31,21.94,323.82,-87.98,-165.14
52.556625,-1.475977,147.18,18.24,4,116.51,20 / 20,8218613,2019-11-06 18:23:19:075,0.2418,-2.0439,10.5002,-0.0272,-0.088,9.8062,0.1233,-0.2323,0.1223,-25,-35.75,22.06,313.03,-88.28,-176.95
52.556625,-1.475977,147.18,18.24,4,116.51,20 / 20,8218713,2019-11-06 18:23:19:175,3.5803,3.9936,8.3192,0.0212,-0.0079,9.8065,0.0909,-0.5403,0.2562,-25.06,-36.12,22.63,318.15,-88.2,-173.18
52.556625,-1.475977,147.18,18.24,4,116.51,20 / 20,8218814,2019-11-06 18:23:19:276,1.2532,-0.3081,8.8477,0.013,-0.0653,9.8064,0.1103,-0.3149,0.0932,-24.87,-36.19,21.75,314.72,-88.2,-175.23
52.556625,-1.475977,147.18,18.24,4,116.51,20 / 22,8218915,2019-11-06 18:23:19:377,1.9663,2.069,11.3941,-0.0275,-0.0426,9.8065,0.0061,-0.2217,0.0984,-25.06,-36.06,22.56,323.26,-87.74,-167.9
52.556625,-1.475977,147.18,18.24,4,116.51,20 / 22,8219014,2019-11-06 18:23:19:476,-1.3905,-3.7319,9.2661,-0.0359,-0.0468,9.8065,-0.1082,-0.3144,0.2497,-25.12,-35.69,21.69,325.08,-87.65,-164.79
52.556625,-1.475977,147.18,18.24,4,116.51,20 / 22,8219114,2019-11-06 18:23:19:576,0.0484,-0.4376,10.023,-0.0462,-0.0081,9.8064,0.0561,-0.4079,0.1333,-25.5,-36.5,22.19,323.9,-87.78,-166.01
52.556625,-1.475977,147.18,18.24,4,116.51,20 / 22,8219213,2019-11-06 18:23:19:675,-3.01,-2.8107,9.3161,-0.0367,-0.0397,9.8065,-0.055,-0.4082,0.3134,-25.44,-36.87,22.31,321.71,-87.75,-168.07
52.556625,-1.475977,147.18,18.24,4,116.51,20 / 22,8219314,2019-11-06 18:23:19:776,3.8376,4.1116,9.8744,-0.0434,-0.0392,9.8064,0.0103,-0.5015,0.2686,-25.81,-35.94,21.69,327.47,-87.82,-161.51
52.556625,-1.475977,147.18,18.24,4,116.51,20 / 22,8219414,2019-11-06 18:23:19:876,1.9287,-2.1107,10.8883,-0.0489,-0.0462,9.8064,0.0652,-0.4725,0.2478,-25,-36.12,22,318.9,-87.8,-170.86
52.556625,-1.475977,147.18,18.24,4,116.51,20 / 22,8219514,2019-11-06 18:23:19:976,1.6177,4.2307,7.5375,0.018,-0.0467,9.8064,0.0678,-0.2653,0.0378,-25.06,-36.25,21.5,324.65,-87.66,-165.21
52.556625,-1.475977,147.18,18.24,4,116.51,20 / 22,8219613,2019-11-06 18:23:20:075,-0.8916,-2.7857,11.0516,0.0079,-0.0362,9.8065,0.1539,-0.5913,0.3351,-25.56,-36.31,22.19,325.71,-87.54,-163.04
52.556625,-1.475977,147.18,18.24,4,116.51,20 / 22,8219713,2019-11-06 18:23:20:175,1.0733,1.2074,10.7761,-0.0206,-0.0471,9.8064,0.0352,-0.1968,0.0502,-25.12,-36.44,22.31,324.97,-87.59,-164.85
52.556625,-1.475977,147.18,18.24,4,116.51,20 / 22,8219813,2019-11-06 18:23:20:275,-3.5195,-2.3172,9.5572,-0.0162,-0.0145,9.8065,-0.0726,-0.3946,0.2918,-25.06,-36.75,21.94,320.36,-87.57,-169.24
52.556625,-1.475977,147.18,18.24,4,116.51,20 / 20,8219913,2019-11-06 18:23:20:375,0.8503,2.1453,9.7631,-0.0273,-0.0405,9.8065,-0.1976,-0.156,0.2616,-24.81,-36.12,21.5,318.41,-87.36,-171.01
52.556625,-1.475977,147.18,18.24,4,116.51,20 / 20,8220013,2019-11-06 18:23:20:475,-1.0438,-2.4829,9.4523,-0.0204,-0.021,9.8065,0.0816,-0.3055,0.017,-25.12,-35.94,22.44,311.32,-87.23,-177.74
52.556625,-1.475977,147.18,18.24,4,116.51,20 / 20,8220113,2019-11-06 18:23:20:575,2.1355,0.3089,9.9911,0.0008,-0.055,9.8064,0.2029,-0.137,0.0639,-25.5,-36.44,21.25,315.4,-87.16,-172.39
52.556625,-1.475977,147.18,18.24,4,116.51,20 / 20,8220214,2019-11-06 18:23:20:676,-1.5046,-2.9638,10.2041,0.0214,-0.0346,9.8065,0.0475,-0.4913,0.1446,-25.25,-35.94,21.56,319.31,-87.27,-170.08
52.556625,-1.475977,147.18,18.24,4,116.51,20 / 20,8220314,2019-11-06 18:23:20:776,0.1803,2.818,9.2289,-0.04,-0.0593,9.8063,0.0683,-0.04,-0.0226,-25.56,-37.06,21.81,325.86,-87.38,-162.75
52.556625,-1.475977,147.18,18.24,4,116.51,20 / 20,8220413,2019-11-06 18:23:20:875,-3.3002,-2.6546,10.5529,-0.0223,-0.0072,9.8065,-0.1073,-0.6033,0.3401,-25.31,-35.87,22.06,324.4,-87.52,-165.37
52.556625,-1.475977,147.18,18.24,4,116.51,20 / 20,8220514,2019-11-06 18:23:20:976,-0.6339,3.4872,8.8418,-0.0263,-0.0433,9.8065,-0.2145,0.0661,0.1492,-25.5,-36.19,20.81,323.05,-87.53,-165.32
52.556625,-1.475977,147.18,18.24,4,116.51,20 / 20,8220614,2019-11-06 18:23:21:076,0.2833,0.9297,9.8964,-0.0029,0.0148,9.8065,0.1516,-0.2227,-0.0854,-25.31,-36.5,22.25,318.29,-87.71,-171.39
52.556625,-1.475977,147.18,18.24,4,116.51,20 / 20,8220714,2019-11-06 18:23:21:176,1.0473,2.5101,10.7877,0.0105,-0.0021,9.8066,0.0274,0.2362,-0.2328,-25.06,-36.56,21.69,318.21,-87.82,-171.5
52.556625,-1.475977,147.18,18.24,4,116.51,20 / 20,8220814,2019-11-06 18:23:21:276,-1.1874,-0.4013,8.974,0.004,0.0088,9.8066,-0.1208,-0.094,0.1599,-24.87,-36.5,22.06,315.06,-87.9,-174.67
52.556625,-1.475977,147.18,18.24,4,116.51,20 / 20,8220914,2019-11-06 18:23:21:376,0.9837,-0.8723,11.7676,-0.0372,-0.0118,9.8065,-0.2454,0.1219,0.1544,-25.19,-36.44,21.94,315.62,-87.87,-174.1
52.556625,-1.475977,147.18,18.24,4,116.51,20 / 20,8221013,2019-11-06 18:23:21:475,1.5014,0.2208,11.0583,-0.0391,0.0091,9.8065,0.0998,0.1811,-0.2073,-25.5,-35.81,21.75,310.36,-87.67,-179.05
52.556625,-1.475977,147.18,18.24,4,116.51,20 / 20,8221113,2019-11-06 18:23:21:575,-2.8994,-0.2897,9.0474,0.0624,0.0089,9.8064,0.1668,0.1536,-0.2188,-25.37,-36.06,21.56,313.17,-87.79,-176.42
52.556625,-1.475977,147.18,18.24,4,116.51,20 / 20,8221213,2019-11-06 18:23:21:675,-0.3963,2.5376,9.4288,0.0128,0.0105,9.8066,-0.1456,0.3047,0.0305,-25.44,-36.19,22,318.85,-87.89,-170.98
52.556625,-1.475977,147.18,18.24,4,116.51,20 / 20,8221314,2019-11-06 18:23:21:776,-1.3191,-1.154,10.6241,-0.0368,0.0399,9.8064,-0.0591,-0.0221,0.0108,-25.12,-36.25,21.88,322.96,-88.09,-167.12
52.556625,-1.475977,147.18,18.24,4,116.51,20 / 20,8221414,2019-11-06 18:23:21:876,2.3655,2.1592,9.3932,-0.015,0.0146,9.8066,-0.1297,0.3987,-0.1599,-25.56,-36.31,21.13,319.89,-87.89,-167.55
52.556625,-1.475977,147.18,18.24,4,116.51,20 / 20,8221514,2019-11-06 18:23:21:976,-1.9034,-0.8742,9.3487,0.0249,0.0619,9.8064,0.0492,0.0929,-0.1333,-25.44,-36.37,21.25,315.21,-88.05,-173.29
52.556625,-1.475977,147.18,18.24,4,116.51,20 / 20,8221614,2019-11-06 18:23:22:076,-1.4839,1.2216,9.2065,0.0256,0.0339,9.8065,-0.029,0.1804,-0.1013,-25,-36.56,21.88,323.03,-88.14,-167.06
52.556625,-1.475977,147.18,18.24,4,116.51,20 / 20,8221714,2019-11-06 18:23:22:176,-2.1069,0.1748,9.7705,-0.0011,0.0141,9.8066,0.0712,0.039,0.0453,-24.81,-36.44,21.44,315.56,-88.33,-173.17
52.556625,-1.475977,147.18,18.24,4,116.51,20 / 20,8221814,2019-11-06 18:23:22:276,-1.0579,1.389,9.9968,0.0208,0.0027,9.8066,0.0226,0.0938,-0.0853,-25.06,-36.56,21.25,312.83,-88.15,-175.64
52.556625,-1.475977,147.18,18.24,4,116.51,22 / 22,8221914,2019-11-06 18:23:22:376,-1.2847,-0.7002,9.4387,0.0298,-0.0124,9.8065,0.0986,0.2538,-0.1386,-25.31,-36.06,21.19,313.8,-87.89,-174.53
52.556625,-1.475977,147.18,18.24,4,116.51,22 / 22,8222014,2019-11-06 18:23:22:476,-2.9248,-1.3874,9.1086,0.0426,0.0216,9.8065,0.0057,-0.0237,-0.0583,-25.56,-36.94,21,316.68,-87.81,-170.57
52.556625,-1.475977,147.18,18.24,4,116.51,22 / 22,8222114,2019-11-06 18:23:22:576,0.1506,0.7543,10.8078,-0.0201,-0.02,9.8065,0.0735,0.2548,-0.1169,-25.12,-36.62,22.13,320.68,-87.81,-169.11
52.556625,-1.475977,147.18,18.24,4,116.51,22 / 22,8222213,2019-11-06 18:23:22:675,-0.3481,1.1342,9.1053,-0.0012,0.0101,9.8066,-0.1548,0.0841,0.0135,-25.75,-36.75,21.31,314.55,-87.79,-172.62
52.556625,-1.475977,147.18,18.24,4,116.51,22 / 22,8222314,2019-11-06 18:23:22:776,-3.4882,0.5196,8.2534,-0.0241,0.0286,9.8066,-0.229,-0.0743,0.1185,-25.12,-36.56,21.88,315.93,-87.99,-173.84
52.556625,-1.475977,147.18,18.24,4,116.51,22 / 22,8222414,2019-11-06 18:23:22:876,2.7761,2.5788,10.4156,-0.0397,-0.0107,9.8065,0.036,0.3668,-0.1389,-25.44,-36.75,21.38,317.01,-88.25,-171.66
52.556625,-1.475977,147.18,18.24,4,116.51,22 / 22,8222514,2019-11-06 18:23:22:976,0.4413,0.3287,8.9169,0.0523,0.0539,9.8063,0.1317,-0.2824,0.1057,-25.12,-36.31,21.19,306.06,-88.23,177.62
52.556625,-1.475977,147.18,18.24,4,116.51,22 / 22,8222614,2019-11-06 18:23:23:076,2.1714,5.1951,7.8976,0.0174,-0.0256,9.8066,-0.0623,0.5563,-0.2692,-24.44,-36.37,21.63,316.13,-88.27,-175.04
52.556625,-1.475977,147.18,18.24,4,116.51,22 / 22,8222714,2019-11-06 18:23:23:176,-2.7698,-1.358,11.8064,-0.007,0.0636,9.8064,0.0053,-0.346,0.1361,-24.75,-37,21.81,316.03,-88.21,-173.92
52.556625,-1.475977,147.18,18.24,4,116.51,22 / 22,8222814,2019-11-06 18:23:23:276,-1.6776,-1.8801,8.6136,-0.0484,-0.0283,9.8064,-0.1367,0.2258,0.022,-26,-36.87,20.63,315.06,-87.89,-172.19
52.556625,-1.475977,147.18,18.24,4,116.51,22 / 23,8222913,2019-11-06 18:23:23:375,-4.3297,-2.7991,9.2389,0.0046,0.031,9.8066,-0.0659,-0.5044,0.3819,-25.31,-36.37,21.06,316.76,-87.92,-171.68
52.556625,-1.475977,147.18,18.24,4,116.51,22 / 23,8223014,2019-11-06 18:23:23:476,-0.6194,0.9394,10.0796,-0.012,-0.0394,9.8065,0.0719,0.025,-0.1201,-25.37,-36.44,21.88,321.19,-87.88,-168.7
52.556625,-1.475977,147.18,18.24,4,116.51,22 / 23,8223114,2019-11-06 18:23:23:576,0.0365,2.7598,8.6915,0.012,0.031,9.8065,0.1711,-0.3825,0.0127,-24.94,-36.81,21.75,313.31,-88.04,-176.43
52.556625,-1.475977,147.18,18.24,4,116.51,22 / 23,8223214,2019-11-06 18:23:23:676,0.089,1.3589,8.2005,-0.0025,-0.0321,9.8065,-0.0746,-0.1495,0.1471,-25.12,-36.94,20.88,304.48,-87.97,176.36
52.556625,-1.475977,147.18,18.24,4,116.51,22 / 23,8223313,2019-11-06 18:23:23:775,0.7362,2.6314,9.9009,-0.0222,0.0066,9.8065,-0.017,-0.2867,0.0988,-25.06,-36.37,21.44,302.01,-88.02,173.85
52.556625,-1.475977,147.18,18.24,4,116.51,22 / 23,8223413,2019-11-06 18:23:23:875,-1.5037,-2.2057,10.0318,-0.0089,-0.0386,9.8066,0.0501,-0.36,0.1995,-24.94,-36.62,20.94,298.97,-88.05,170.89
52.556625,-1.475977,147.18,18.24,4,116.51,22 / 23,8223513,2019-11-06 18:23:23:975,0.8195,1.1928,10.1647,-0.0245,-0.0418,9.8064,0.0466,-0.0854,0.0919,-25,-36.75,20.56,306.2,-88.05,177.97
52.556625,-1.475977,147.18,18.24,4,116.51,22 / 23,8223613,2019-11-06 18:23:24:075,-2.1708,-1.3834,9.3824,-0.0241,-0.0079,9.8065,-0.1246,-0.2735,0.1859,-25.37,-36,20.69,310.2,-88.17,-178.28
52.556625,-1.475977,147.18,18.24,4,116.51,22 / 23,8223714,2019-11-06 18:23:24:176,-0.1374,0.7401,10.7498,-0.0304,-0.0421,9.8065,-0.041,0.1732,0.0312,-26.19,-37,20.88,313.44,-88.08,-173.93
52.556625,-1.475977,147.18,18.24,4,116.51,22 / 23,8223814,2019-11-06 18:23:24:276,-3.2078,-1.6424,9.6978,-0.0187,0.0141,9.8066,-0.0244,-0.293,0.1248,-25.06,-36.37,20.44,311.96,-88.05,-175.05
52.55594,-1.473659,149.35,19.4,6,116.31,21 / 22,8223914,2019-11-06 18:23:24:376,1.5771,2.2412,9.6851,-0.026,0.0133,9.8065,0.0681,0.139,-0.0793,-25.5,-36.94,20.69,316.88,-88.29,-171.81
52.55594,-1.473659,149.35,19.4,6,116.31,21 / 22,8224013,2019-11-06 18:23:24:475,-2.1912,-0.5614,9.0427,0.0381,0.0259,9.8065,-0.0443,-0.2374,0.1454,-25.44,-36.56,20.88,314.47,-88.34,-174.21
52.55594,-1.473659,149.35,19.4,6,116.31,21 / 22,8224113,2019-11-06 18:23:24:575,1.9051,0.2375,10.0675,0.0232,0.0079,9.8065,-0.1329,-0.0404,0.0693,-25.69,-37,20.31,319.31,-88.47,-167.13
52.55594,-1.473659,149.35,19.4,6,116.31,21 / 22,8224214,2019-11-06 18:23:24:676,0.4788,1.3885,10.6269,-0.0146,0.0183,9.8066,0.112,0.0038,0.0114,-25.56,-36.19,20.31,321.13,-88.58,-165.46
52.55594,-1.473659,149.35,19.4,6,116.31,21 / 22,8224314,2019-11-06 18:23:24:776,-1.1846,1.4603,7.499,-0.007,0.0102,9.8066,-0.0447,-0.0994,0.0445,-25.75,-36.75,20.19,321.23,-88.63,-165.36
52.55594,-1.473659,149.35,19.4,6,116.31,21 / 22,8224414,2019-11-06 18:23:24:876,0.144,-0.3138,10.9001,-0.05,0.015,9.8064,0.1329,-0.0454,-0.089,-25.12,-36.37,20.38,326.53,-88.69,-161.31
52.55594,-1.473659,149.35,19.4,6,116.31,21 / 22,8224514,2019-11-06 18:23:24:976,0.269,0.5245,10.1885,-0.0152,-0.0139,9.8066,0.1113,-0.1001,-0.0743,-25.75,-36.37,20.69,324.45,-88.56,-163.57
52.55594,-1.473659,149.35,19.4,6,116.31,21 / 22,8224614,2019-11-06 18:23:25:076,-1.4411,-0.319,9.2076,0.0314,0.0099,9.8065,-0.0947,-0.1023,0.128,-25.25,-36.31,20.88,322.93,-88.43,-166.05
52.55594,-1.473659,149.35,19.4,6,116.31,21 / 22,8224714,2019-11-06 18:23:25:176,-0.576,0.2078,9.9856,0.0046,-0.0068,9.8066,-0.0419,0.0365,-0.0101,-26.12,-36.75,20.94,325.76,-88.52,-162.24
52.55594,-1.473659,149.35,19.4,6,116.31,21 / 22,8224814,2019-11-06 18:23:25:276,-0.2825,-1.5755,9.9014,-0.0031,0.0128,9.8066,0.1805,-0.0929,0.0213,-25.81,-36.69,21.19,323.94,-88.44,-163.96
52.55594,-1.473659,149.35,19.4,6,116.31,20 / 21,8224917,2019-11-06 18:23:25:379,-0.129,1.0062,10.3743,-0.004,0.0013,9.8066,0.0518,-0.1053,-0.0915,-25.31,-36.81,20.75,319.64,-88,-168.9
52.55594,-1.473659,149.35,19.4,6,116.31,20 / 21,8225013,2019-11-06 18:23:25:475,-1.6028,-0.785,9.3504,0.0248,0.0426,9.8065,-0.0546,-0.2943,0.2695,-25.06,-36.81,21.06,314.21,-88.11,-174.27
52.55594,-1.473659,149.35,19.4,6,116.31,20 / 21,8225113,2019-11-06 18:23:25:575,1.0738,1.2547,8.5573,0.0303,0.0194,9.8066,-0.0319,-0.1631,0.0815,-25.25,-37.25,21.63,317.44,-88.04,-172.42
52.55594,-1.473659,149.35,19.4,6,116.31,20 / 21,8225213,2019-11-06 18:23:25:675,-1.6135,-2.714,12.1909,-0.0102,0.0443,9.8065,0.2845,-0.4467,0.1858,-25.44,-37.12,21.06,318.83,-88.1,-169.77
52.55594,-1.473659,149.35,19.4,6,116.31,20 / 21,8225314,2019-11-06 18:23:25:776,-1.4728,0.0828,8.8618,-0.0244,-0.0077,9.8066,0.114,0.1458,-0.1492,-25.62,-37.12,21.13,321.17,-87.76,-166.19
52.55594,-1.473659,149.35,19.4,6,116.31,20 / 21,8225414,2019-11-06 18:23:25:876,-4.515,-2.8376,8.8128,0.0113,0.0337,9.8065,0.0846,-0.2793,0.1269,-26.19,-36.5,21.13,318.21,-87.67,-169.02
52.55594,-1.473659,149.35,19.4,6,116.31,20 / 21,8225514,2019-11-06 18:23:25:976,2.1672,0.8424,10.1919,-0.024,-0.0148,9.8065,-0.1334,0.3541,-0.2153,-25.44,-36.12,20.94,320.52,-87.81,-167.95
52.55594,-1.473659,149.35,19.4,6,116.31,20 / 21,8225614,2019-11-06 18:23:26:076,1.2511,1.7658,8.2696,0.0319,0.0513,9.8064,-0.0686,-0.1906,0.134,-25.5,-36.62,20.5,320,-88.16,-168.67
52.55594,-1.473659,149.35,19.4,6,116.31,20 / 21,8225713,2019-11-06 18:23:26:175,0.2572,6.0476,9.223,-0.0306,-0.0507,9.8065,-0.1458,0.7521,-0.4026,-25.62,-37.06,20.13,325.3,-88.06,-161.01
52.55594,-1.473659,149.35,19.4,6,116.31,20 / 21,8225813,2019-11-06 18:23:26:275,-5.9267,-4.5456,9.9832,0.0076,0.024,9.8065,-0.0205,-0.0379,-0.116,-25.19,-36.94,21.19,315.39,-88.21,-173.2
52.55594,-1.473659,149.35,19.4,6,116.31,21 / 22,8225913,2019-11-06 18:23:26:375,1.1101,0.6449,10.7949,-0.0435,-0.078,9.8062,0.0568,0.6697,-0.4152,-25.31,-36.69,20.38,305.86,-88.24,178.86
52.55594,-1.473659,149.35,19.4,6,116.31,21 / 22,8226014,2019-11-06 18:23:26:476,1.4704,2.3589,11.8795,0.0479,0.0184,9.8065,-0.1735,-0.0011,0.0827,-25.44,-36.87,20.94,323.94,-88.2,-164.88
52.55594,-1.473659,149.35,19.4,6,116.31,21 / 22,8226114,2019-11-06 18:23:26:576,-1.7053,-1.9392,11.2522,-0.0086,-0.0488,9.8065,-0.2242,0.4912,-0.1911,-25.25,-37,20.94,320.75,-88.21,-167.98
52.55594,-1.473659,149.35,19.4,6,116.31,21 / 22,8226213,2019-11-06 18:23:26:675,-1.1344,-1.4377,10.4851,0.0099,0.012,9.8066,-0.0619,0.0794,0.0243,-25.69,-36.56,20.63,329.13,-88.3,-158.82
52.55594,-1.473659,149.35,19.4,6,116.31,21 / 22,8226313,2019-11-06 18:23:26:775,-2.0257,-1.4689,9.5008,-0.0285,-0.029,9.8065,-0.0105,0.4373,-0.2104,-26.06,-36.37,21.06,329.67,-88.42,-158.39
52.55594,-1.473659,149.35,19.4,6,116.31,21 / 22,8226413,2019-11-06 18:23:26:875,2.3115,3.6245,9.8331,-0.0138,-0.0155,9.8065,-0.017,0.3855,-0.2567,-25.62,-36.87,21.25,330.22,-88.45,-157.85
52.55594,-1.473659,149.35,19.4,6,116.31,21 / 22,8226514,2019-11-06 18:23:26:976,-0.1386,-0.0101,10.547,-0.0114,-0.0481,9.8065,0.0041,0.3667,-0.1983,-25.5,-37.81,20.75,327.54,-88.38,-161.47
52.55594,-1.473659,149.35,19.4,6,116.31,21 / 22,8226613,2019-11-06 18:23:27:075,1.524,4.8677,8.0453,0.0011,-0.0501,9.8065,-0.1373,0.5905,-0.2235,-25.44,-37,20.19,321.31,-88.31,-166.12
52.55594,-1.473659,149.35,19.4,6,116.31,21 / 22,8226714,2019-11-06 18:23:27:176,-2.3682,-2.9418,12.0943,-0.0125,-0.0457,9.8065,-0.231,0.2502,-0.0617,-25.56,-36.06,21.38,319.56,-88.53,-168.34
52.55594,-1.473659,149.35,19.4,6,116.31,21 / 22,8226814,2019-11-06 18:23:27:276,4.2217,4.2222,9.7863,-0.0156,-0.1022,9.8061,-0.2207,1.0563,-0.4479,-25.37,-36.81,21,335.12,-88.55,-154.21
52.55594,-1.473659,149.35,19.4,6,116.31,22 / 23,8226914,2019-11-06 18:23:27:376,-4.7431,-4.8524,10.2918,0.0252,-0.0559,9.8064,-0.1535,0.0907,0.0639,-25.44,-36.37,20.81,326.31,-88.8,-162.98
52.55594,-1.473659,149.35,19.4,6,116.31,22 / 23,8227014,2019-11-06 18:23:27:476,4.7305,4.3071,10.3935,-0.0773,-0.0866,9.8059,0.0129,0.825,-0.4345,-25.12,-37,20.88,337.3,-88.51,-152.08
52.55594,-1.473659,149.35,19.4,6,116.31,22 / 23,8227114,2019-11-06 18:23:27:576,-4.0244,-5.0421,9.3235,-0.0318,-0.012,9.8065,0.0713,-0.1138,0.0828,-25.25,-37,21.13,338.48,-88.56,-150.94
52.55594,-1.473659,149.35,19.4,6,116.31,22 / 23,8227213,2019-11-06 18:23:27:675,1.7581,-0.0253,9.7021,-0.0563,-0.0889,9.806,-0.0954,0.7521,-0.3547,-25.31,-36.87,21.13,340.57,-88.39,-148.85
52.55594,-1.473659,149.35,19.4,6,116.31,22 / 23,8227313,2019-11-06 18:23:27:775,-4.198,-6.9941,10.9525,0.0356,0.0059,9.8065,-0.0086,-0.4385,0.3466,-25.69,-36.81,20.88,336.61,-88.49,-151.64
52.55594,-1.473659,149.35,19.4,6,116.31,22 / 23,8227414,2019-11-06 18:23:27:876,3.8397,3.8788,8.7424,-0.0274,-0.1128,9.8059,-0.2019,0.7206,-0.2648,-25.69,-37.37,21.38,343.83,-88.23,-144.55
52.55594,-1.473659,149.35,19.4,6,116.31,22 / 23,8227514,2019-11-06 18:23:27:976,2.6742,1.7243,9.9296,0.0511,0.0252,9.8065,-0.027,-0.723,0.436,-25.75,-36.44,20.88,345.55,-88.45,-142.96
52.55594,-1.473659,149.35,19.4,6,116.31,22 / 23,8227614,2019-11-06 18:23:28:076,3.993,6.0107,8.7968,-0.0701,-0.0564,9.8062,0.0378,0.3019,-0.2597,-25.75,-36.44,21.19,343.61,-88.37,-144.82
52.55594,-1.473659,149.35,19.4,6,116.31,22 / 23,8227714,2019-11-06 18:23:28:176,-0.2259,-0.3233,10.3516,0.0205,0.0716,9.8063,0.1088,-0.874,0.4003,-25.62,-36.25,20.94,326.85,-88.85,-161.39
52.55594,-1.473659,149.35,19.4,6,116.31,22 / 23,8227814,2019-11-06 18:23:28:276,-4.5315,-4.8225,9.9112,0.0236,-0.0333,9.8065,-0.1104,0.0339,0.0345,-25.44,-37,20.13,335.08,-88.51,-152.85
52.55594,-1.473659,149.35,19.4,6,116.31,23 / 23,8227913,2019-11-06 18:23:28:375,-5.2942,-4.5945,10.0279,0.0865,0.0792,9.8059,-0.0081,-0.8858,0.5382,-25.37,-36.75,20.69,336.62,-88.44,-152.7
52.55594,-1.473659,149.35,19.4,6,116.31,23 / 23,8228014,2019-11-06 18:23:28:476,2.0837,-0.2703,10.951,-0.0365,-0.0186,9.8065,0.0822,-0.0387,-0.0438,-25.5,-36.81,20.69,325.9,-88.5,-163.16
52.55594,-1.473659,149.35,19.4,6,116.31,23 / 23,8228114,2019-11-06 18:23:28:576,3.7739,5.58,8.9127,0.0291,0.0904,9.8062,0.1039,-0.9046,0.4161,-25.31,-36.81,21.25,304.61,-88.72,175.78
52.55594,-1.473659,149.35,19.4,6,116.31,23 / 23,8228214,2019-11-06 18:23:28:676,3.4459,3.7215,10.0016,-0.0188,0.0051,9.8066,0.0425,-0.1759,0.1969,-25.69,-37,20.31,316.23,-88.71,-170.33
52.55594,-1.473659,149.35,19.4,6,116.31,23 / 23,8228314,2019-11-06 18:23:28:776,1.5717,1.6115,8.5888,0.0375,0.0805,9.8062,-0.0526,-0.704,0.3808,-25.56,-36.81,20.19,333.6,-88.66,-153.29
52.55594,-1.473659,149.35,19.4,6,116.31,23 / 23,8228413,2019-11-06 18:23:28:875,-2.3496,-4.9202,10.9521,-0.0116,0.0201,9.8066,0.1566,-0.4101,0.183,-25.94,-36.62,20.06,324.5,-88.92,-162.36
52.55594,-1.473659,149.35,19.4,6,116.31,23 / 23,8228514,2019-11-06 18:23:28:976,-0.5387,-0.2135,10.8158,0.0078,0.0847,9.8062,0.1712,-0.5736,0.2215,-25.87,-37.37,20.81,327.5,-88.78,-160.7
52.55594,-1.473659,149.35,19.4,6,116.31,23 / 23,8228614,2019-11-06 18:23:29:076,-3.9042,-1.5004,9.9701,0.0366,0.034,9.8065,0.0114,-0.4604,0.2437,-25.31,-37,20.5,313.15,-88.96,-176.02
52.55594,-1.473659,149.35,19.4,6,116.31,23 / 23,8228714,2019-11-06 18:23:29:176,2.1249,3.6123,9.6272,0.0258,0.0478,9.8065,0.0479,-0.3733,0.2656,-25.19,-36.87,20.31,305.81,-88.92,178.17
52.55594,-1.473659,149.35,19.4,6,116.31,23 / 23,8228814,2019-11-06 18:23:29:276,0.8916,-0.5083,10.252,0.0034,0.0299,9.8066,0.0939,-0.4226,0.2147,-25.5,-37,20.63,319.08,-88.86,-170.1
52.55594,-1.473659,149.35,19.4,6,116.31,22 / 22,8228914,2019-11-06 18:23:29:376,1.348,1.9872,9.1683,0.0071,0.0492,9.8065,0.0722,-0.4501,0.2138,-25.62,-36.94,20.5,325.56,-88.67,-162.53
52.55594,-1.473659,149.35,19.4,6,116.31,22 / 22,8229014,2019-11-06 18:23:29:476,-1.6702,-3.2639,10.2643,-0.0086,0.0378,9.8065,0.0778,-0.4418,0.1988,-25.5,-36.62,20.5,326.55,-88.93,-162.81
52.55594,-1.473659,149.35,19.4,6,116.31,22 / 22,8229114,2019-11-06 18:23:29:576,0.1733,2.4356,9.2399,0.0049,0.0325,9.8065,0.0217,-0.132,0.0337,-25.62,-36.87,19.75,333.04,-88.96,-153.99
52.55594,-1.473659,149.35,19.4,6,116.31,22 / 22,8229213,2019-11-06 18:23:29:675,-1.6104,-2.9392,10.3781,0.0228,0.057,9.8064,0.1389,-0.4903,0.1896,-25.62,-37,20,320.38,-89.17,-166.59
52.55594,-1.473659,149.35,19.4,6,116.31,22 / 22,8229313,2019-11-06 18:23:29:775,1.808,3.305,9.8662,-0.0125,-0.001,9.8066,0.0857,0.2948,-0.2337,-25.69,-36.75,19.88,316.46,-88.92,-170.26
52.55594,-1.473659,149.35,19.4,6,116.31,22 / 22,8229413,2019-11-06 18:23:29:875,0.3055,0.5338,9.8191,0.0603,0.0513,9.8063,0.0262,-0.5234,0.2563,-25.5,-36.37,20.38,302.01,-88.73,174.56
52.55594,-1.473659,149.35,19.4,6,116.31,22 / 22,8229514,2019-11-06 18:23:29:976,3.4016,4.058,9.0063,0.0013,-0.0083,9.8066,-0.0926,0.4656,-0.1724,-25.12,-36.44,19.94,306.89,-88.7,179.41
52.55594,-1.473659,149.35,19.4,6,116.31,22 / 22,8229614,2019-11-06 18:23:30:076,-3.4254,-1.8497,9.5203,0.0325,0.0511,9.8064,-0.0877,-0.338,0.1184,-25.69,-36.37,20.81,295.85,-88.81,168.08
52.55594,-1.473659,149.35,19.4,6,116.31,22 / 22,8229714,2019-11-06 18:23:30:176,-2.4268,-1.7447,10.2253,-0.0185,-0.0472,9.8065,0.0151,0.5639,-0.3248,-25.37,-36.62,20.5,293.52,-88.85,164.69
52.55594,-1.473659,149.35,19.4,6,116.31,22 / 22,8229814,2019-11-06 18:23:30:276,-5.399,-4.0246,10.3618,0.053,0.0228,9.8064,-0.1346,-0.1448,0.1011,-25.37,-36.5,20.69,298.3,-88.63,169.61
52.55594,-1.473659,149.35,19.4,6,116.31,22 / 23,8229916,2019-11-06 18:23:30:378,2.3921,-1.7407,10.5059,-0.0384,-0.0177,9.8066,-0.2179,0.7479,-0.3062,-25.44,-36.87,20.69,317.17,-88.77,-171.91
52.55594,-1.473659,149.35,19.4,6,116.31,22 / 23,8230013,2019-11-06 18:23:30:475,-1.184,3.2165,9.1998,0.0128,0.074,9.8063,-0.0991,0.3359,-0.1085,-24.94,-35.81,20.31,321.63,-88.77,-166.17
52.55594,-1.473659,149.35,19.4,6,116.31,22 / 23,8230113,2019-11-06 18:23:30:575,-3.1926,-4.4546,10.1041,0.0198,0.0215,9.8066,-0.0856,0.5207,-0.1983,-24.87,-36.75,19.94,308.68,-88.72,-178.82
52.55594,-1.473659,149.35,19.4,6,116.31,22 / 23,8230214,2019-11-06 18:23:30:676,-1.1729,2.8436,9.5688,0.0329,0.046,9.8065,0.0977,0.6717,-0.4457,-25.62,-37.5,20.94,316.92,-88.62,-170.96
52.55594,-1.473659,149.35,19.4,6,116.31,22 / 23,8230314,2019-11-06 18:23:30:776,-4.1078,-4.8654,10.087,0.0665,0.0607,9.8062,0.0033,0.3499,-0.2253,-25.56,-37.25,21.25,308.55,-88.48,-179.05
52.55594,-1.473659,149.35,19.4,6,116.31,22 / 23,8230414,2019-11-06 18:23:30:876,3.3634,1.8126,9.0383,0.0394,0.0438,9.8064,-0.1206,0.7245,-0.3621,-25.12,-36.5,21.06,308.47,-88.45,179.78
52.55594,-1.473659,149.35,19.4,6,116.31,22 / 23,8230515,2019-11-06 18:23:30:977,-4.5502,-3.7574,9.1203,0.0207,0.0778,9.8062,-0.1266,-0.022,0.0742,-25.44,-36.5,21.5,306.95,-88.54,176.87
52.55594,-1.473659,149.35,19.4,6,116.31,22 / 23,8230613,2019-11-06 18:23:31:075,2.7434,3.0541,10.3179,-0.0103,0.0046,9.8066,0.024,0.5571,-0.34,-25.12,-36.5,21.13,304.81,-88.59,176.06
52.55594,-1.473659,149.35,19.4,6,116.31,22 / 23,8230713,2019-11-06 18:23:31:175,-0.0633,1.0314,9.3733,0.0727,0.0787,9.806,-0.0147,-0.3784,0.2234,-24.81,-37.44,21.38,286.49,-88.58,158.01
52.55594,-1.473659,149.35,19.4,6,116.31,22 / 23,8230814,2019-11-06 18:23:31:276,3.265,4.8651,10.2887,-0.0144,-0.0363,9.8065,0.0286,0.4452,-0.2512,-25.25,-37.12,21.06,285.07,-88.71,156.46
52.55594,-1.473659,149.35,19.4,6,116.31,21 / 22,8230914,2019-11-06 18:23:31:376,-2.081,-2.0404,11.029,0.0429,0.0645,9.8063,0.1596,-0.6665,0.2195,-24.87,-37.06,20.88,276.77,-88.66,148.25
52.55594,-1.473659,149.35,19.4,6,116.31,21 / 22,8231014,2019-11-06 18:23:31:476,-2.6685,-3.8737,10.5834,-0.0061,-0.0611,9.8064,-0.0724,0.1427,-0.025,-24.75,-37,21.25,279.63,-88.47,151.31
52.55594,-1.473659,149.35,19.4,6,116.31,21 / 22,8231114,2019-11-06 18:23:31:576,2.1201,3.5294,10.2253,-0.02,0.0162,9.8066,-0.0083,-0.6162,0.2963,-24.81,-36.81,21.38,283.44,-88.34,155.25
52.55594,-1.473659,149.35,19.4,6,116.31,21 / 22,8231213,2019-11-06 18:23:31:675,0.9168,2.881,9.3825,-0.0376,-0.063,9.8063,-0.0354,-0.15,0.1137,-24.87,-36.81,21.06,279.13,-88.37,150.93
52.55594,-1.473659,149.35,19.4,6,116.31,21 / 22,8231314,2019-11-06 18:23:31:776,0.5414,1.6178,9.2846,-0.0099,-0.0279,9.8065,0.0342,-0.4142,0.2594,-25.06,-36.62,21.31,295.92,-88.45,167.47
52.55594,-1.473659,149.35,19.4,6,116.31,21 / 22,8231414,2019-11-06 18:23:31:876,-3.2001,-2.7704,10.1675,-0.0365,-0.0493,9.8064,0.0197,-0.1827,0.1036,-24.87,-36.31,21.19,309.45,-88.51,-179.3
52.55594,-1.473659,149.35,19.4,6,116.31,21 / 22,8231514,2019-11-06 18:23:31:976,-1.0042,-1.3708,9.6459,-0.0023,-0.0192,9.8066,0.0402,-0.3784,0.2066,-24.75,-36.75,21.44,306.67,-88.56,177.95
52.55594,-1.473659,149.35,19.4,6,116.31,21 / 22,8231613,2019-11-06 18:23:32:075,-1.9335,-0.8599,10.4625,-0.0186,-0.0397,9.8065,0.0426,-0.2353,0.1184,-24.87,-36.5,21.69,304.64,-88.53,174.61
52.55594,-1.473659,149.35,19.4,6,116.31,21 / 22,8231714,2019-11-06 18:23:32:176,0.9747,2.4454,9.5524,-0.0003,-0.0239,9.8066,0.0289,-0.2704,0.1763,-25.69,-36.31,21.19,308.23,-88.47,-179.39
52.55594,-1.473659,149.35,19.4,6,116.31,21 / 22,8231813,2019-11-06 18:23:32:275,0.184,0.2243,9.6316,-0.0109,-0.0279,9.8065,0.0795,-0.1979,0.0829,-24.87,-36,21.13,307.11,-88.51,178.4
52.55594,-1.473659,149.35,19.4,6,116.31,21 / 21,8231914,2019-11-06 18:23:32:376,0.8852,1.8142,9.8233,-0.0094,-0.016,9.8066,0.0944,-0.2747,0.053,-24.69,-36.56,20.94,312.51,-88.54,-176.29
52.55594,-1.473659,149.35,19.4,6,116.31,21 / 21,8232014,2019-11-06 18:23:32:476,-1.0492,-0.1889,9.6369,-0.0167,-0.0225,9.8066,-0.036,-0.3374,0.219,-24.44,-36.75,21.25,315.73,-88.55,-174.28
52.55594,-1.473659,149.35,19.4,6,116.31,21 / 21,8232114,2019-11-06 18:23:32:576,3.1024,1.6671,9.7297,-0.0153,-0.0305,9.8065,-0.0263,-0.1819,0.0939,-24.56,-36.87,22.13,310.04,-88.48,-180
52.55594,-1.473659,149.35,19.4,6,116.31,21 / 21,8232213,2019-11-06 18:23:32:675,-1.0887,-2.0617,10.3597,-0.0069,-0.0161,9.8066,0.0695,-0.285,0.1647,-24.75,-36.56,21.31,301.98,-88.53,173.38
52.55594,-1.473659,149.35,19.4,6,116.31,21 / 21,8232313,2019-11-06 18:23:32:775,0.4012,2.2184,8.8463,-0.0048,-0.0257,9.8065,0.08,-0.0939,-0.0136,-25.12,-36.87,21.25,304.59,-88.52,175.95
52.55594,-1.473659,149.35,19.4,6,116.31,21 / 21,8232413,2019-11-06 18:23:32:875,-2.616,-1.564,9.1187,0.0157,-0.006,9.8066,0.0764,-0.3584,0.1637,-25.5,-36.5,21,305.64,-88.68,176.8
52.55594,-1.473659,149.35,19.4,6,116.31,21 / 21,8232513,2019-11-06 18:23:32:975,3.3798,3.3907,9.8311,-0.0407,-0.0437,9.8064,0.0318,0.2199,-0.1004,-25.06,-36.19,21.06,311.83,-88.66,-177.09
52.55594,-1.473659,149.35,19.4,6,116.31,21 / 21,8232613,2019-11-06 18:23:33:075,-2.3693,-1.0895,9.7424,0.0116,0.0358,9.8065,-0.0197,-0.2945,0.1368,-24,-35.44,21.44,299.46,-88.59,169.63
52.55594,-1.473659,149.35,19.4,6,116.31,21 / 21,8232713,2019-11-06 18:23:33:175,-1.127,-1.6761,10.0847,-0.0133,-0.0281,9.8065,-0.12,0.529,-0.2111,-25.19,-37.19,20.94,301.6,-88.55,172.98
52.55594,-1.473659,149.35,19.4,6,116.31,21 / 21,8232814,2019-11-06 18:23:33:276,-1.5391,-2.5038,10.3938,0.0278,0.0647,9.8064,0.0491,0.045,-0.0941,-24.56,-37.06,20.81,299.85,-88.56,171.24
52.555264,-1.471368,150.29,18.83,4,117.65,23 / 23,8232916,2019-11-06 18:23:33:378,-2.5756,-1.8137,9.6703,0.0138,0.0003,9.8066,-0.04,-0.1077,0.0537,-24.5,-37.06,21.44,289.15,-88.54,159.57
52.555264,-1.471368,150.29,18.83,4,117.65,23 / 23,8233014,2019-11-06 18:23:33:476,2.3699,3.703,9.9678,0.0401,0.0465,9.8064,0.0596,-0.4218,0.2516,-24.25,-37.31,21.5,292.36,-88.55,161.38
52.555264,-1.471368,150.29,18.83,4,117.65,23 / 23,8233113,2019-11-06 18:23:33:575,-2.5131,-1.2183,10.733,0.0234,0.0077,9.8065,0.0242,-0.2858,0.1262,-24.62,-37,21.13,284.01,-88.29,155.86
52.555264,-1.471368,150.29,18.83,4,117.65,23 / 23,8233213,2019-11-06 18:23:33:675,0.2928,-0.6167,10.2447,0.0258,0.0477,9.8065,0.058,-0.433,0.2844,-24.37,-36.5,22,282.75,-88.15,152.25
52.555264,-1.471368,150.29,18.83,4,117.65,23 / 23,8233314,2019-11-06 18:23:33:776,-1.6944,-1.7192,9.7904,0.0079,0.0247,9.8065,-0.0431,-0.3282,0.2156,-24.5,-37.12,21.5,290.34,-88.29,159.66
52.555264,-1.471368,150.29,18.83,4,117.65,23 / 23,8233414,2019-11-06 18:23:33:876,3.1148,3.1209,9.6592,0.0467,0.0401,9.8064,0.0656,-0.3593,0.2014,-25.06,-36.94,21.25,294.89,-88.4,166.51
52.555264,-1.471368,150.29,18.83,4,117.65,23 / 23,8233514,2019-11-06 18:23:33:976,0.4603,-0.0443,9.822,0.028,0.0206,9.8065,0.1055,-0.3315,0.1228,-24.69,-36.75,21.63,289.08,-88.01,159.83
52.555264,-1.471368,150.29,18.83,4,117.65,23 / 23,8233614,2019-11-06 18:23:34:076,2.3336,2.0608,10.0266,0.0186,0.0193,9.8065,-0.0008,-0.2082,0.0764,-24.94,-36.69,21.5,286.63,-87.76,157.68
52.555264,-1.471368,150.29,18.83,4,117.65,23 / 23,8233714,2019-11-06 18:23:34:176,-2.0316,-1.1648,9.6141,0.0204,0.0295,9.8065,-0.0331,-0.3426,0.273,-24.87,-37,21.19,285.53,-87.84,157.87
52.555264,-1.471368,150.29,18.83,4,117.65,23 / 23,8233814,2019-11-06 18:23:34:276,0.8583,1.7711,9.5451,0.0067,0.0027,9.8066,-0.0413,-0.1379,0.0554,-24.69,-36.37,20.75,292.4,-88.08,164.34
52.555264,-1.471368,150.29,18.83,4,117.65,23 / 23,8233915,2019-11-06 18:23:34:377,-3.2226,-1.7055,10.289,0.0233,0.0325,9.8066,0.0909,-0.3272,0.2168,-24.75,-37.19,21.5,294.98,-88.09,165.57
52.555264,-1.471368,150.29,18.83,4,117.65,23 / 23,8234013,2019-11-06 18:23:34:475,-0.2157,0.705,10.1538,0.0046,0.0048,9.8066,-0.043,0.0439,-0.0558,-24.37,-36.62,20.56,298.14,-88.06,168.96
52.555264,-1.471368,150.29,18.83,4,117.65,23 / 23,8234114,2019-11-06 18:23:34:576,2.4536,0.1027,9.2621,-0.0219,-0.0067,9.8065,-0.0149,-0.2902,0.1526,-24.56,-36.62,21,298.9,-88.14,170.73
52.555264,-1.471368,150.29,18.83,4,117.65,23 / 23,8234214,2019-11-06 18:23:34:676,-1.5473,2.4448,10.2701,0.0224,-0.0138,9.8066,0.0402,0.1362,-0.0825,-23.87,-35.94,25.13,295.87,-88.25,161.34
52.555264,-1.471368,150.29,18.83,4,117.65,23 / 23,8234314,2019-11-06 18:23:34:776,0.4967,-0.0336,9.4876,0.0205,0.0083,9.8066,0.052,-0.0168,0.0661,-23.75,-35.5,33.63,303.4,-87.85,160.15
52.555264,-1.471368,150.29,18.83,4,117.65,23 / 23,8234413,2019-11-06 18:23:34:875,0.3343,1.2764,10.2265,0.0031,0.0056,9.8066,0.0467,0.1474,-0.1522,-44.75,-42.5,35.69,287.13,-87.78,160.04
52.555264,-1.471368,150.29,18.83,4,117.65,23 / 23,8234514,2019-11-06 18:23:34:976,-0.9916,-0.4405,9.3227,0.0154,0.0032,9.8065,0.0376,0.0614,0.0056,-30.44,-38.25,20.25,284.79,-87.86,163.29
52.555264,-1.471368,150.29,18.83,4,117.65,23 / 23,8234614,2019-11-06 18:23:35:076,0.7524,-0.4957,10.0812,0.0188,-0.0048,9.8066,-0.0026,0.1259,-0.1177,-26.94,-38,19.63,289.32,-88.04,164.9
52.555264,-1.471368,150.29,18.83,4,117.65,23 / 23,8234714,2019-11-06 18:23:35:176,-0.0318,-0.6257,10.0876,0.0028,0.0014,9.8066,0.0158,-0.0231,0.0376,-26.31,-37.37,19.81,291.06,-87.92,165.69
52.555264,-1.471368,150.29,18.83,4,117.65,23 / 23,8234815,2019-11-06 18:23:35:277,1.0682,0.1182,9.9897,-0.0077,-0.0139,9.8065,-0.0228,0.0807,-0.0002,-26.62,-38.25,19.31,287.77,-87.75,165.12
52.555264,-1.471368,150.29,18.83,4,117.65,22 / 23,8234914,2019-11-06 18:23:35:376,-0.8902,0.2846,9.9102,0.0061,0.0075,9.8066,-0.0262,-0.0236,-0.0324,-29.37,-37.94,19.44,287.52,-87.83,166.57
52.555264,-1.471368,150.29,18.83,4,117.65,22 / 23,8235014,2019-11-06 18:23:35:476,0.4171,0.0226,9.5137,-0.0032,0.0022,9.8066,0.0143,0.029,0.0212,-44.06,-41.81,34.5,296.19,-87.95,169.08
52.555264,-1.471368,150.29,18.83,4,117.65,22 / 23,8235114,2019-11-06 18:23:35:576,0.0332,-0.0616,9.7376,-0.01,0.0091,9.8066,-0.0078,0.0598,-0.0661,-27.06,-35.94,45.38,318.91,-88.07,170.76
52.555264,-1.471368,150.29,18.83,4,117.65,22 / 23,8235213,2019-11-06 18:23:35:675,0.858,0.0357,9.6671,0.017,0.0046,9.8066,0.0353,0.0895,-0.0056,-24.69,-34.69,28,309.75,-88.02,172.95
52.555264,-1.471368,150.29,18.83,4,117.65,22 / 23,8235316,2019-11-06 18:23:35:778,0.0614,-0.3205,9.3018,0.011,0.0105,9.8066,-0.0518,0.0504,-0.0171,-24.37,-36.69,22.13,298.57,-87.86,168.21
52.555264,-1.471368,150.29,18.83,4,117.65,22 / 23,8235415,2019-11-06 18:23:35:877,0.7302,0.8719,9.3847,-0.0159,0.0205,9.8066,-0.09,0.1448,-0.0626,-25,-36.75,21.13,295.61,-87.88,167.77
52.555264,-1.471368,150.29,18.83,4,117.65,22 / 23,8235513,2019-11-06 18:23:35:975,-0.4011,0.7748,9.8093,0.0026,0.0099,9.8066,0.0165,-0.0617,0.081,-24.94,-36.19,20.56,294.36,-88,166.35
52.555264,-1.471368,150.29,18.83,4,117.65,22 / 23,8235616,2019-11-06 18:23:36:078,-0.0101,0.2038,9.8136,0.0065,0,9.8066,-0.0189,0.0705,-0.104,-25.19,-36.44,20.88,294.26,-87.98,166.28
52.555264,-1.471368,150.29,18.83,4,117.65,22 / 23,8235714,2019-11-06 18:23:36:176,-0.6987,0.2245,9.8643,0.0007,0.0034,9.8066,0.0502,-0.0012,0.0492,-25.06,-36.44,20.88,296.83,-87.98,168.8
52.555264,-1.471368,150.29,18.83,4,117.65,22 / 23,8235814,2019-11-06 18:23:36:276,-0.1032,0.044,9.8035,-0.0117,-0.0008,9.8065,-0.0242,-0.0149,-0.0244,-24.94,-35.94,20.94,298.14,-87.96,170.11
52.555264,-1.471368,150.29,18.83,4,117.65,21 / 21,8235914,2019-11-06 18:23:36:376,-0.5418,0.3388,9.709,0.0024,0.0033,9.8066,-0.0017,-0.0436,0.0421,-24.81,-36.81,20.38,299,-88.01,172.37
52.555264,-1.471368,150.29,18.83,4,117.65,21 / 21,8236014,2019-11-06 18:23:36:476,-0.741,-0.1931,9.7593,-0.0018,0.0043,9.8066,-0.0054,-0.0485,0.0344,-25.19,-36.44,21.31,301.47,-88.1,173.25
52.555264,-1.471368,150.29,18.83,4,117.65,21 / 21,8236114,2019-11-06 18:23:36:576,-1.2223,-0.3533,9.3183,0.0109,-0.0003,9.8066,-0.0781,-0.096,0.061,-24.94,-37,21.69,303.62,-88.06,174.08
52.555264,-1.471368,150.29,18.83,4,117.65,21 / 21,8236214,2019-11-06 18:23:36:676,1.7016,-1.1114,9.9809,-0.0107,0.0028,9.8066,0.0158,0.0219,0.0119,-24.94,-36.94,21.31,302.83,-88.11,174.61
52.555264,-1.471368,150.29,18.83,4,117.65,21 / 21,8236313,2019-11-06 18:23:36:775,-0.2009,-0.1782,9.8973,0.0089,-0.0003,9.8066,0.0438,-0.1277,-0.0237,-24.94,-36.25,21.25,302.53,-88.26,174.13
52.555264,-1.471368,150.29,18.83,4,117.65,21 / 21,8236413,2019-11-06 18:23:36:875,0.9036,0.7713,9.4978,0.0083,-0.0054,9.8066,0.0366,0.024,0.0353,-24.81,-36.81,21.38,298.7,-88.04,170.64
52.555264,-1.471368,150.29,18.83,4,117.65,21 / 21,8236514,2019-11-06 18:23:36:976,-0.2219,-0.3209,10.277,0.0203,-0.001,9.8066,0.0283,-0.1802,0.0805,-25.25,-36.06,21.13,298.31,-87.88,170.36
52.555264,-1.471368,150.29,18.83,4,117.65,21 / 21,8236613,2019-11-06 18:23:37:075,-1.5194,-0.6629,10.1771,0.0012,-0.0222,9.8066,-0.0149,-0.024,-0.0201,-24.81,-36.12,21.5,303.73,-87.79,174.39
52.555264,-1.471368,150.29,18.83,4,117.65,21 / 21,8236714,2019-11-06 18:23:37:176,-1.5242,-0.6218,10.5194,-0.0085,0.0106,9.8066,0.0463,-0.1067,0.1057,-25.19,-36.56,21.88,303.79,-87.86,174.44
52.555264,-1.471368,150.29,18.83,4,117.65,21 / 21,8236814,2019-11-06 18:23:37:276,-0.536,0.5953,10.0357,-0.0067,-0.0223,9.8066,-0.0066,0.0323,-0.0787,-24.87,-36.5,21.56,308.46,-87.94,178.88
52.555264,-1.471368,150.29,18.83,4,117.65,21 / 22,8236916,2019-11-06 18:23:37:378,-0.7147,0.2333,10.1241,0.0141,0.0086,9.8066,0.0589,-0.1493,0.0554,-24.44,-36.69,22,307.3,-87.75,176.84
52.555264,-1.471368,150.29,18.83,4,117.65,21 / 22,8237014,2019-11-06 18:23:37:476,-0.451,0.1405,9.2438,0.0023,-0.0091,9.8066,-0.0666,-0.0046,0.063,-25.25,-36.94,21.69,305.66,-87.69,176.42
52.555264,-1.471368,150.29,18.83,4,117.65,21 / 22,8237114,2019-11-06 18:23:37:576,1.6131,1.2598,10.2851,0.0254,0.0129,9.8066,-0.069,-0.216,0.1245,-25.37,-36.75,22.13,309.6,-87.85,-179.89
52.555264,-1.471368,150.29,18.83,4,117.65,21 / 22,8237213,2019-11-06 18:23:37:675,0.7555,0.0302,9.7344,-0.0158,0.0087,9.8066,0.0898,0.0016,-0.0239,-25,-36.31,22.06,309.77,-87.95,-179.85
52.555264,-1.471368,150.29,18.83,4,117.65,21 / 22,8237314,2019-11-06 18:23:37:776,1.4643,1.2206,8.7143,-0.0347,0.012,9.8065,0.0506,-0.0106,-0.108,-24.75,-36.75,21.06,306.65,-87.9,178.55
