GPS LATITUDE (degrees), GPS LONGITUDE (degrees), GPS ALTITUDE (m), GPS SPEED (Kmh), GPS ACCURACY (m), GPS ORIENTATION (Â°),GPS SATELLITES IN RANGE, TIME SINCE START (ms), DATE (YYYY-MO-DD HH-MI-SS_SSS), ACCELEROMETER X (m/s²) , ACCELEROMETER Y (m/s²), ACCELEROMETER Z (m/s²), GRAVITY X (m/s²), GRAVITY Y (m/s²), GRAVITY Z (m/s²), GYROSCOPE Yaw (rad/s), GYROSCOPE Pitch (rad/s), GYROSCOPE Roll (rad/s), MAGNETIC FIELD X (Î¼T), MAGNETIC FIELD Y (Î¼T), MAGNETIC FIELD Z (Î¼T), ORIENTATION (Yaw) (Â°), ORIENTATION (Pitch) (Â°), ORIENTATION (Roll ) (Â°)
53.043278,-1.809921,312.69,14.83,3,240.48,19 / 19,3303496,2019-11-06 12:40:57:377,-2.9346,1.7077,10.7054,0.0894,-0.091,9.8057,-0.0679,0.5829,-0.2636,15.06,-41.94,12.94,314.89,-87.16,90.11
53.043278,-1.809921,312.69,14.83,3,240.48,19 / 19,3303597,2019-11-06 12:40:57:478,1.1261,-1.0037,9.7879,0.015,-0.0432,9.8065,0.0806,0.3032,-0.125,14.94,-41.25,14,325.5,-87.52,101.37
53.043278,-1.809921,312.69,14.83,3,240.48,19 / 19,3303696,2019-11-06 12:40:57:577,-0.9103,1.8118,10.1259,0.007,-0.0165,9.8066,0.0605,0.3228,-0.1485,15.63,-41.62,13.88,331.43,-87.4,105.09
53.043278,-1.809921,312.69,14.83,3,240.48,19 / 19,3303797,2019-11-06 12:40:57:678,1.2022,-0.4722,9.2869,0.0272,0.0019,9.8066,-0.0371,-0.4064,0.2821,15.44,-41.62,13.75,331.29,-87.4,106.91
53.043278,-1.809921,312.69,14.83,3,240.48,19 / 19,3303896,2019-11-06 12:40:57:777,0.2553,-0.0662,8.9099,-0.0472,0.0627,9.8063,-0.0264,0.0231,-0.0923,14.75,-42.25,13.38,321.62,-87.72,95.56
53.043278,-1.809921,312.69,14.83,3,240.48,19 / 19,3303996,2019-11-06 12:40:57:877,-1.3471,2.758,9.7219,-0.0237,0.0236,9.8066,-0.0526,0.3007,0.0823,14.44,-42.06,13.38,315.29,-88.16,91.04
53.043278,-1.809921,312.69,14.83,3,240.48,19 / 19,3304096,2019-11-06 12:40:57:977,-1.5816,4.2047,9.7275,0.0086,-0.0456,9.8065,0.0327,-0.1341,0.2721,14.19,-41.87,13.13,326.44,-88.11,101.63
53.043278,-1.809921,312.69,14.83,3,240.48,19 / 19,3304196,2019-11-06 12:40:58:077,-1.3746,3.234,10.5261,-0.0231,0.0154,9.8066,0.0827,0.2233,-0.2246,14,-42.12,13.38,342.01,-88.21,116.11
53.043278,-1.809921,312.69,14.83,3,240.48,19 / 19,3304296,2019-11-06 12:40:58:177,1.1233,-0.6264,9.5353,0.0309,-0.013,9.8066,0.0449,0.0749,0.0912,14.25,-42.56,13.94,334.74,-88.22,111.4
53.043278,-1.809921,312.69,14.83,3,240.48,19 / 19,3304396,2019-11-06 12:40:58:277,0.8484,0.7286,10.0907,0.0325,-0.0256,9.8066,0.0133,-0.0834,-0.1598,14,-42.12,13.56,332.69,-88.23,109.42
53.043278,-1.809921,312.69,14.83,3,240.48,18 / 19,3304496,2019-11-06 12:40:58:377,0.302,1.3976,9.0886,-0.0094,0.012,9.8066,0.1123,0.002,-0.0418,15.13,-42.19,14.56,332.47,-88.39,108.96
53.043278,-1.809921,312.69,14.83,3,240.48,18 / 19,3304596,2019-11-06 12:40:58:477,0.7526,0.0668,10.8163,-0.0311,-0.0181,9.8066,0.0538,-0.083,0.0839,14.31,-42.37,13.75,324.12,-88.59,100.89
53.043278,-1.809921,312.69,14.83,3,240.48,18 / 19,3304696,2019-11-06 12:40:58:577,-1.6408,1.6638,9.9434,-0.0163,0.0058,9.8065,-0.0556,0.1625,0.0944,13.88,-42.44,14.38,340.17,-88.8,116.04
53.043278,-1.809921,312.69,14.83,3,240.48,18 / 19,3304796,2019-11-06 12:40:58:677,-0.538,-0.3563,11.0505,-0.008,-0.0257,9.8065,0.1622,-0.0307,-0.171,13.75,-41.94,13.5,350.63,-88.96,125.98
53.043278,-1.809921,312.69,14.83,3,240.48,18 / 19,3304896,2019-11-06 12:40:58:777,-1.6319,1.6318,8.4323,-0.0218,-0.032,9.8065,0.1498,0.1121,-0.22,14.13,-42.06,14.44,348.01,-89.2,123.37
53.043278,-1.809921,312.69,14.83,3,240.48,18 / 19,3304996,2019-11-06 12:40:58:877,-1.2831,0.2539,9.0666,0.0088,-0.01,9.8066,-0.0971,-0.0296,0.1596,13.44,-42.37,13.56,350.75,-89.26,128.13
53.043278,-1.809921,312.69,14.83,3,240.48,18 / 19,3305097,2019-11-06 12:40:58:978,-0.645,-0.1842,10.4917,0.0185,0.0463,9.8065,0.0152,0.0164,0.0296,13.75,-42.44,13.44,337.64,-89.38,111.05
53.043278,-1.809921,312.69,14.83,3,240.48,18 / 19,3305196,2019-11-06 12:40:59:077,-0.3753,-0.4104,10.3639,-0.0083,-0.0065,9.8066,0.0322,-0.0975,0.0683,13.5,-42.5,14.19,357.47,-89.38,132.52
53.043278,-1.809921,312.69,14.83,3,240.48,18 / 19,3305297,2019-11-06 12:40:59:178,-1.1814,-0.1566,10.5128,-0.0052,-0.0077,9.8066,0.0248,0.0524,-0.0023,14.19,-41.94,14.19,6.55,-89.17,141.35
53.043278,-1.809921,312.69,14.83,3,240.48,18 / 19,3305397,2019-11-06 12:40:59:278,-0.5541,-4.2157,9.4298,0.0284,-0.0419,9.8065,0.105,-0.144,-0.094,13.19,-42.12,14.81,9.85,-89.04,148.59
53.043278,-1.809921,312.69,14.83,3,240.48,17 / 20,3305496,2019-11-06 12:40:59:377,-2.8731,1.7592,9.815,0.0025,0.009,9.8066,0.0062,0.1381,-0.1707,13.69,-42.31,14.25,10.38,-89.07,145.02
53.043278,-1.809921,312.69,14.83,3,240.48,17 / 20,3305597,2019-11-06 12:40:59:478,-1.4437,1.9375,10.0343,-0.0388,0.0091,9.8065,-0.0601,-0.0873,0.148,13.88,-42.44,14.44,354.95,-89.12,130.12
53.043278,-1.809921,312.69,14.83,3,240.48,17 / 20,3305696,2019-11-06 12:40:59:577,-0.761,1.2101,12.3793,-0.0409,0.0053,9.8066,-0.0029,-0.0581,0.0447,14.44,-42.37,14.81,2.52,-88.99,139.4
53.043278,-1.809921,312.69,14.83,3,240.48,17 / 20,3305796,2019-11-06 12:40:59:677,-2.9414,0.8739,10.0718,-0.0232,-0.0143,9.8065,0.1313,0.0678,-0.088,14.56,-42.25,14.81,13.24,-88.43,147.53
53.043278,-1.809921,312.69,14.83,3,240.48,17 / 20,3305896,2019-11-06 12:40:59:777,-0.2185,0.9407,9.8749,-0.0145,-0.0641,9.8063,0.1232,-0.1604,0.0957,14.31,-41.75,15.69,11.33,-87.69,149.24
53.043278,-1.809921,312.69,14.83,3,240.48,17 / 20,3305996,2019-11-06 12:40:59:877,-1.8771,-0.2673,10.1398,0.0026,-0.0059,9.8066,-0.0466,0.0512,-0.1248,14.19,-41.5,15.81,3.03,-87.55,141.59
53.043278,-1.809921,312.69,14.83,3,240.48,17 / 20,3306096,2019-11-06 12:40:59:977,-1.2563,-3.0665,9.8966,0.0299,0.0089,9.8065,-0.0939,-0.2307,0.0989,14.88,-42.06,14.94,359.37,-87.54,134.42
53.043278,-1.809921,312.69,14.83,3,240.48,17 / 20,3306196,2019-11-06 12:41:00:077,-2.4399,-1.1368,10.164,-0.0075,0.0237,9.8066,0.0186,-0.1021,0.0426,14.81,-41.44,15.56,352.01,-87.36,129.55
53.043278,-1.809921,312.69,14.83,3,240.48,17 / 20,3306296,2019-11-06 12:41:00:177,-0.8169,0.0855,10.1547,-0.0288,-0.018,9.8065,-0.0262,0.0578,-0.0699,14.19,-41.69,15.5,346.93,-87.37,126.93
53.043278,-1.809921,312.69,14.83,3,240.48,17 / 20,3306396,2019-11-06 12:41:00:277,-0.0446,-2.7387,9.3113,0.0117,-0.0083,9.8066,0.0206,0.0577,0.0153,14.75,-42.19,15.38,354.45,-87.29,129.98
53.043278,-1.809921,312.69,14.83,3,240.48,18 / 20,3306497,2019-11-06 12:41:00:378,-1.1681,0.263,9.1032,0.0032,-0.0005,9.8066,-0.0509,0.0954,-0.0023,14.69,-41.69,15.56,353.04,-87.31,130.52
53.043278,-1.809921,312.69,14.83,3,240.48,18 / 20,3306596,2019-11-06 12:41:00:477,-1.2914,-1.3713,9.9855,0.0028,-0.0134,9.8066,0.0331,-0.0943,-0.0321,15.25,-41.44,15.19,354.12,-87.5,129.62
53.043278,-1.809921,312.69,14.83,3,240.48,18 / 20,3306696,2019-11-06 12:41:00:577,-1.4128,1.1705,8.5511,-0.0011,0.0362,9.8065,-0.0017,-0.0305,-0.0783,14.94,-42,14.75,351.13,-87.81,126.8
53.043278,-1.809921,312.69,14.83,3,240.48,18 / 20,3306796,2019-11-06 12:41:00:677,-0.7572,0.2015,9.6491,0.0028,0.0343,9.8065,-0.0953,0.0083,0.1707,14.56,-41.75,15.13,347.07,-87.83,123.05
53.043278,-1.809921,312.69,14.83,3,240.48,18 / 20,3306897,2019-11-06 12:41:00:778,-1.1196,-0.1391,10.0926,0.0176,-0.0182,9.8065,-0.0432,0.0086,0.0114,15.13,-42,15.19,344.37,-87.85,120.53
53.043278,-1.809921,312.69,14.83,3,240.48,18 / 20,3306997,2019-11-06 12:41:00:878,-1.0447,0.4291,10.6368,0.0104,-0.0451,9.8065,0.123,0.027,-0.1617,14.5,-41.87,15.44,343.41,-87.9,119.61
53.043278,-1.809921,312.69,14.83,3,240.48,18 / 20,3307097,2019-11-06 12:41:00:978,0.2586,0.2618,10.8316,-0.0002,-0.0157,9.8066,0.1227,0.1441,-0.0889,15.19,-42.44,14.81,343.28,-87.53,119.69
53.043278,-1.809921,312.69,14.83,3,240.48,18 / 20,3307197,2019-11-06 12:41:01:078,-0.1006,-2.1456,9.027,0.0202,-0.0329,9.8065,-0.0455,0.104,-0.1011,15.31,-42,15.06,348.4,-87.29,124.49
53.043278,-1.809921,312.69,14.83,3,240.48,18 / 20,3307297,2019-11-06 12:41:01:178,0.2543,0.7043,11.2329,-0.0138,-0.0313,9.8066,0.0265,0.0727,0.0047,14.94,-42.19,15.13,354.3,-86.73,129.95
53.043278,-1.809921,312.69,14.83,3,240.48,18 / 20,3307397,2019-11-06 12:41:01:278,0.2348,-1.3862,10.9383,-0.0165,-0.0222,9.8066,0.1348,0.1606,-0.0697,14.75,-41.62,15.38,359.98,-86.42,134.99
53.043278,-1.809921,312.69,14.83,3,240.48,17 / 21,3307496,2019-11-06 12:41:01:377,-0.2466,1.0692,9.4949,0.0042,-0.0326,9.8066,0.1073,-0.0283,-0.1272,14.56,-42.12,16.06,1.85,-86.42,138.48
53.043278,-1.809921,312.69,14.83,3,240.48,17 / 21,3307596,2019-11-06 12:41:01:477,-0.2187,-0.7417,10.7131,-0.0088,-0.0168,9.8066,0.0144,-0.1336,0.1629,15.5,-41.37,15.88,5.26,-86.26,139.63
53.043278,-1.809921,312.69,14.83,3,240.48,17 / 21,3307696,2019-11-06 12:41:01:577,-1.377,-1.5685,10.9694,-0.0106,0.0262,9.8066,-0.0675,-0.1041,0.2215,15,-41.44,15.81,3.47,-86.07,139.87
53.043278,-1.809921,312.69,14.83,3,240.48,17 / 21,3307796,2019-11-06 12:41:01:677,-0.7934,-0.0319,9.1522,0.0101,0.017,9.8066,0.002,-0.086,-0.1637,14.94,-41.25,16.19,1.22,-85.7,137.89
53.043278,-1.809921,312.69,14.83,3,240.48,17 / 21,3307896,2019-11-06 12:41:01:777,-1.9541,-2.1002,9.1249,0.0368,-0.0161,9.8066,-0.0644,-0.1134,-0.0763,15.81,-41.12,16.13,2.1,-85.91,136.82
53.043278,-1.809921,312.69,14.83,3,240.48,17 / 21,3307996,2019-11-06 12:41:01:877,-1.6876,0.5094,9.1112,0.0116,0.0112,9.8066,-0.0269,-0.1053,0.0779,15.25,-41.5,15.44,350.69,-86.26,126.88
53.043278,-1.809921,312.69,14.83,3,240.48,17 / 21,3308096,2019-11-06 12:41:01:977,0.2259,0.4202,9.2629,0.0291,0.0304,9.8065,-0.0095,0.0282,-0.0324,15.44,-41.75,14.81,339.53,-86.51,116.98
53.043278,-1.809921,312.69,14.83,3,240.48,17 / 21,3308197,2019-11-06 12:41:02:078,-0.7118,-0.0755,9.7778,0.0153,-0.0107,9.8066,-0.0023,-0.0816,0.0214,15.38,-41.87,15.31,337.41,-86.66,114.98
53.043278,-1.809921,312.69,14.83,3,240.48,17 / 21,3308296,2019-11-06 12:41:02:177,-0.094,-1.7736,10.5811,-0.0253,0.0235,9.8065,-0.0868,0.2271,-0.0675,15.5,-41.5,15.69,335.57,-86.62,113.14
53.043278,-1.809921,312.69,14.83,3,240.48,17 / 21,3308396,2019-11-06 12:41:02:277,3.2082,-1.2732,10.3206,0.027,-0.0189,9.8066,0.0421,0.1269,-0.115,15.63,-41.5,15.5,337.03,-86.45,114.58
53.043278,-1.809921,312.69,14.83,3,240.48,17 / 18,3308496,2019-11-06 12:41:02:377,2.1664,0.4408,8.8558,0.0107,-0.0205,9.8066,0.0776,-0.0184,0.0304,15,-41.94,15.69,334.35,-86.62,114.04
53.043278,-1.809921,312.69,14.83,3,240.48,17 / 18,3308596,2019-11-06 12:41:02:477,4.1959,1.6146,8.6011,-0.016,0.0224,9.8065,-0.1649,0.3213,-0.0742,14.25,-41.87,15.13,330.27,-86.88,110.45
53.043278,-1.809921,312.69,14.83,3,240.48,17 / 18,3308697,2019-11-06 12:41:02:578,0.7012,3.0028,10.8126,0.0354,0.0131,9.8065,-0.1193,0.1357,0.0378,15,-42.31,15.19,330.18,-87.24,107.93
53.043278,-1.809921,312.69,14.83,3,240.48,17 / 18,3308797,2019-11-06 12:41:02:678,1.775,3.7572,9.3636,-0.0006,0.0133,9.8066,-0.0303,0.4551,-0.1091,14.75,-42.44,15.44,334.55,-87.49,111.71
53.043278,-1.809921,312.69,14.83,3,240.48,17 / 18,3308896,2019-11-06 12:41:02:777,-0.672,4.5015,10.0682,0.0459,-0.0334,9.8065,0.0231,-0.0961,0.0745,13.88,-42.5,14.69,332.3,-87.58,111.59
53.043278,-1.809921,312.69,14.83,3,240.48,17 / 18,3308996,2019-11-06 12:41:02:877,1.2616,1.1825,10.0544,-0.0141,-0.0077,9.8066,0.0041,0.3061,-0.1796,14,-42.19,15.31,333.76,-87.77,112.77
53.043278,-1.809921,312.69,14.83,3,240.48,17 / 18,3309096,2019-11-06 12:41:02:977,3.8795,1.0154,9.4266,0.0179,-0.0399,9.8065,0.1034,-0.2594,0.1738,14.75,-42.37,15.75,342.43,-87.91,120.5
53.043278,-1.809921,312.69,14.83,3,240.48,17 / 18,3309196,2019-11-06 12:41:03:077,3.8812,0.7109,9.8298,-0.0171,0.0225,9.8065,-0.0401,0.2369,-0.144,14.25,-42.12,15.31,343.59,-87.69,121.91
53.043278,-1.809921,312.69,14.83,3,240.48,17 / 18,3309298,2019-11-06 12:41:03:179,3.7503,-0.3829,8.8528,-0.0011,-0.034,9.8065,0.1208,-0.637,0.3695,14.19,-41.94,15.06,346.89,-87.72,124.93
53.043278,-1.809921,312.69,14.83,3,240.48,17 / 18,3309396,2019-11-06 12:41:03:277,-1.5236,5.1022,9.7361,0.0787,-0.0367,9.8062,-0.0802,-0.2167,0.0583,14,-42.06,14.94,343.08,-87.79,121.38
53.043278,-1.809921,312.69,14.83,3,240.48,16 / 19,3309497,2019-11-06 12:41:03:378,3.6984,2.5824,9.7332,-0.0139,0.0495,9.8064,-0.0121,-0.4762,0.3051,14.06,-42.25,15.38,345.78,-88.37,123.58
53.043278,-1.809921,312.69,14.83,3,240.48,16 / 19,3309597,2019-11-06 12:41:03:478,-1.6314,5.5382,9.9518,-0.0604,0.0613,9.8062,0.0203,-0.2976,0.2109,14.13,-42.5,15,342.94,-88.38,120.9
53.043278,-1.809921,312.69,14.83,3,240.48,16 / 19,3309696,2019-11-06 12:41:03:577,3.7356,4.664,10.2737,-0.0283,0.0144,9.8065,0.0815,-0.3183,0.1117,13.5,-42.69,14.56,349.6,-88.59,127.11
53.043278,-1.809921,312.69,14.83,3,240.48,16 / 19,3309798,2019-11-06 12:41:03:679,-0.6031,5.5174,10.4609,-0.0252,0.003,9.8065,0.0789,-0.3742,0.2307,13.69,-42.31,15.19,359.28,-88.38,136.3
53.043278,-1.809921,312.69,14.83,3,240.48,16 / 19,3309897,2019-11-06 12:41:03:778,1.3229,1.565,10.1022,-0.0374,-0.0169,9.8065,-0.0103,0.0733,-0.085,14.81,-42.5,15.44,9.96,-87.92,144.24
53.043278,-1.809921,312.69,14.83,3,240.48,16 / 19,3309997,2019-11-06 12:41:03:878,3.1377,1.4537,9.3654,0.0324,-0.0222,9.8066,0.0346,-0.169,0.0056,14.38,-42.62,15.25,4.61,-87.64,141.18
53.043278,-1.809921,312.69,14.83,3,240.48,16 / 19,3310096,2019-11-06 12:41:03:977,0.5266,1.5263,10.112,-0.0185,-0.0116,9.8065,0.0694,0.2595,-0.2576,15.06,-42.12,15.19,359.38,-87.37,134.43
53.043278,-1.809921,312.69,14.83,3,240.48,16 / 19,3310196,2019-11-06 12:41:04:077,1.5128,-1.1452,8.7641,0.0392,-0.0543,9.8064,-0.0438,0.0344,-0.0583,15.56,-41.69,15.38,1.44,-87.23,134.46
53.043278,-1.809921,312.69,14.83,3,240.48,16 / 19,3310296,2019-11-06 12:41:04:177,-2.2299,2.2971,10.7637,-0.0115,-0.0202,9.8066,-0.0762,0.1876,-0.1195,14.81,-42.12,15.63,356.74,-86.79,133.94
53.043278,-1.809921,312.69,14.83,3,240.48,16 / 19,3310396,2019-11-06 12:41:04:277,-0.3379,-0.5972,9.864,0.0135,-0.025,9.8065,0.066,0.0102,-0.0917,15.44,-41.81,15.06,0.9,-86.68,135.79
53.043278,-1.809921,312.69,14.83,3,240.48,17 / 18,3310496,2019-11-06 12:41:04:377,-1.0111,4.287,9.2397,0.0216,0.0129,9.8065,0.0166,0.0019,-0.135,14.69,-42,15,357.93,-86.97,133.14
53.043278,-1.809921,312.69,14.83,3,240.48,17 / 18,3310597,2019-11-06 12:41:04:478,-1.2897,1.6799,10.8519,0.0189,-0.0033,9.8066,-0.1552,0.1183,-0.0344,15.88,-41.56,14.5,357.62,-87.33,130.99
53.043278,-1.809921,312.69,14.83,3,240.48,17 / 18,3310697,2019-11-06 12:41:04:578,0.7314,1.1814,9.9817,0.0053,0.0233,9.8066,-0.0766,-0.2043,0.1746,16.25,-40.87,13.56,355.99,-87.45,127.52
53.043278,-1.809921,312.69,14.83,3,240.48,17 / 18,3310796,2019-11-06 12:41:04:677,0.3686,3.5132,9.242,-0.0063,0.0502,9.8065,-0.0416,-0.0725,0.0639,16.13,-40.81,14.31,1.23,-87.7,132.32
53.043278,-1.809921,312.69,14.83,3,240.48,17 / 18,3310896,2019-11-06 12:41:04:777,-0.0913,-0.1246,11.098,-0.0047,-0.0555,9.8065,-0.0048,-0.1883,0.1479,15.81,-41.81,14.25,5.81,-88.01,136.59
53.043278,-1.809921,312.69,14.83,3,240.48,17 / 18,3310996,2019-11-06 12:41:04:877,0.8507,-1.1724,10.0381,-0.011,-0.0049,9.8066,0.1161,0.1534,-0.2151,15.88,-41.56,14.44,10.97,-87.77,141.31
53.043278,-1.809921,312.69,14.83,3,240.48,17 / 18,3311097,2019-11-06 12:41:04:978,-0.4553,-1.3039,9.068,0.0286,-0.0222,9.8065,0.0853,-0.6019,0.1674,15.56,-41.75,14.13,12.63,-87.85,142.87
53.043278,-1.809921,312.69,14.83,3,240.48,17 / 18,3311196,2019-11-06 12:41:05:077,-4.8997,4.9276,9.5302,-0.0112,0.0694,9.8063,-0.1482,-0.1526,0.1219,15.31,-41.94,12.63,6.56,-87.68,136.91
53.043278,-1.809921,312.69,14.83,3,240.48,17 / 18,3311296,2019-11-06 12:41:05:177,3.1463,0.3002,8.9411,0.0097,0.0011,9.8066,-0.0323,-0.5934,0.2597,15.81,-41.81,12.56,355.13,-87.76,124.61
53.043278,-1.809921,312.69,14.83,3,240.48,17 / 18,3311396,2019-11-06 12:41:05:277,-2.6528,1.5064,9.4528,-0.0072,0.0211,9.8066,0.0516,-0.5895,0.1208,16.06,-42.06,12.56,343.3,-87.51,113.86
53.043278,-1.809921,312.69,14.83,3,240.48,17 / 18,3311496,2019-11-06 12:41:05:377,-2.9198,0.3893,10.3733,-0.0233,0.0345,9.8066,-0.107,-0.0329,0.0886,16.94,-42,11.69,342.57,-87.4,109.37
53.043278,-1.809921,312.69,14.83,3,240.48,17 / 18,3311596,2019-11-06 12:41:05:477,-3.2731,0.0636,9.4975,-0.0022,0.0316,9.8066,-0.0923,-0.16,0.0859,16.44,-42.62,11.38,339.44,-87.49,105.92
53.043278,-1.809921,312.69,14.83,3,240.48,17 / 18,3311696,2019-11-06 12:41:05:577,1.4529,-0.2219,9.3848,-0.0025,0.0072,9.8066,0.0527,-0.358,0.1278,17.31,-42.19,11.63,334.66,-87.52,102.04
53.043278,-1.809921,312.69,14.83,3,240.48,17 / 18,3311796,2019-11-06 12:41:05:677,-2.7959,-1.1612,9.9259,-0.0257,0.0075,9.8066,0.0491,-0.3045,0.1243,16.19,-42.06,11.38,331.07,-87.44,98.28
53.043278,-1.809921,312.69,14.83,3,240.48,17 / 18,3311896,2019-11-06 12:41:05:777,-1.9522,-2.3341,9.9872,-0.0282,0.0266,9.8065,-0.0315,-0.1136,0.0085,16.88,-41.31,11.19,338.04,-87.53,102.83
53.043278,-1.809921,312.69,14.83,3,240.48,17 / 18,3311996,2019-11-06 12:41:05:877,-2.0885,-0.1134,9.6107,-0.002,0.0209,9.8066,0.0379,-0.1248,0.0973,16.69,-42.12,11,340.8,-87.4,105.5
53.043278,-1.809921,312.69,14.83,3,240.48,17 / 18,3312097,2019-11-06 12:41:05:978,-2.2326,-0.728,9.6966,0.0059,-0.0105,9.8065,-0.0013,-0.0446,-0.047,16.25,-42.44,10.81,337.95,-87.44,104.56
53.043278,-1.809921,312.69,14.83,3,240.48,17 / 18,3312197,2019-11-06 12:41:06:078,-2.4701,-1.2356,9.7867,-0.0004,-0.005,9.8066,-0.0575,-0.0742,0.1713,17.44,-42.25,10.94,336.33,-87.53,101.31
53.043278,-1.809921,312.69,14.83,3,240.48,17 / 18,3312296,2019-11-06 12:41:06:177,-2.9622,0.3407,9.4775,-0.0071,0.0556,9.8065,0.0146,0.1274,-0.1718,16.75,-42.12,11.38,335.05,-87.51,100.16
53.043278,-1.809921,312.69,14.83,3,240.48,17 / 18,3312396,2019-11-06 12:41:06:277,-3.3531,-0.2625,10.1243,-0.0043,0.0289,9.8066,-0.089,0.1399,-0.0388,17.31,-41.75,10.5,329.25,-87.82,94.5
53.04275,-1.811398,314.3,9.15,4,251.58,17 / 18,3312496,2019-11-06 12:41:06:377,-2.2901,0.484,10.205,-0.0083,-0.0011,9.8066,-0.0318,0.0217,0.0435,17.25,-42.31,10.44,327.31,-87.91,90.19
53.04275,-1.811398,314.3,9.15,4,251.58,17 / 18,3312596,2019-11-06 12:41:06:477,-0.8976,-2.5428,9.6546,0.0013,-0.0122,9.8066,0.0053,-0.213,0.1665,17.5,-42.44,11.06,326.57,-88.14,90.05
53.04275,-1.811398,314.3,9.15,4,251.58,17 / 18,3312697,2019-11-06 12:41:06:578,-2.3272,2.079,9.7848,-0.0122,0.0222,9.8066,0.0381,-0.0216,0.0308,16.88,-42.19,10.63,324.83,-88.29,89.78
53.04275,-1.811398,314.3,9.15,4,251.58,17 / 18,3312796,2019-11-06 12:41:06:677,-0.703,-0.7661,9.7908,-0.0094,0.0333,9.8065,-0.0486,0.1108,-0.061,17.06,-41.5,10.88,321.25,-88.39,86.21
53.04275,-1.811398,314.3,9.15,4,251.58,17 / 18,3312896,2019-11-06 12:41:06:777,-3.5134,1.2842,9.9794,0.0347,-0.0257,9.8065,0.0254,-0.3608,0.1788,16.88,-42.31,10.5,315.75,-88.46,80.9
53.04275,-1.811398,314.3,9.15,4,251.58,17 / 18,3312997,2019-11-06 12:41:06:878,-1.7432,0.5825,9.9156,0.0123,-0.0215,9.8065,-0.0123,-0.0416,0.0342,17.44,-42.25,10.81,311.2,-88.33,76.73
53.04275,-1.811398,314.3,9.15,4,251.58,17 / 18,3313097,2019-11-06 12:41:06:978,-2.5034,3.0161,9.632,0.026,-0.0542,9.8064,-0.0494,-0.3645,0.2367,17.06,-42.25,10.44,314.51,-88.07,77.93
53.04275,-1.811398,314.3,9.15,4,251.58,17 / 18,3313196,2019-11-06 12:41:07:077,-1.9359,-3.9266,9.6575,0.0192,-0.0183,9.8066,-0.0494,-0.0311,0.1069,16.5,-42.25,10.44,312.38,-88.19,75.71
53.04275,-1.811398,314.3,9.15,4,251.58,17 / 18,3313296,2019-11-06 12:41:07:177,2.1164,-1.1472,9.5569,0.0449,-0.0293,9.8065,0.1126,-0.4184,0.0974,17.06,-42,10.63,308.96,-87.98,75.15
53.04275,-1.811398,314.3,9.15,4,251.58,17 / 18,3313397,2019-11-06 12:41:07:278,0.4399,0.1773,8.537,-0.0057,0.0493,9.8065,0.0486,0.2865,-0.2192,18.06,-42.12,9,318.13,-88.01,77.48
53.04275,-1.811398,314.3,9.15,4,251.58,19 / 19,3313497,2019-11-06 12:41:07:378,-1.2992,-2.8351,10.3714,0.0295,0.0016,9.8066,0.0349,-0.0219,0.0443,17.44,-42,9.88,314.4,-88.22,77.59
53.04275,-1.811398,314.3,9.15,4,251.58,19 / 19,3313597,2019-11-06 12:41:07:478,-4.1014,-1.3277,9.6905,-0.0015,0.02,9.8066,-0.0676,0.1201,-0.0091,17.44,-41.87,9.69,311.27,-88.24,74.57
53.04275,-1.811398,314.3,9.15,4,251.58,19 / 19,3313696,2019-11-06 12:41:07:577,-3.4541,-0.9172,9.8397,0.0116,0.0111,9.8066,-0.0272,-0.0985,0.0354,17.63,-41.69,9.75,303.67,-88.34,65.55
53.04275,-1.811398,314.3,9.15,4,251.58,19 / 19,3313796,2019-11-06 12:41:07:677,-0.7703,0.1963,10.0665,-0.0186,0.0108,9.8065,0.0451,0.0393,-0.0693,17.31,-42.12,10,299.36,-88.35,62.9
53.04275,-1.811398,314.3,9.15,4,251.58,19 / 19,3313896,2019-11-06 12:41:07:777,-1.5816,-1.7726,10.3181,-0.0033,-0.0265,9.8065,0.0531,-0.0887,0.0822,17.31,-42.5,10.06,307.14,-88.54,70.09
53.04275,-1.811398,314.3,9.15,4,251.58,19 / 19,3313996,2019-11-06 12:41:07:877,-1.973,-0.9629,9.1102,-0.0013,0.0028,9.8066,-0.0425,0.1031,0.0398,17.06,-42.06,9.81,308.28,-88.66,70.99
53.04275,-1.811398,314.3,9.15,4,251.58,19 / 19,3314096,2019-11-06 12:41:07:977,-3.0416,-2.8247,10.5308,-0.0031,0.0291,9.8065,0.1025,0.1245,-0.1164,17.75,-41.75,10.63,309.35,-88.68,72.81
53.04275,-1.811398,314.3,9.15,4,251.58,19 / 19,3314197,2019-11-06 12:41:08:078,-0.2951,-0.3169,9.753,-0.0203,0.0239,9.8065,0.0456,0.0222,-0.0391,17,-41.75,10.63,311.72,-88.79,76.5
53.04275,-1.811398,314.3,9.15,4,251.58,19 / 19,3314297,2019-11-06 12:41:08:178,-0.8508,-1.4009,10.5033,-0.0243,0.0187,9.8066,0.0781,0.0355,-0.1602,17.25,-42.37,9.69,324.93,-89.06,86.56
53.04275,-1.811398,314.3,9.15,4,251.58,19 / 19,3314397,2019-11-06 12:41:08:278,-0.1217,1.3495,10.2638,-0.0086,0.028,9.8066,0.0423,0.0189,0.0902,16.88,-42,10.63,331.48,-88.97,95.41
53.04275,-1.811398,314.3,9.15,4,251.58,18 / 20,3314497,2019-11-06 12:41:08:378,-2.4154,2.2765,10.7855,-0.0558,0.0137,9.8064,-0.0545,0.3333,-0.1576,17,-41.81,10.31,350.73,-89.36,111.41
53.04275,-1.811398,314.3,9.15,4,251.58,18 / 20,3314597,2019-11-06 12:41:08:478,-1.6715,-0.8284,9.3921,0.0091,0.0013,9.8066,0.1013,-0.4395,0.0383,16.88,-42.37,10.44,356.51,-89.28,117.06
53.04275,-1.811398,314.3,9.15,4,251.58,18 / 20,3314696,2019-11-06 12:41:08:577,-1.7877,1.9722,11.2888,0.0206,0.0021,9.8066,0.0975,-0.0663,0.1415,16.69,-42.44,11.13,4.79,-89.24,127.56
53.04275,-1.811398,314.3,9.15,4,251.58,18 / 20,3314796,2019-11-06 12:41:08:677,-0.2547,0.2122,8.7575,0.0289,-0.001,9.8066,-0.0045,-0.0334,-0.0164,15.81,-42.25,10.5,3.3,-89.42,127.74
53.04275,-1.811398,314.3,9.15,4,251.58,18 / 20,3314896,2019-11-06 12:41:08:777,-1.6911,1.5545,9.3373,0.0036,-0.012,9.8066,-0.1466,-0.1277,0.1538,17,-42.06,10,341.24,-89.48,102.06
53.04275,-1.811398,314.3,9.15,4,251.58,18 / 20,3314996,2019-11-06 12:41:08:877,-0.4428,-2.6003,9.3232,0.0309,-0.0285,9.8065,0.0122,0.0368,-0.0077,16.94,-42.56,10.63,288.45,-89.53,52.31
53.04275,-1.811398,314.3,9.15,4,251.58,18 / 20,3315096,2019-11-06 12:41:08:977,-1.4041,-2.3036,10.2975,0.0159,0.0041,9.8066,0.0311,-0.3388,0.143,16.94,-42.62,10.06,288.18,-89.36,49.97
53.04275,-1.811398,314.3,9.15,4,251.58,18 / 20,3315196,2019-11-06 12:41:09:077,2.0113,-3.0207,10.1935,-0.0174,0.0216,9.8066,0.073,0.2505,-0.2624,17.13,-42.75,10,283.8,-89.43,45.46
53.04275,-1.811398,314.3,9.15,4,251.58,18 / 20,3315298,2019-11-06 12:41:09:179,-1.2539,-1.5454,9.6416,0.0231,-0.0703,9.8063,0.0205,-0.2447,0.3366,16.69,-42.12,10.38,254.28,-89.76,15.24
53.04275,-1.811398,314.3,9.15,4,251.58,18 / 20,3315396,2019-11-06 12:41:09:277,-3.2236,1.5123,11.0066,-0.0474,0.0301,9.8064,-0.0721,0.4499,-0.2198,16.06,-42.31,11,351.39,-89.83,115.95
53.04275,-1.811398,314.3,9.15,4,251.58,18 / 18,3315496,2019-11-06 12:41:09:377,-1.4792,-3.1698,8.9281,0.0134,0.0175,9.8066,-0.1037,0.2066,-0.0677,16.44,-42.12,10.31,151.57,-89.9,-86.53
53.04275,-1.811398,314.3,9.15,4,251.58,18 / 18,3315596,2019-11-06 12:41:09:477,-1.9316,3.1561,9.9443,-0.0127,0.051,9.8065,-0.0821,0.5137,-0.2259,16.44,-42.12,10.19,223.1,-89.64,-14.35
53.04275,-1.811398,314.3,9.15,4,251.58,18 / 18,3315696,2019-11-06 12:41:09:577,0.1912,0.453,9.9887,-0.039,0.0301,9.8064,-0.0704,0.5245,-0.3111,16.19,-42.56,10.31,208.73,-89.44,-28.65
53.04275,-1.811398,314.3,9.15,4,251.58,18 / 18,3315796,2019-11-06 12:41:09:677,-2.7533,0.6755,9.8419,0.0151,0.0293,9.8066,-0.0005,0.036,-0.1023,16.19,-42.62,11.31,249.08,-89.41,14.82
53.04275,-1.811398,314.3,9.15,4,251.58,18 / 18,3315896,2019-11-06 12:41:09:777,0.2054,1.0954,9.7263,-0.0047,0.0321,9.8066,0.026,0.235,-0.1719,17.06,-42.06,10.25,254.84,-88.96,17.43
53.04275,-1.811398,314.3,9.15,4,251.58,18 / 18,3315996,2019-11-06 12:41:09:877,1.1793,-0.7804,10.359,0.0101,-0.0259,9.8066,-0.0988,0.0921,0.0385,16.44,-42.19,10.31,243.21,-88.67,7.84
53.04275,-1.811398,314.3,9.15,4,251.58,18 / 18,3316096,2019-11-06 12:41:09:977,-0.0803,0.6261,9.7869,0.0125,0.0005,9.8066,-0.0444,0.2617,-0.1691,16,-42.31,9.44,255.65,-88.74,17.81
53.04275,-1.811398,314.3,9.15,4,251.58,18 / 18,3316196,2019-11-06 12:41:10:077,-0.8944,-1.4996,9.6391,0.0178,-0.0105,9.8065,0.0139,0.2519,-0.085,16.88,-42.12,9.13,256.67,-88.73,17.27
53.04275,-1.811398,314.3,9.15,4,251.58,18 / 18,3316296,2019-11-06 12:41:10:177,0.5255,-1.874,9.2441,0.016,-0.0192,9.8065,0.0374,-0.1012,0.0908,16.5,-42.37,9.44,259.59,-88.52,20.67
53.04275,-1.811398,314.3,9.15,4,251.58,18 / 18,3316396,2019-11-06 12:41:10:277,-0.1425,-0.8086,10.1682,-0.0114,0.0228,9.8066,-0.0041,0.0759,-0.0116,16.19,-42.37,9.81,250.79,-88.5,15.95
53.04275,-1.811398,314.3,9.15,4,251.58,18 / 18,3316496,2019-11-06 12:41:10:377,0.5021,-3.1864,9.3796,-0.0184,-0.0043,9.8065,0.0707,-0.2687,0.2338,16.63,-42.19,9.69,246.76,-88.46,10.23
53.04275,-1.811398,314.3,9.15,4,251.58,18 / 18,3316596,2019-11-06 12:41:10:477,-1.0477,1.2811,10.1305,-0.046,0.0393,9.8064,0.0332,-0.2064,0.1346,16.25,-42.44,10,246.46,-88.72,11.07
53.04275,-1.811398,314.3,9.15,4,251.58,18 / 18,3316696,2019-11-06 12:41:10:577,0.1118,-3.4704,9.8394,-0.0432,0.0581,9.8064,-0.0545,-0.2432,0.2747,16.44,-42.94,9.25,222.87,-88.84,-15.93
53.04275,-1.811398,314.3,9.15,4,251.58,18 / 18,3316796,2019-11-06 12:41:10:677,-2.3282,2.2651,9.5075,-0.0141,0.052,9.8065,-0.0311,-0.3292,0.1753,16.19,-42,9.75,220.92,-88.75,-15.26
53.04275,-1.811398,314.3,9.15,4,251.58,18 / 18,3316896,2019-11-06 12:41:10:777,-3.7809,-2.2603,10.1368,-0.033,0.0568,9.8064,-0.1275,-0.1686,0.1204,16.25,-42.5,9.75,211.84,-88.37,-24.25
53.04275,-1.811398,314.3,9.15,4,251.58,18 / 18,3316996,2019-11-06 12:41:10:877,-2.5453,2.5514,10.6745,-0.0111,0.0576,9.8064,0.0752,-0.3696,0.2673,15.75,-42.81,9,224.37,-88.18,-13.31
53.04275,-1.811398,314.3,9.15,4,251.58,18 / 18,3317096,2019-11-06 12:41:10:977,-0.7778,-3.017,10.5952,-0.0145,0.0444,9.8065,0.0315,-0.0491,-0.0714,15.56,-41.94,9.13,227.64,-88.04,-9.71
53.04275,-1.811398,314.3,9.15,4,251.58,18 / 18,3317196,2019-11-06 12:41:11:077,1.0679,-1.507,9.2203,-0.0284,0.0083,9.8066,0.0354,-0.2732,0.3265,16.44,-42.56,9.75,223.73,-88.32,-11.62
53.04275,-1.811398,314.3,9.15,4,251.58,18 / 18,3317296,2019-11-06 12:41:11:177,2.3342,-2.1749,9.8015,-0.0463,0.0097,9.8065,0.1493,0.0601,-0.055,16,-42.31,9.44,230.71,-88.78,-7.77
53.04275,-1.811398,314.3,9.15,4,251.58,18 / 18,3317397,2019-11-06 12:41:11:278,1.0546,1.431,9.8667,0.0116,-0.0017,9.8066,-0.0321,-0.3368,0.1774,16.81,-42.19,9.56,240.3,-88.91,2.79
53.04275,-1.811398,314.3,9.15,4,251.58,18 / 18,3317496,2019-11-06 12:41:11:377,-1.3394,1.9648,9.2749,-0.0291,0.0401,9.8065,0.0199,0.2208,-0.108,16.31,-42,10.06,238.57,-88.79,2.87
53.04275,-1.811398,314.3,9.15,4,251.58,18 / 18,3317596,2019-11-06 12:41:11:477,-2.8829,-0.4469,9.3167,0.0193,-0.0048,9.8066,-0.0552,-0.1934,0.1643,16.25,-42.62,9.69,240.93,-88.73,5.47
53.04275,-1.811398,314.3,9.15,4,251.58,18 / 18,3317696,2019-11-06 12:41:11:577,-0.4747,1.6908,9.8594,-0.0087,0.0412,9.8065,-0.0471,0.2908,-0.1232,16.56,-42.37,9.25,246.83,-88.48,7.78
53.04275,-1.811398,314.3,9.15,4,251.58,18 / 18,3317800,2019-11-06 12:41:11:681,1.7529,-1.5613,9.9495,-0.0223,0.0574,9.8064,0.0371,0.0775,-0.0233,16.13,-42.5,9.81,225.83,-88.18,-9.27
53.04275,-1.811398,314.3,9.15,4,251.58,18 / 18,3317897,2019-11-06 12:41:11:778,-0.7698,1.9124,10.5603,0.0041,-0.0146,9.8066,-0.0014,0.3213,-0.135,15.31,-43.31,9.56,229.19,-88.22,-3.93
53.04275,-1.811398,314.3,9.15,4,251.58,18 / 18,3317996,2019-11-06 12:41:11:877,0.941,-2.014,9.6852,0.0209,-0.0324,9.8065,0.007,0.3404,-0.1949,16.06,-42.37,9.63,228.32,-88.3,-6.86
53.04275,-1.811398,314.3,9.15,4,251.58,18 / 18,3318096,2019-11-06 12:41:11:977,1.3844,0.0104,10.3279,0.0195,-0.0517,9.8065,0.0677,0.1266,-0.0402,15.69,-42.31,9.94,238.26,-88.5,3.09
53.04275,-1.811398,314.3,9.15,4,251.58,18 / 18,3318196,2019-11-06 12:41:12:077,3.0349,-2.6708,9.6669,-0.002,-0.0351,9.8065,0.0245,0.4244,-0.2901,15.81,-42.62,9.69,232.31,-88.73,-3.4
53.04275,-1.811398,314.3,9.15,4,251.58,18 / 18,3318296,2019-11-06 12:41:12:177,-0.303,0.9794,10.0607,0.0312,-0.047,9.8065,0.0671,-0.0919,0.0489,16.25,-42.5,9.75,222.65,-88.92,-13.72
53.04275,-1.811398,314.3,9.15,4,251.58,18 / 18,3318396,2019-11-06 12:41:12:277,-0.9031,4.2202,10.1945,-0.0018,-0.004,9.8066,-0.057,0.3434,-0.2038,16.63,-42.31,9.5,245.99,-89.02,8.36
53.04275,-1.811398,314.3,9.15,4,251.58,18 / 18,3318496,2019-11-06 12:41:12:377,0.8405,-3.1953,9.6105,0.0346,-0.0608,9.8064,0.0601,-0.4625,0.2428,16.75,-42.19,9.25,275.81,-88.96,35.97
53.04275,-1.811398,314.3,9.15,4,251.58,18 / 18,3318597,2019-11-06 12:41:12:478,0.8551,1.0182,9.7567,-0.0502,0.029,9.8064,0.0303,-0.0589,-0.0318,16.75,-42.37,9.44,291.6,-88.76,52.01
53.04275,-1.811398,314.3,9.15,4,251.58,18 / 18,3318697,2019-11-06 12:41:12:578,3.6117,-3.5818,9.189,-0.0083,-0.0106,9.8066,0.0951,-0.5509,0.301,16.44,-42.19,9.19,301.07,-88.9,62.59
53.04275,-1.811398,314.3,9.15,4,251.58,18 / 18,3318796,2019-11-06 12:41:12:677,-1.1487,1.9223,10.134,-0.0634,0.0604,9.8062,0.088,-0.4485,0.2492,16.63,-42.25,9.38,312.11,-88.7,72.13
53.04275,-1.811398,314.3,9.15,4,251.58,18 / 18,3318897,2019-11-06 12:41:12:778,2.6845,-4.1871,9.1784,-0.053,0.0553,9.8063,0.0064,-0.4847,0.319,16.25,-41.87,10,306.11,-88.79,70.3
53.04275,-1.811398,314.3,9.15,4,251.58,18 / 18,3318996,2019-11-06 12:41:12:877,-2.4043,4.8739,10.1463,-0.0494,0.0732,9.8062,0.0593,-0.6256,0.3887,16.31,-42.31,9.31,298.58,-88.98,59.99
53.04275,-1.811398,314.3,9.15,4,251.58,18 / 18,3319096,2019-11-06 12:41:12:977,2.9172,-1.2741,10.1551,-0.0576,0.0745,9.8062,-0.0482,-0.0867,0.0485,16.31,-41.87,9.94,262.36,-89.34,25.81
53.04275,-1.811398,314.3,9.15,4,251.58,18 / 18,3319196,2019-11-06 12:41:13:077,3.3317,-2.5681,9.5338,-0.0209,0.0139,9.8066,0.1065,-0.5391,0.3615,16.25,-42.06,9.56,261.68,-89.27,25.3
53.04275,-1.811398,314.3,9.15,4,251.58,18 / 18,3319296,2019-11-06 12:41:13:177,2.0971,-2.3408,10.0801,-0.0654,0.0598,9.8062,-0.0324,0.3991,-0.1785,15.94,-42.87,10.06,222.73,-89.46,-14.43
53.04275,-1.811398,314.3,9.15,4,251.58,18 / 18,3319396,2019-11-06 12:41:13:277,3.9777,-0.1459,8.8077,-0.0675,0.0681,9.8061,-0.0351,-0.2154,0.1619,15.75,-42.19,10.56,201.7,-89.42,-33.34
53.04275,-1.811398,314.3,9.15,4,251.58,18 / 20,3319496,2019-11-06 12:41:13:377,-0.0463,3.8264,10.6812,-0.0583,0.0381,9.8064,-0.0788,0.3947,-0.0265,15.56,-42.31,9.69,221.21,-89.49,-16.05
53.04275,-1.811398,314.3,9.15,4,251.58,18 / 20,3319596,2019-11-06 12:41:13:477,2.3302,-0.0086,9.6912,0.0293,-0.023,9.8065,-0.0382,0.0733,-0.1063,15.31,-42.44,8.94,185.1,-89.09,-53.74
53.04275,-1.811398,314.3,9.15,4,251.58,18 / 20,3319696,2019-11-06 12:41:13:577,-0.7157,3.9805,10.4101,0.0224,0.0075,9.8066,-0.0263,0.3697,-0.2867,15.31,-42.87,10.19,187.39,-88.81,-48.56
53.04275,-1.811398,314.3,9.15,4,251.58,18 / 20,3319796,2019-11-06 12:41:13:677,1.537,0.2309,10.1234,0.0112,-0.0266,9.8066,-0.0235,0.2642,-0.0579,15.25,-43.37,10,179.52,-88.63,-56.82
53.04275,-1.811398,314.3,9.15,4,251.58,18 / 20,3319896,2019-11-06 12:41:13:777,-0.8461,2.957,10.5364,0.0048,-0.0226,9.8066,-0.0172,0.2169,-0.0905,15.56,-43.19,9.75,177.1,-88.78,-61.04
53.04275,-1.811398,314.3,9.15,4,251.58,18 / 20,3319996,2019-11-06 12:41:13:877,1.9104,0.1509,10.0641,0.0155,-0.0259,9.8065,-0.0123,0.238,-0.1349,15.13,-43.31,10,164.26,-88.57,-72.97
53.04275,-1.811398,314.3,9.15,4,251.58,18 / 20,3320096,2019-11-06 12:41:13:977,1.4927,-0.6711,9.4648,-0.0034,-0.0177,9.8066,0.0701,-0.1483,0.152,14.63,-42.94,10.63,159.39,-88.58,-75.5
53.04275,-1.811398,314.3,9.15,4,251.58,18 / 20,3320196,2019-11-06 12:41:14:077,-1.548,1.6704,9.5494,-0.0113,0.0154,9.8066,-0.0501,0.0136,-0.0942,14.63,-42.87,9.81,156.08,-88.59,-81.58
53.04275,-1.811398,314.3,9.15,4,251.58,18 / 20,3320296,2019-11-06 12:41:14:177,0.8669,2.4177,9.323,0.018,0.0051,9.8065,-0.0353,-0.2793,0.1567,14.88,-42.69,10.44,157.66,-88.41,-80.08
53.04275,-1.811398,314.3,9.15,4,251.58,18 / 20,3320396,2019-11-06 12:41:14:277,-0.8808,3.3333,9.9658,-0.0191,0.043,9.8064,0.0043,-0.1477,0.0112,14.94,-42.81,9.31,167.5,-88.54,-72.31
53.04275,-1.811398,314.3,9.15,4,251.58,17 / 19,3320497,2019-11-06 12:41:14:378,-0.3098,-1.0268,9.7059,-0.0002,-0.001,9.8067,0.0121,-0.3907,0.0727,14.81,-42.37,9.38,169.77,-88.39,-69.95
53.04275,-1.811398,314.3,9.15,4,251.58,17 / 19,3320596,2019-11-06 12:41:14:477,-0.2346,4.7707,10.6222,-0.019,0.0183,9.8066,0.0267,-0.4255,0.2282,14.75,-43.44,8.88,173.51,-88.63,-65.91
53.04275,-1.811398,314.3,9.15,4,251.58,17 / 19,3320696,2019-11-06 12:41:14:577,2.7559,-1.9174,9.695,-0.0574,0.0442,9.8063,0.0003,-0.0344,-0.0608,15.25,-43.12,9.75,156.91,-88.67,-80.64
53.04275,-1.811398,314.3,9.15,4,251.58,17 / 19,3320796,2019-11-06 12:41:14:677,-0.6183,1.1555,9.5978,-0.0012,-0.0054,9.8066,0.0246,-0.5405,0.2614,15.44,-43.12,10.19,152.31,-88.9,-85.21
53.04275,-1.811398,314.3,9.15,4,251.58,17 / 19,3320896,2019-11-06 12:41:14:777,-2.527,4.5944,10.3747,-0.0404,0.0381,9.8064,0.0013,0.2931,-0.2298,15.69,-42.19,10.44,144.84,-88.88,-94.59
53.04275,-1.811398,314.3,9.15,4,251.58,17 / 19,3320997,2019-11-06 12:41:14:878,-0.6571,1.8719,9.8449,0.0375,-0.0528,9.8064,0.0208,-0.1434,-0.0082,16,-42.25,9.63,142.83,-89.03,-96.47
53.04275,-1.811398,314.3,9.15,4,251.58,17 / 19,3321097,2019-11-06 12:41:14:978,-0.9031,0.4641,9.8062,0.0122,0.0072,9.8066,-0.0594,0.3597,-0.3308,15.5,-42.5,9.81,142.93,-89.48,-95.76
53.04275,-1.811398,314.3,9.15,4,251.58,17 / 19,3321197,2019-11-06 12:41:15:078,1.8115,-1.4686,9.0383,0.0483,-0.0515,9.8064,-0.0459,-0.0058,-0.0861,16.56,-42.12,8.5,144.57,-89.64,-97.98
53.04275,-1.811398,314.3,9.15,4,251.58,17 / 19,3321297,2019-11-06 12:41:15:178,-2.3054,3.4337,9.869,0.0199,-0.0076,9.8066,-0.0604,0.418,-0.3226,16,-41.87,8.44,255.79,-89.85,12.7
53.04275,-1.811398,314.3,9.15,4,251.58,17 / 19,3321397,2019-11-06 12:41:15:278,1.9476,-0.3944,9.5069,0.0594,-0.0696,9.8061,-0.0489,0.1758,-0.1919,17.19,-43.37,8.88,240.52,-89.7,-0.99
53.042465,-1.812728,316.63,8.14,4,252.5,16 / 20,3321496,2019-11-06 12:41:15:377,-0.004,-0.6665,9.779,0.0244,-0.0249,9.8065,0.0043,-0.2487,0.0903,17,-43.12,8.25,283.08,-89.5,39.41
53.042465,-1.812728,316.63,8.14,4,252.5,16 / 20,3321596,2019-11-06 12:41:15:477,0.9713,-1.1817,9.5411,0.0282,-0.0505,9.8064,-0.0257,0.1813,-0.2181,17.63,-42.5,8,293.58,-89.3,48.9
53.042465,-1.812728,316.63,8.14,4,252.5,16 / 20,3321696,2019-11-06 12:41:15:577,-0.2622,1.3442,9.3171,0.0205,-0.0375,9.8065,0.0299,0.0539,-0.1266,17.56,-42.12,7.06,307.93,-88.96,60.97
53.042465,-1.812728,316.63,8.14,4,252.5,16 / 20,3321796,2019-11-06 12:41:15:677,0.5211,0.5302,10.4263,0.0178,-0.0199,9.8066,-0.067,0.1384,-0.1017,17.31,-41.87,7.81,303.21,-88.88,60.52
53.042465,-1.812728,316.63,8.14,4,252.5,16 / 20,3321896,2019-11-06 12:41:15:777,0.3497,1.6043,10.5466,0.0271,-0.0385,9.8065,0.0146,-0.0991,0.0564,16.69,-42.44,7.19,312.27,-88.59,67.05
53.042465,-1.812728,316.63,8.14,4,252.5,16 / 20,3321996,2019-11-06 12:41:15:877,1.9481,-0.602,10.3366,-0.0122,-0.0184,9.8065,0.0145,0.3431,-0.1985,17.06,-42,7.13,319.76,-88.71,74.06
53.042465,-1.812728,316.63,8.14,4,252.5,16 / 20,3322097,2019-11-06 12:41:15:978,1.5502,-2.736,9.3324,-0.0045,-0.0421,9.8065,0.0967,-0.2286,0.1336,17.31,-42.5,7.44,330.17,-88.93,83.76
53.042465,-1.812728,316.63,8.14,4,252.5,16 / 20,3322198,2019-11-06 12:41:16:079,0.1703,2.6578,9.9203,-0.0263,0.0394,9.8065,0.0017,0.1197,0.0254,17.44,-42.62,7.75,348.59,-89.06,104.22
53.042465,-1.812728,316.63,8.14,4,252.5,16 / 20,3322296,2019-11-06 12:41:16:177,1.5343,0.1038,9.602,-0.0048,0.0224,9.8066,-0.047,-0.2635,0.2441,16.81,-42.75,8.06,12.27,-89.46,127.2
53.042465,-1.812728,316.63,8.14,4,252.5,16 / 20,3322397,2019-11-06 12:41:16:278,-0.1454,2.3981,9.6214,-0.0088,0.0523,9.8065,0.0016,-0.0223,0.0922,17.19,-42.81,8.06,7.56,-89.64,122.65
53.042465,-1.812728,316.63,8.14,4,252.5,18 / 19,3322497,2019-11-06 12:41:16:378,3.2057,-2.0219,9.7597,0.0053,0.011,9.8066,-0.0023,-0.2364,0.2156,16.69,-42.62,7.94,300.02,-89.8,55.61
53.042465,-1.812728,316.63,8.14,4,252.5,18 / 19,3322596,2019-11-06 12:41:16:477,2.4125,2.0232,10.0975,-0.013,0.0385,9.8065,-0.0395,-0.1279,0.0901,16.06,-43.25,7.69,263.44,-89.47,21.26
53.042465,-1.812728,316.63,8.14,4,252.5,18 / 19,3322696,2019-11-06 12:41:16:577,2.6523,-1.0048,9.859,-0.0336,0.0526,9.8064,0.0237,0.0283,0.1427,16.13,-42.44,8.25,214.63,-89.37,-27.98
53.042465,-1.812728,316.63,8.14,4,252.5,18 / 19,3322797,2019-11-06 12:41:16:678,2.4376,-0.2547,9.4116,-0.0334,0.0254,9.8065,0.0785,-0.1036,0.1426,16.19,-42.25,8.81,188.8,-89.27,-51.58
53.042465,-1.812728,316.63,8.14,4,252.5,18 / 19,3322897,2019-11-06 12:41:16:778,2.1944,-1.1797,9.4772,-0.0502,0.0376,9.8064,-0.0611,0.3125,-0.0547,15,-42.94,8.5,163.61,-89.04,-76.09
53.042465,-1.812728,316.63,8.14,4,252.5,18 / 19,3322996,2019-11-06 12:41:16:877,1.0314,-0.3802,9.1798,0.0402,-0.0066,9.8065,-0.0181,0.0511,0.0464,15.75,-42.81,9,153,-88.57,-89.16
53.042465,-1.812728,316.63,8.14,4,252.5,18 / 19,3323096,2019-11-06 12:41:16:977,0.4014,2.4353,9.9477,0.0244,0.0278,9.8065,-0.1689,0.4385,-0.2593,15.5,-43.19,8.81,173.33,-88.55,-67.71
53.042465,-1.812728,316.63,8.14,4,252.5,18 / 19,3323196,2019-11-06 12:41:17:077,0.9935,-0.1387,8.9984,0.0689,-0.0048,9.8064,-0.0734,0.0473,0.0797,15.69,-43.69,7.69,188.46,-88.45,-54.41
53.042465,-1.812728,316.63,8.14,4,252.5,18 / 19,3323296,2019-11-06 12:41:17:177,-0.7672,3.6349,9.8136,0.0164,0.0348,9.8065,-0.0389,0.5638,-0.1783,14.94,-43.75,8.19,199.24,-88.17,-41.14
53.042465,-1.812728,316.63,8.14,4,252.5,18 / 19,3323396,2019-11-06 12:41:17:277,2.5817,-1.5671,10.7378,0.0813,-0.1038,9.8057,-0.0557,0.4889,-0.4282,15.81,-42.69,7.75,199.57,-87.6,-41.95
53.042465,-1.812728,316.63,8.14,4,252.5,18 / 19,3323496,2019-11-06 12:41:17:377,-1.7824,4.5639,11.0285,0.0661,-0.1054,9.8058,0.0672,0.6895,-0.4713,15.56,-42.87,7.81,223.8,-88.17,-16.59
53.042465,-1.812728,316.63,8.14,4,252.5,18 / 19,3323596,2019-11-06 12:41:17:477,3.5528,-4.4818,10.2007,0.0287,-0.0842,9.8062,-0.0218,0.7071,-0.3923,15.63,-42.44,8.5,213.4,-88.33,-25.14
53.042465,-1.812728,316.63,8.14,4,252.5,18 / 19,3323696,2019-11-06 12:41:17:577,2.3675,-1.0946,8.5727,0.0318,-0.0657,9.8063,0.1398,0.1441,-0.0066,15.06,-42.87,8.69,216.69,-88.66,-20.39
53.042465,-1.812728,316.63,8.14,4,252.5,18 / 19,3323797,2019-11-06 12:41:17:678,1.8438,-0.2593,8.9318,0.0018,-0.0266,9.8066,-0.0857,0.5101,-0.3447,15.88,-43.25,9.88,188.28,-88.61,-49.26
53.042465,-1.812728,316.63,8.14,4,252.5,18 / 19,3323897,2019-11-06 12:41:17:778,-0.5514,1.4489,10.1067,0.0872,-0.1037,9.8056,-0.0376,0.0048,-0.1684,16,-43.31,9.06,186.82,-88.74,-53.47
53.042465,-1.812728,316.63,8.14,4,252.5,18 / 19,3323996,2019-11-06 12:41:17:877,0.2072,3.1028,11.3777,0.0201,-0.0326,9.8065,-0.0083,0.3687,-0.3197,16.25,-42.19,8.13,265.06,-88.8,24.44
53.042465,-1.812728,316.63,8.14,4,252.5,18 / 19,3324096,2019-11-06 12:41:17:977,1.115,1.2995,10.7606,0.0554,-0.0561,9.8063,-0.0025,-0.1773,0.0432,16.56,-42.37,9.13,281.93,-88.15,43.78
53.042465,-1.812728,316.63,8.14,4,252.5,18 / 19,3324196,2019-11-06 12:41:18:077,1.1761,2.0876,10.5824,-0.0427,0.0379,9.8065,0.0707,0.1357,0.0229,16.69,-42.5,9.19,282.15,-88.18,43.95
53.042465,-1.812728,316.63,8.14,4,252.5,18 / 19,3324296,2019-11-06 12:41:18:177,2.7494,-0.9988,9.6059,-0.0163,-0.009,9.8066,0.074,-0.1714,0.1438,16.25,-41.94,9.38,274.36,-88.47,37.21
53.042465,-1.812728,316.63,8.14,4,252.5,18 / 19,3324396,2019-11-06 12:41:18:277,0.4451,1.9128,9.5266,-0.0372,-0.0079,9.8065,0.0756,-0.0236,0.0425,16,-42.12,9.63,286.2,-88.65,51.1
53.042465,-1.812728,316.63,8.14,4,252.5,18 / 19,3324496,2019-11-06 12:41:18:377,2.0233,-0.8657,9.5964,-0.023,-0.0052,9.8066,0.024,0.1332,-0.0272,16.25,-42.81,10.88,307.71,-88.71,74.5
53.042465,-1.812728,316.63,8.14,4,252.5,18 / 19,3324596,2019-11-06 12:41:18:477,2.8073,-0.3691,9.8802,0.0144,-0.0098,9.8066,-0.0156,-0.0079,0.0428,16.63,-42,11.81,312.25,-88.35,79.94
53.042465,-1.812728,316.63,8.14,4,252.5,18 / 19,3324697,2019-11-06 12:41:18:578,2.9302,-0.1246,9.9913,-0.017,0.016,9.8066,-0.0501,0.2078,0.0061,15.81,-42.31,11.69,309.27,-88.15,79.18
53.042465,-1.812728,316.63,8.14,4,252.5,18 / 19,3324796,2019-11-06 12:41:18:677,2.3638,0.1638,10.1344,0.0237,-0.0062,9.8066,-0.0192,0.0334,0.0254,15.81,-42.31,11.56,304.42,-87.87,75.01
53.042465,-1.812728,316.63,8.14,4,252.5,18 / 19,3324896,2019-11-06 12:41:18:777,-0.1726,2.5329,10.3887,-0.0343,0.0345,9.8065,-0.0293,0.4547,-0.0922,15.31,-42.06,12.25,300.31,-87.65,73.43
53.042465,-1.812728,316.63,8.14,4,252.5,18 / 19,3324996,2019-11-06 12:41:18:877,1.6734,1.9179,10.1037,0.0046,-0.0263,9.8066,0.0667,0.225,0.0473,14.94,-40.81,12.94,299.47,-87.95,74.09
53.042465,-1.812728,316.63,8.14,4,252.5,18 / 19,3325097,2019-11-06 12:41:18:978,-0.5194,2.1076,9.8804,0.0048,0.0014,9.8066,-0.0674,0.5722,-0.18,15.31,-42.19,13.25,304,-87.85,78.71
53.042465,-1.812728,316.63,8.14,4,252.5,18 / 19,3325197,2019-11-06 12:41:19:078,3.4187,-0.3443,8.864,0.0339,0.0004,9.8065,-0.0506,0.2545,0.0558,15.81,-41.44,13.88,303.63,-87.98,78.09
53.042465,-1.812728,316.63,8.14,4,252.5,18 / 19,3325297,2019-11-06 12:41:19:178,0.6805,2.7157,9.7712,-0.0197,0,9.8066,-0.0143,0.5441,-0.1497,14.63,-41.62,14.13,300.48,-88.06,76.95
53.042465,-1.812728,316.63,8.14,4,252.5,18 / 19,3325397,2019-11-06 12:41:19:278,2.6309,0.2319,10.2136,-0.019,0.0082,9.8066,-0.0282,0.3801,-0.1536,14.75,-42.12,13.69,300.4,-88,76.97
53.042465,-1.812728,316.63,8.14,4,252.5,17 / 19,3325496,2019-11-06 12:41:19:377,0.3677,1.4401,10.1805,0.0277,-0.0215,9.8066,0.0047,0.3366,-0.105,14.31,-41.62,14.31,299.68,-87.84,78.69
53.042465,-1.812728,316.63,8.14,4,252.5,17 / 19,3325597,2019-11-06 12:41:19:478,2.2157,-0.4901,9.6119,0.0036,-0.0153,9.8066,-0.0105,0.3973,-0.1168,14.38,-41.69,14.69,298.54,-87.46,80.1
53.042465,-1.812728,316.63,8.14,4,252.5,17 / 19,3325696,2019-11-06 12:41:19:577,0.1776,1.0246,9.5035,0.022,-0.0134,9.8066,0.0221,0.056,0.0047,13.88,-41.19,14.75,300.91,-87.42,82.34
53.042465,-1.812728,316.63,8.14,4,252.5,17 / 19,3325796,2019-11-06 12:41:19:677,-0.9575,1.9154,9.5149,-0.0027,0.0195,9.8065,-0.0356,0.1556,0.0619,13.69,-41.87,15.75,300.07,-87.59,83.03
53.042465,-1.812728,316.63,8.14,4,252.5,17 / 19,3325896,2019-11-06 12:41:19:777,0.6157,1.354,10.0748,-0.0137,0.0216,9.8066,0.0282,0.0274,0.1152,13.5,-41.87,15.63,295.43,-87.66,78.44
53.042465,-1.812728,316.63,8.14,4,252.5,17 / 19,3325997,2019-11-06 12:41:19:878,-0.4837,1.1191,10.0568,-0.0019,-0.0025,9.8066,-0.0101,0.0091,-0.0128,13.06,-41.12,16.31,291.23,-87.7,76.42
53.042465,-1.812728,316.63,8.14,4,252.5,17 / 19,3326097,2019-11-06 12:41:19:978,-0.6111,0.9207,9.682,0.0035,-0.0002,9.8066,0.0103,0.0804,-0.0191,13.75,-41.62,16.06,292.85,-87.66,75.95
53.042465,-1.812728,316.63,8.14,4,252.5,17 / 19,3326196,2019-11-06 12:41:20:077,-0.3414,0.5977,9.7721,0.0068,-0.0043,9.8066,-0.0108,0.0253,-0.0084,13.56,-41.75,15.94,292.22,-87.5,75.64
53.042465,-1.812728,316.63,8.14,4,252.5,17 / 19,3326297,2019-11-06 12:41:20:178,0.5394,0.2615,9.8843,0.0056,-0.0049,9.8066,-0.023,-0.0117,0.0018,14.25,-41.81,16.38,292.66,-87.33,76.37
53.042465,-1.812728,316.63,8.14,4,252.5,17 / 19,3326396,2019-11-06 12:41:20:277,0.1786,0.5092,9.904,-0.0056,0.0109,9.8066,0.0127,-0.0284,0.0564,13.44,-40.75,15.5,288.72,-87.18,74.97
53.042465,-1.812728,316.63,8.14,4,252.5,18 / 19,3326497,2019-11-06 12:41:20:378,0.2434,0.9855,10.3815,-0.002,0.0162,9.8066,-0.0171,0.0552,-0.0331,13.44,-41.5,15.56,286.36,-87.18,72.68
53.042465,-1.812728,316.63,8.14,4,252.5,18 / 19,3326596,2019-11-06 12:41:20:477,0.5082,1.2871,9.5631,0.0096,0.0086,9.8066,-0.019,-0.0286,0.0827,14,-41.44,15.5,285.88,-87.29,69.74
53.042465,-1.812728,316.63,8.14,4,252.5,18 / 19,3326696,2019-11-06 12:41:20:577,-0.5869,1.91,9.8869,-0.0109,0.013,9.8066,-0.0057,0.0973,-0.0318,13.63,-41.44,15.81,283.48,-87.29,67.4
53.042465,-1.812728,316.63,8.14,4,252.5,18 / 19,3326796,2019-11-06 12:41:20:677,0.6227,1.2495,9.7972,0.0215,-0.0066,9.8065,-0.0032,-0.0093,-0.0467,12.75,-41.12,15.38,281.76,-87.24,66.45
53.042465,-1.812728,316.63,8.14,4,252.5,18 / 19,3326896,2019-11-06 12:41:20:777,0.2053,1.7904,9.8621,0.004,0.0058,9.8066,-0.0128,0.0935,-0.028,13.5,-41.81,15.44,283.27,-87.11,66.04
53.042465,-1.812728,316.63,8.14,4,252.5,18 / 19,3326996,2019-11-06 12:41:20:877,-0.1369,0.1594,10.0961,0.0109,-0.0023,9.8066,-0.0104,0.0459,-0.0429,13.63,-41.25,16.19,279.59,-87.03,64.08
53.042465,-1.812728,316.63,8.14,4,252.5,18 / 19,3327097,2019-11-06 12:41:20:978,-0.945,0.0045,10.1293,-0.0041,0.0011,9.8066,0.0188,-0.0328,0.0236,13.75,-41.5,16.31,279.51,-86.96,64.13
53.042465,-1.812728,316.63,8.14,4,252.5,18 / 19,3327196,2019-11-06 12:41:21:077,-0.9627,-0.7465,9.6164,-0.0093,-0.0128,9.8066,0.033,-0.0108,-0.0103,13.81,-41.5,15.69,281.16,-87.03,65.61
53.042465,-1.812728,316.63,8.14,4,252.5,18 / 19,3327296,2019-11-06 12:41:21:177,-0.8443,0.1671,9.5668,0.0071,-0.0025,9.8066,-0.0105,-0.0337,0.0355,13.19,-41.69,16.19,281.13,-87.05,67.95
53.042465,-1.812728,316.63,8.14,4,252.5,18 / 19,3327396,2019-11-06 12:41:21:277,-0.8436,0.107,9.9443,0.0004,0.0072,9.8066,-0.0371,0.0184,-0.0216,13.19,-41.69,16.06,280.31,-87.06,67.14
53.042465,-1.812728,316.63,8.14,4,252.5,18 / 19,3327496,2019-11-06 12:41:21:377,-0.8638,-0.0675,9.9096,0.0082,0.0094,9.8066,-0.0144,-0.0164,-0.0199,13.25,-41.69,16.06,279.01,-87.02,65.94
53.042465,-1.812728,316.63,8.14,4,252.5,18 / 19,3327597,2019-11-06 12:41:21:478,-0.2563,0.0013,9.7517,0.0009,0.0037,9.8066,-0.0005,0.0098,-0.0116,13.81,-41.75,16.88,277.56,-86.86,64.06
53.042465,-1.812728,316.63,8.14,4,252.5,18 / 19,3327696,2019-11-06 12:41:21:577,-0.7285,-0.3861,9.7872,0.0022,0.0025,9.8066,0.0003,-0.0282,0.0002,13.63,-41.37,16.5,276.28,-86.82,62.71
53.042465,-1.812728,316.63,8.14,4,252.5,18 / 19,3327796,2019-11-06 12:41:21:677,-1.0961,-0.1808,9.8248,0.0018,0.0053,9.8066,-0.0037,0.0053,0.0044,14.38,-41.5,16.19,276.67,-86.79,61.66
53.042465,-1.812728,316.63,8.14,4,252.5,18 / 19,3327896,2019-11-06 12:41:21:777,-0.6605,-0.3014,9.8736,0.0062,-0.0009,9.8066,-0.0216,-0.0418,0.0118,13.69,-41.69,16.25,275.6,-86.76,60.8
53.042465,-1.812728,316.63,8.14,4,252.5,18 / 19,3327996,2019-11-06 12:41:21:877,-0.8623,0.0999,9.8043,0.0082,0.0024,9.8066,0.0089,-0.0223,0.0276,13.31,-40.75,16.06,272.64,-86.72,60.08
53.042465,-1.812728,316.63,8.14,4,252.5,18 / 19,3328097,2019-11-06 12:41:21:978,-0.4935,-0.3035,9.7299,0.0094,0.0027,9.8066,0.0052,0,0.0245,14,-41.44,16.38,274.12,-86.69,59.33
53.042465,-1.812728,316.63,8.14,4,252.5,18 / 19,3328196,2019-11-06 12:41:22:077,-0.8839,-0.286,9.8882,0.0007,0.0034,9.8066,-0.0058,-0.0136,-0.0072,13.25,-41.12,15.63,270.54,-86.62,58.19
53.042465,-1.812728,316.63,8.14,4,252.5,18 / 19,3328296,2019-11-06 12:41:22:177,-0.6539,-0.3153,9.8268,0.0057,0.002,9.8066,-0.0016,0.0213,0.0241,13.75,-41.81,15.63,272.1,-86.59,57.67
53.042465,-1.812728,316.63,8.14,4,252.5,18 / 19,3328396,2019-11-06 12:41:22:277,-0.5903,0.0175,9.7672,0.0028,0.0029,9.8066,0.0005,0.0081,-0.0086,13.44,-41.06,15.88,269.11,-86.55,56.9
53.042465,-1.812728,316.63,8.14,4,252.5,19 / 21,3328496,2019-11-06 12:41:22:377,-0.6207,-0.2561,9.7734,0,0.0062,9.8066,0.0073,0.0133,-0.0235,13.88,-41.62,16.19,271.2,-86.51,56.95
53.042465,-1.812728,316.63,8.14,4,252.5,19 / 21,3328596,2019-11-06 12:41:22:477,-0.6668,-0.337,9.848,0.0055,0.0016,9.8066,0.0035,0.0333,0.0083,13.25,-41.56,15.56,268.1,-86.5,56.17
53.042465,-1.812728,316.63,8.14,4,252.5,19 / 21,3328697,2019-11-06 12:41:22:578,-0.786,-0.2587,9.9006,0.0007,0.005,9.8066,0.0002,0.0268,-0.0158,13.69,-41.94,16.5,268.4,-86.44,55.74
53.042465,-1.812728,316.63,8.14,4,252.5,19 / 21,3328797,2019-11-06 12:41:22:678,-0.841,-0.5959,9.7783,0.0012,0.0044,9.8066,-0.0003,0.0426,-0.0113,13.75,-40.69,15.88,269.32,-86.39,55.12
53.042465,-1.812728,316.63,8.14,4,252.5,19 / 21,3328897,2019-11-06 12:41:22:778,-0.8651,-0.3178,9.9306,0.0007,0.0017,9.8066,-0.0277,0.0408,0.0071,14.38,-41.5,15.81,268.81,-86.34,54.7
53.042465,-1.812728,316.63,8.14,4,252.5,19 / 21,3328997,2019-11-06 12:41:22:878,-0.6561,-0.2877,9.8349,0.0015,0.0072,9.8066,0.0066,0.0114,-0.0074,14.31,-42.25,15.81,267.58,-86.29,53.73
53.042465,-1.812728,316.63,8.14,4,252.5,19 / 21,3329097,2019-11-06 12:41:22:978,-0.8126,-0.129,9.7547,0.0031,0.0038,9.8066,-0.0109,0.0223,0.0109,14.06,-41.62,15.88,267.12,-86.27,53.32
53.042465,-1.812728,316.63,8.14,4,252.5,19 / 21,3329196,2019-11-06 12:41:23:077,-0.7032,-0.3109,9.6766,0.0003,0.0041,9.8065,-0.0175,0.0319,-0.0095,13.75,-41.69,16.13,266.56,-86.22,52.85
53.042465,-1.812728,316.63,8.14,4,252.5,19 / 21,3329296,2019-11-06 12:41:23:177,-0.8286,-0.3731,9.7508,0.0012,0.0049,9.8066,0.0114,0.0062,-0.0167,13.56,-40.94,15.63,266.11,-86.17,52.31
53.042465,-1.812728,316.63,8.14,4,252.5,19 / 21,3329396,2019-11-06 12:41:23:277,-0.7043,-0.3341,9.8486,-0.0004,-0.0009,9.8066,-0.0286,0.0332,0.0033,13.31,-41.44,16.13,263.58,-86.14,52.13
53.042465,-1.812728,316.63,8.14,4,252.5,18 / 19,3329496,2019-11-06 12:41:23:377,-0.8711,-0.3999,9.7915,0.0022,-0.0007,9.8066,-0.0102,-0.0007,0.0047,13.75,-41.37,16.38,265.38,-86.12,51.67
53.042465,-1.812728,316.63,8.14,4,252.5,18 / 19,3329596,2019-11-06 12:41:23:477,-0.8762,-0.1369,9.8526,0.0004,0.0028,9.8066,-0.0066,0.0048,0.0016,13.25,-41.5,15.94,263,-86.1,51.63
53.042465,-1.812728,316.63,8.14,4,252.5,18 / 19,3329696,2019-11-06 12:41:23:577,-0.8029,-0.4386,9.8778,0.0038,-0.0005,9.8066,-0.0161,-0.0199,0.009,14,-42,16.63,263.52,-86.09,51.47
53.042465,-1.812728,316.63,8.14,4,252.5,18 / 19,3329797,2019-11-06 12:41:23:678,-0.8317,-0.166,9.7507,0.0011,0.0051,9.8066,0.0013,-0.0121,-0.0158,13.94,-41.12,15.38,266.55,-86.07,51.39
53.042465,-1.812728,316.63,8.14,4,252.5,18 / 19,3329897,2019-11-06 12:41:23:778,-0.4988,-0.2671,9.6825,0.0044,0.001,9.8066,0.0014,-0.0454,-0.0039,13.06,-41.06,15.81,262.25,-86.05,50.95
53.042465,-1.812728,316.63,8.14,4,252.5,18 / 19,3329996,2019-11-06 12:41:23:877,-0.8469,-0.1645,9.7066,0.0025,-0.0002,9.8066,-0.0082,-0.0393,-0.0032,13.44,-42.06,16.31,261.74,-86.03,50.67
53.042465,-1.812728,316.63,8.14,4,252.5,18 / 19,3330097,2019-11-06 12:41:23:978,-0.768,-0.6194,9.8506,0.0033,0.0013,9.8065,-0.0031,-0.0341,-0.0066,13.56,-41.37,16.56,262.63,-86.02,50.53
53.042465,-1.812728,316.63,8.14,4,252.5,18 / 19,3330196,2019-11-06 12:41:24:077,-0.931,-0.6069,9.9121,0.0074,0.001,9.8066,-0.0302,0.0224,-0.0028,13.31,-41.62,16.38,261.19,-86.01,50.14
53.042465,-1.812728,316.63,8.14,4,252.5,18 / 19,3330296,2019-11-06 12:41:24:177,-0.7427,-0.5085,9.9674,0.0035,0.0007,9.8066,-0.008,0.0331,-0.0189,13.75,-41,15.88,263.51,-85.99,50.04
53.042465,-1.812728,316.63,8.14,4,252.5,18 / 19,3330397,2019-11-06 12:41:24:278,-0.8673,-0.3314,9.8402,0.0036,-0.0021,9.8066,0.0047,-0.0144,-0.005,13.44,-41,15.44,262.43,-85.93,49.87
53.04241,-1.813062,317.93,0,3,227.8,18 / 19,3330496,2019-11-06 12:41:24:377,-1.1094,-0.5182,9.9736,0.0003,0.0041,9.8066,-0.0285,-0.0062,-0.0174,14,-40.87,16.06,263.1,-85.93,49.73
53.04241,-1.813062,317.93,0,3,227.8,18 / 19,3330597,2019-11-06 12:41:24:478,-0.6856,-0.5891,9.8184,-0.0016,-0.0002,9.8066,-0.0033,-0.0318,0.0121,13.63,-41.44,16.5,261.31,-85.92,49.35
53.04241,-1.813062,317.93,0,3,227.8,18 / 19,3330696,2019-11-06 12:41:24:577,-0.8251,-0.423,9.7789,-0.0027,-0.0004,9.8066,-0.0071,-0.0039,-0.0115,14.19,-41.5,15.94,262.23,-85.9,48.89
53.04241,-1.813062,317.93,0,3,227.8,18 / 19,3330796,2019-11-06 12:41:24:677,-0.855,-0.6656,9.9082,0.0005,0.0023,9.8066,-0.0208,-0.0134,0.0083,13.81,-40.75,16.19,261.99,-85.91,48.64
53.04241,-1.813062,317.93,0,3,227.8,18 / 19,3330897,2019-11-06 12:41:24:778,-0.7914,-0.18,9.7793,-0.0047,0.0028,9.8066,0.0005,-0.002,0.023,13.56,-41.94,16.13,262.03,-85.91,48.87
53.04241,-1.813062,317.93,0,3,227.8,18 / 19,3330996,2019-11-06 12:41:24:877,-0.7074,-0.4308,9.818,-0.0022,0.002,9.8066,-0.0029,0.0201,0.001,13.38,-41.25,15.75,259.61,-85.92,48.51
53.04241,-1.813062,317.93,0,3,227.8,18 / 19,3331096,2019-11-06 12:41:24:977,-0.9349,-0.394,9.8251,-0.0009,0.0007,9.8066,0.0085,-0.0102,0.026,13.75,-41.37,16.5,260.4,-85.94,48.38
53.04241,-1.813062,317.93,0,3,227.8,18 / 19,3331197,2019-11-06 12:41:25:078,-0.7889,-0.3491,9.7945,-0.0053,0.0013,9.8066,0.0111,0.0011,0.0189,13.81,-40.94,15.94,262.12,-85.95,48.7
53.04241,-1.813062,317.93,0,3,227.8,18 / 19,3331296,2019-11-06 12:41:25:177,-0.8121,-0.2929,9.7518,0.0008,-0.0002,9.8066,0.0003,-0.028,-0.0113,13.38,-41.37,16.44,259.52,-85.98,48.3
53.04241,-1.813062,317.93,0,3,227.8,18 / 19,3331397,2019-11-06 12:41:25:278,-0.8542,-0.5963,9.874,-0.0044,0.0041,9.8066,-0.014,-0.0041,0.008,13.56,-41.31,16.75,260.08,-85.99,47.96
53.04241,-1.813062,317.93,0,3,227.8,18 / 20,3331497,2019-11-06 12:41:25:378,-0.7757,-0.3649,9.8528,-0.0002,0,9.8066,-0.0029,-0.0051,-0.0056,13.63,-41.31,15.5,261.46,-85.99,47.94
53.04241,-1.813062,317.93,0,3,227.8,18 / 20,3331597,2019-11-06 12:41:25:478,-0.899,-0.3439,9.7531,-0.0017,0.0019,9.8066,-0.0111,0.0405,-0.0192,13.75,-41.12,16.69,260.14,-86.01,47.99
53.04241,-1.813062,317.93,0,3,227.8,18 / 20,3331696,2019-11-06 12:41:25:577,-0.8219,-0.3885,9.8179,-0.0006,-0.0009,9.8065,0.0094,0.0106,0.0107,13.25,-41.69,16.19,258.86,-86.04,47.69
53.04241,-1.813062,317.93,0,3,227.8,18 / 20,3331796,2019-11-06 12:41:25:677,-1.0245,-0.3382,9.8282,0.0006,0.0008,9.8066,-0.006,0.0071,-0.0197,13.88,-41.37,15.94,261.26,-86.05,47.61
53.04241,-1.813062,317.93,0,3,227.8,18 / 20,3331896,2019-11-06 12:41:25:777,-0.7007,-0.3471,9.7843,0.0012,-0.0031,9.8065,0.0009,0.0096,-0.0014,13.5,-41,16.13,261.01,-86.09,47.28
53.04241,-1.813062,317.93,0,3,227.8,18 / 20,3331996,2019-11-06 12:41:25:877,-0.7927,-0.4742,9.8584,-0.0015,-0.0024,9.8066,0.0046,0.0169,-0.0009,13.5,-41.62,15.44,262.78,-86.11,47.68
53.04241,-1.813062,317.93,0,3,227.8,18 / 20,3332098,2019-11-06 12:41:25:979,-0.6131,-0.2952,9.7865,-0.0032,0.0002,9.8066,-0.0017,0.0118,-0.0005,13.69,-41.69,16.38,261.18,-86.13,47.56
53.04241,-1.813062,317.93,0,3,227.8,18 / 20,3332197,2019-11-06 12:41:26:078,-0.8734,-0.4274,9.8126,-0.0033,-0.0016,9.8066,-0.0001,-0.0122,-0.0052,13.69,-41.37,15.31,262.89,-86.18,47.47
53.04241,-1.813062,317.93,0,3,227.8,18 / 20,3332297,2019-11-06 12:41:26:178,-0.7633,-0.3801,9.798,-0.0042,0.0018,9.8066,-0.011,0.0089,0.0022,13.88,-41.5,16.44,261.41,-86.24,47.4
53.04241,-1.813062,317.93,0,3,227.8,18 / 20,3332396,2019-11-06 12:41:26:277,-0.7942,-0.4255,9.7812,-0.0026,0.0007,9.8066,0.0099,0.0156,-0.0045,13.69,-41.62,16.38,261.02,-86.31,47.05
53.04241,-1.813062,317.93,0,3,227.8,19 / 21,3332497,2019-11-06 12:41:26:378,-0.8065,-0.3941,9.8113,-0.0039,0.0012,9.8066,0.0034,-0.0005,0,13.31,-41.44,16,258.97,-86.36,46.99
53.04241,-1.813062,317.93,0,3,227.8,19 / 21,3332597,2019-11-06 12:41:26:478,-0.711,-0.3008,9.7453,-0.0096,-0.0041,9.8066,-0.0168,0.0062,-0.0001,13.63,-41.44,15.63,261.85,-86.45,47.45
