GPS LATITUDE (degrees), GPS LONGITUDE (degrees), GPS ALTITUDE (m), GPS SPEED (Kmh), GPS ACCURACY (m), GPS ORIENTATION (Â°),GPS SATELLITES IN RANGE, TIME SINCE START (ms), DATE (YYYY-MO-DD HH-MI-SS_SSS), ACCELEROMETER X (m/s²) , ACCELEROMETER Y (m/s²), ACCELEROMETER Z (m/s²), GRAVITY X (m/s²), GRAVITY Y (m/s²), GRAVITY Z (m/s²), GYROSCOPE Yaw (rad/s), GYROSCOPE Pitch (rad/s), GYROSCOPE Roll (rad/s), MAGNETIC FIELD X (Î¼T), MAGNETIC FIELD Y (Î¼T), MAGNETIC FIELD Z (Î¼T), ORIENTATION (Yaw) (Â°), ORIENTATION (Pitch) (Â°), ORIENTATION (Roll ) (Â°)
52.828754,-1.651825,114.23,11.84,4,331.55,23 / 23,280512,2019-11-06 11:50:34:393,1.1775,-0.9811,9.8307,-0.0145,-0.0296,9.8066,-0.0507,0.1528,-0.1442,-7.87,-36.69,-0.75,151.48,-83.81,55.06
52.828754,-1.651825,114.23,11.84,4,331.55,23 / 23,280612,2019-11-06 11:50:34:493,0.6643,-0.1242,9.6622,0.0139,-0.0289,9.8065,0.0001,0.1629,-0.0083,-8.31,-37.62,-1.25,151.95,-83.72,55.18
52.828754,-1.651825,114.23,11.84,4,331.55,23 / 23,280712,2019-11-06 11:50:34:593,3.1616,0.8361,9.2127,0.0101,-0.0118,9.8066,-0.0097,0.2359,0.0183,-7.75,-36.31,-1.06,151.19,-83.95,55.31
52.828754,-1.651825,114.23,11.84,4,331.55,23 / 23,280812,2019-11-06 11:50:34:693,1.5526,0.6659,9.1687,-0.002,-0.0551,9.8065,0.0197,-0.3999,0.108,-8.31,-35.94,-1.06,150.6,-84.03,54.66
52.828754,-1.651825,114.23,11.84,4,331.55,23 / 23,280911,2019-11-06 11:50:34:792,-1.8116,-2.7178,10.5572,-0.0124,-0.0062,9.8065,0.0774,-0.1106,0.1152,-8.62,-36.37,-1.56,145.43,-83.91,54.49
52.828754,-1.651825,114.23,11.84,4,331.55,23 / 23,281012,2019-11-06 11:50:34:893,1.5087,1.5838,10.2721,0.0025,-0.0571,9.8064,-0.0346,-0.1885,0.1559,-8.19,-36.81,-1.69,144.7,-84.14,53.51
52.828754,-1.651825,114.23,11.84,4,331.55,23 / 23,281112,2019-11-06 11:50:34:993,0.9861,-0.36,9.4693,-0.0076,0.0305,9.8066,0.0524,-0.1898,0.0997,-8.87,-37,-1.56,145.43,-84.06,54.46
52.828754,-1.651825,114.23,11.84,4,331.55,23 / 23,281212,2019-11-06 11:50:35:093,2.2962,-0.956,9.1567,-0.0092,0.0025,9.8066,0.03,0.0552,-0.0537,-8.56,-37.19,-1.75,145,-84.12,54.02
52.828754,-1.651825,114.23,11.84,4,331.55,23 / 23,281312,2019-11-06 11:50:35:193,1.283,-0.3061,9.3668,-0.0109,-0.0001,9.8066,-0.0294,0.1342,-0.0563,-8.37,-37.56,-1,149.6,-84.12,52.68
52.828754,-1.651825,114.23,11.84,4,331.55,23 / 23,281412,2019-11-06 11:50:35:293,0.861,0.159,10.7808,-0.0104,-0.0256,9.8066,-0.1194,-0.1702,0.0638,-8.5,-36.87,-1.37,148.75,-84.1,51.83
52.828754,-1.651825,114.23,11.84,4,331.55,24 / 24,281512,2019-11-06 11:50:35:393,2.0848,-2.1344,9.2576,-0.0056,0.0003,9.8066,-0.0424,-0.0708,0.1417,-8.5,-37.56,-1.5,148.93,-84.12,51.73
52.828754,-1.651825,114.23,11.84,4,331.55,24 / 24,281612,2019-11-06 11:50:35:493,2.143,0.1103,10.0414,-0.014,-0.0429,9.8065,-0.0469,-0.1484,0.0156,-8.69,-37,-0.94,146.36,-84.13,49.43
52.828754,-1.651825,114.23,11.84,4,331.55,24 / 24,281712,2019-11-06 11:50:35:593,1.425,-0.0935,9.3867,0.0012,0.0372,9.8065,0.0087,-0.2254,0.1972,-8.75,-36.44,-0.56,147.51,-83.78,50.6
52.828754,-1.651825,114.23,11.84,4,331.55,24 / 24,281812,2019-11-06 11:50:35:693,2.5301,1.0411,9.6973,-0.0096,0.013,9.8066,0.0058,0.1377,-0.0752,-8.94,-35.56,-1.12,146.42,-83.86,49.28
52.828754,-1.651825,114.23,11.84,4,331.55,24 / 24,281912,2019-11-06 11:50:35:793,1.0081,0.1701,9.9278,0.0152,0.036,9.8065,-0.0201,-0.0927,0.05,-9.06,-35.5,-1.87,140.88,-83.81,48.58
52.828754,-1.651825,114.23,11.84,4,331.55,24 / 24,282012,2019-11-06 11:50:35:893,1.7377,-2.1408,9.6982,0.0131,0.0367,9.8065,0.0207,0.2099,-0.0365,-8.81,-36.06,-2.06,142.78,-83.78,50.61
52.828754,-1.651825,114.23,11.84,4,331.55,24 / 24,282112,2019-11-06 11:50:35:993,0.968,-1.3797,9.8102,-0.0146,0.0157,9.8066,-0.0143,-0.0821,-0.0349,-8.44,-36.62,-1.81,144.11,-83.83,51.86
52.828754,-1.651825,114.23,11.84,4,331.55,24 / 24,282212,2019-11-06 11:50:36:093,1.4163,-2.5001,8.5895,-0.0048,0.052,9.8065,0.0456,0.2199,-0.0992,-8.69,-37.12,-1.19,149.02,-83.74,52.23
52.828754,-1.651825,114.23,11.84,4,331.55,24 / 24,282312,2019-11-06 11:50:36:193,1.9847,1.4104,9.8161,-0.0128,-0.0018,9.8066,-0.0964,0.009,-0.1356,-8.87,-37.06,-1.5,148.23,-83.75,51.16
52.828754,-1.651825,114.23,11.84,4,331.55,24 / 24,282412,2019-11-06 11:50:36:293,0.6787,-1.9232,9.6912,-0.009,0.0614,9.8064,-0.0493,0.2441,-0.1186,-8.25,-36.5,-2.06,143.35,-83.49,50.34
52.828754,-1.651825,114.23,11.84,4,331.55,24 / 24,282512,2019-11-06 11:50:36:393,2.0299,1.1806,9.0149,0.0142,-0.0208,9.8066,-0.0786,0.2398,-0.1745,-8.87,-37.94,-1.94,142.76,-83.67,49.45
52.828754,-1.651825,114.23,11.84,4,331.55,24 / 24,282612,2019-11-06 11:50:36:493,0.6481,-3.3264,9.8329,-0.0106,0.0093,9.8066,-0.0029,0.0776,-0.0978,-8.75,-37.31,-1.44,147.76,-83.66,50.31
52.828754,-1.651825,114.23,11.84,4,331.55,24 / 24,282713,2019-11-06 11:50:36:594,1.3863,-3.2227,10.2866,-0.0039,-0.0598,9.8064,-0.0473,0.3734,-0.2322,-7.31,-35.81,-1.06,146.93,-83.97,48.2
52.828754,-1.651825,114.23,11.84,4,331.55,24 / 24,282812,2019-11-06 11:50:36:693,3.2959,2.0552,8.7393,0.0231,-0.0269,9.8065,-0.1198,0.3653,-0.0772,-9.12,-36.06,-1.25,146.8,-83.89,49.87
52.828754,-1.651825,114.23,11.84,4,331.55,24 / 24,282912,2019-11-06 11:50:36:793,-0.7648,-3.1462,9.9319,-0.0075,-0.0499,9.8065,-0.0367,0.1669,-0.026,-8.75,-36.37,-2.37,140.31,-84.13,48.19
52.828754,-1.651825,114.23,11.84,4,331.55,24 / 24,283012,2019-11-06 11:50:36:893,2.2781,2.876,10.3473,0.0032,-0.0731,9.8063,-0.0269,-0.3039,0.1819,-8.56,-36.5,-2.44,139.59,-84.19,47.39
52.828754,-1.651825,114.23,11.84,4,331.55,24 / 24,283111,2019-11-06 11:50:36:992,1.5245,-2.0784,10.6519,-0.0062,-0.0206,9.8065,0.1474,-0.0918,0.0679,-8.75,-37.37,-1.37,146.87,-84.07,49.99
52.828754,-1.651825,114.23,11.84,4,331.55,24 / 24,283212,2019-11-06 11:50:37:093,-1.1328,0.9732,10.0767,0.0119,-0.0451,9.8064,0.038,-0.2637,0.1604,-8.56,-37.12,-2.31,141.57,-84.37,50.03
52.828754,-1.651825,114.23,11.84,4,331.55,24 / 24,283312,2019-11-06 11:50:37:193,2.4973,-2.2388,9.131,-0.0072,0.0196,9.8066,-0.1055,-0.1741,0.1359,-8.44,-36.62,-2.25,142.49,-83.99,50.04
52.828754,-1.651825,114.23,11.84,4,331.55,24 / 24,283412,2019-11-06 11:50:37:293,0.7482,1.3195,9.9032,-0.0133,-0.0276,9.8065,0.0299,-0.1863,0.1328,-8.44,-37.87,-2.44,141.75,-83.98,48.51
52.828754,-1.651825,114.23,11.84,4,331.55,23 / 23,283512,2019-11-06 11:50:37:393,0.2593,-3.307,8.9879,0.0197,0.029,9.8066,-0.0382,-0.285,0.1308,-8.37,-36.87,-2.19,144.17,-83.93,52.2
52.828754,-1.651825,114.23,11.84,4,331.55,23 / 23,283612,2019-11-06 11:50:37:493,1.3517,-0.1451,9.6449,-0.0006,-0.0079,9.8066,0.0626,-0.2276,0.1764,-7.5,-36.44,-2,143.74,-83.99,51.96
52.828754,-1.651825,114.23,11.84,4,331.55,23 / 23,283712,2019-11-06 11:50:37:593,0.9427,-3.5316,9.5265,0.0158,0.0338,9.8065,0.017,-0.3762,0.1595,-7.75,-36.06,-0.31,153.27,-84.07,51.31
52.828754,-1.651825,114.23,11.84,4,331.55,23 / 23,283812,2019-11-06 11:50:37:693,0.0746,1.8724,9.4015,0.0114,-0.0155,9.8066,0.02,-0.1743,0.1809,-9,-35.5,-0.62,147.98,-84.1,52.28
52.828754,-1.651825,114.23,11.84,4,331.55,23 / 23,283912,2019-11-06 11:50:37:793,0.4741,-0.675,9.9857,-0.024,0.03,9.8065,0.1057,-0.3663,0.0837,-9.31,-35.44,-1.69,143.14,-83.96,51.93
52.828754,-1.651825,114.23,11.84,4,331.55,23 / 23,284012,2019-11-06 11:50:37:893,-1.8366,1.06,9.3549,0.0005,0.0071,9.8066,0.1037,0.001,-0.0213,-9.44,-36,-3.37,138.66,-84.04,52.11
52.828754,-1.651825,114.23,11.84,4,331.55,23 / 23,284112,2019-11-06 11:50:37:993,1.2445,-0.4291,10.2276,-0.0029,0.0391,9.8065,0.036,-0.1338,0.0855,-9.19,-36.81,-3.37,140.92,-84.04,54.67
52.828754,-1.651825,114.23,11.84,4,331.55,23 / 23,284212,2019-11-06 11:50:38:093,1.2618,-1.8411,9.6114,0.0238,0.0161,9.8065,0.0526,0.0948,-0.0724,-9.06,-37.12,-2.5,146.29,-84.19,55.9
52.828754,-1.651825,114.23,11.84,4,331.55,23 / 23,284312,2019-11-06 11:50:38:193,0.0463,-0.4114,9.0662,0.0053,0.0243,9.8066,-0.049,0.0138,0.0008,-8.69,-36.81,-1.81,146.56,-84.29,56.5
52.828754,-1.651825,114.23,11.84,4,331.55,23 / 23,284412,2019-11-06 11:50:38:293,1.2008,-2.2683,9.3952,-0.0018,0.0261,9.8066,-0.0024,0.1516,-0.1555,-9.25,-37,-1.75,147.01,-84.19,56.88
52.828754,-1.651825,114.23,11.84,4,331.55,24 / 24,284512,2019-11-06 11:50:38:393,-0.0775,0.6381,10.5837,0.0117,0.0137,9.8066,-0.0401,0.0169,0.0565,-8.87,-37.5,-2.19,145.22,-84.4,54.94
52.828754,-1.651825,114.23,11.84,4,331.55,24 / 24,284612,2019-11-06 11:50:38:493,-0.5331,-2.8267,10.2155,-0.0022,0.0327,9.8066,-0.0813,0.1607,-0.1403,-9.37,-36.56,-2.25,145.61,-84.35,55.34
52.828754,-1.651825,114.23,11.84,4,331.55,24 / 24,284712,2019-11-06 11:50:38:593,0.2372,-1.553,9.8726,0.0136,0.0334,9.8065,0.0169,-0.0206,0.086,-8.81,-36.25,-2.06,146.77,-84.49,57.54
52.828754,-1.651825,114.23,11.84,4,331.55,24 / 24,284812,2019-11-06 11:50:38:693,1.9387,-1.8357,9.6434,0.0007,0.0137,9.8066,0.0019,0.1284,-0.0941,-9.31,-36.81,-2.31,147.67,-84.6,58.64
52.828754,-1.651825,114.23,11.84,4,331.55,24 / 24,284912,2019-11-06 11:50:38:793,-1.1966,-0.9704,10.0294,0.0187,0.0056,9.8066,0.0309,0.2096,-0.0886,-9.06,-36.5,-2.37,149.43,-84.5,61.09
52.828754,-1.651825,114.23,11.84,4,331.55,24 / 24,285012,2019-11-06 11:50:38:893,-0.899,-1.5746,8.9616,0.0172,0.007,9.8066,0.032,-0.0148,0.0359,-8.5,-36.87,-2.87,147.26,-84.48,64.9
52.828754,-1.651825,114.23,11.84,4,331.55,24 / 24,285112,2019-11-06 11:50:38:993,0.363,0.9443,9.5808,0.0029,-0.0342,9.8065,0.0675,0.1522,-0.1529,-8.5,-37.37,-1.75,152.65,-84.59,65.57
52.828754,-1.651825,114.23,11.84,4,331.55,24 / 24,285212,2019-11-06 11:50:39:093,-2.0673,-0.5736,9.9664,-0.0183,0.0062,9.8065,-0.0351,0.0524,-0.0099,-8.81,-37.12,-2.12,153.25,-84.57,66.04
52.828754,-1.651825,114.23,11.84,4,331.55,24 / 24,285312,2019-11-06 11:50:39:193,0.0334,-3.167,10.4134,-0.0209,0.0046,9.8066,0.1152,-0.2588,0.124,-9.06,-36.31,-2.06,152.28,-84.63,65.11
52.828754,-1.651825,114.23,11.84,4,331.55,24 / 24,285412,2019-11-06 11:50:39:293,-0.1628,-0.561,10.0214,0.0318,0.0077,9.8065,0.0147,0.0257,-0.0173,-9.31,-35.94,-1.62,153.19,-84.88,66.75
52.828754,-1.651825,114.23,11.84,4,331.55,23 / 23,285513,2019-11-06 11:50:39:394,0.3652,0.3664,10.3275,0.0099,0.0532,9.8064,-0.0699,-0.2317,0.1314,-9.31,-35.5,-2.56,148,-84.95,66.62
52.828754,-1.651825,114.23,11.84,4,331.55,23 / 23,285612,2019-11-06 11:50:39:493,0.3144,0.8821,10.823,0.0027,0.0555,9.8065,-0.0208,0.2702,-0.2113,-8.87,-36.44,-3.44,150.38,-84.61,68.78
52.828754,-1.651825,114.23,11.84,4,331.55,23 / 23,285712,2019-11-06 11:50:39:593,-0.7572,0.5335,9.7141,0.0184,0.0677,9.8063,-0.0729,-0.1575,0.0726,-8.12,-35.44,-3,151.96,-84.44,71.88
52.828754,-1.651825,114.23,11.84,4,331.55,23 / 23,285812,2019-11-06 11:50:39:693,1.2263,-4.7913,10.2044,0.0008,0.0634,9.8064,-0.1259,0.377,-0.2035,-9.31,-36.5,-2.75,153.14,-84.38,72.01
52.828754,-1.651825,114.23,11.84,4,331.55,23 / 23,285911,2019-11-06 11:50:39:792,0.0166,-0.2863,9.4553,0.0002,0.0097,9.8065,0.0367,0.0293,-0.0334,-8.69,-37.25,-2.94,154.2,-84.44,73.27
52.828754,-1.651825,114.23,11.84,4,331.55,23 / 23,286012,2019-11-06 11:50:39:893,0.9689,-2.3373,9.7946,-0.0219,0.0253,9.8065,0.0862,-0.1698,0.0724,-9.19,-37.69,-2.5,159.35,-84.45,73.88
52.828754,-1.651825,114.23,11.84,4,331.55,23 / 23,286112,2019-11-06 11:50:39:993,1.2026,-0.8023,9.2058,-0.0121,-0.0287,9.8065,-0.0128,0.0707,-0.0701,-9.12,-36.69,-2,159.42,-84.62,74.43
52.828754,-1.651825,114.23,11.84,4,331.55,23 / 23,286212,2019-11-06 11:50:40:093,1.9164,-1.5776,9.5065,-0.0189,0.0023,9.8066,0.0022,-0.0195,0.0149,-9.56,-37.44,-1.94,157.43,-84.71,71.45
52.828754,-1.651825,114.23,11.84,4,331.55,23 / 23,286312,2019-11-06 11:50:40:193,-0.5889,-1.028,9.1633,0.0064,-0.0097,9.8066,-0.1351,0.023,-0.0257,-9.37,-36.19,-1.87,154.72,-84.74,68.54
52.828754,-1.651825,114.23,11.84,4,331.55,23 / 23,286412,2019-11-06 11:50:40:293,1.0653,-0.7523,9.4346,-0.0304,-0.0235,9.8065,-0.0346,0.0336,-0.0076,-9.19,-36.31,-2.19,152.4,-84.71,65.43
52.828754,-1.651825,114.23,11.84,4,331.55,23 / 23,286512,2019-11-06 11:50:40:393,1.3292,-2.1322,10.3281,0.0042,-0.012,9.8066,-0.0703,0.0667,-0.0924,-8.81,-34.69,-2.37,149.97,-84.67,62.42
52.828754,-1.651825,114.23,11.84,4,331.55,23 / 23,286612,2019-11-06 11:50:40:493,1.0866,0.5849,9.8186,0.0081,-0.0054,9.8066,-0.0059,0.1926,-0.0215,-8.37,-34.31,-3.44,144.44,-84.6,62.53
52.828754,-1.651825,114.23,11.84,4,331.55,23 / 23,286712,2019-11-06 11:50:40:593,0.3135,-0.8988,9.9942,0.0037,-0.0145,9.8066,-0.0107,-0.0008,-0.085,-8.19,-34.5,-2.69,143.88,-84.63,61.86
52.828754,-1.651825,114.23,11.84,4,331.55,23 / 23,286812,2019-11-06 11:50:40:693,-0.6902,0.8468,10.0508,-0.0108,-0.0226,9.8066,0.0034,0.21,-0.0528,-9.75,-35.25,-2.56,145.74,-84.58,62.28
52.828754,-1.651825,114.23,11.84,4,331.55,23 / 23,286912,2019-11-06 11:50:40:793,0.1997,-1.7227,10.1582,-0.0075,0.0349,9.8065,0.0499,-0.317,0.1701,-10,-35.37,-2.94,146.09,-84.4,62.39
52.828754,-1.651825,114.23,11.84,4,331.55,23 / 23,287012,2019-11-06 11:50:40:893,-0.2016,1.8781,10.7557,0.0131,-0.02,9.8065,0.0214,-0.0777,0.0179,-9.19,-37.37,-2.94,146.03,-84.6,62.72
52.828754,-1.651825,114.23,11.84,4,331.55,23 / 23,287112,2019-11-06 11:50:40:993,-0.3778,-1.7043,9.439,-0.0062,0.0568,9.8064,-0.0647,-0.3612,0.2786,-9.44,-37.19,-2.06,151.03,-84.42,62.78
52.828754,-1.651825,114.23,11.84,4,331.55,23 / 23,287212,2019-11-06 11:50:41:093,-0.9122,-2.4223,9.9864,-0.0212,0.0146,9.8066,0.0635,0.1247,0.0038,-10,-36.87,-2.25,148.36,-84.63,59.51
52.828754,-1.651825,114.23,11.84,4,331.55,23 / 23,287312,2019-11-06 11:50:41:193,0.8838,-1.5276,10.929,-0.02,-0.0062,9.8066,0.1358,-0.1233,-0.0698,-9.62,-37.37,-2.31,148.84,-84.72,60.3
52.828754,-1.651825,114.23,11.84,4,331.55,23 / 23,287412,2019-11-06 11:50:41:293,-0.4735,-1.9815,8.4861,-0.0169,0.0314,9.8065,0.0719,0.0701,-0.0306,-9.69,-37.5,-2.81,143.72,-84.71,59.37
52.828754,-1.651825,114.23,11.84,4,331.55,24 / 24,287512,2019-11-06 11:50:41:393,-1.6121,-1.1625,9.7141,-0.0016,-0.0081,9.8066,0.0235,0.0101,-0.1276,-9.81,-37.25,-2.81,141.23,-84.7,56.19
52.828754,-1.651825,114.23,11.84,4,331.55,24 / 24,287612,2019-11-06 11:50:41:493,-1.1858,-1.7617,8.8395,0.0069,0.0105,9.8066,0.093,-0.0667,0.0186,-10.25,-37.37,-2,147.62,-84.71,58.7
52.828754,-1.651825,114.23,11.84,4,331.55,24 / 24,287712,2019-11-06 11:50:41:593,2.2902,-1.971,9.197,0.0152,-0.0051,9.8065,0.0059,0.0067,-0.034,-10.44,-36.87,-2.06,148.86,-84.93,60.72
52.828754,-1.651825,114.23,11.84,4,331.55,24 / 24,287812,2019-11-06 11:50:41:693,-0.7029,-1.4346,10.6099,0.0173,-0.0046,9.8066,-0.0341,-0.0483,-0.0072,-10.12,-36.06,-2.19,150.26,-84.91,62.73
52.828754,-1.651825,114.23,11.84,4,331.55,24 / 24,287912,2019-11-06 11:50:41:793,1.4014,-1.3374,9.9511,-0.0148,0.0182,9.8066,0.0113,-0.1316,-0.0131,-9.69,-35.75,-2.87,145.79,-84.85,62.57
52.828754,-1.651825,114.23,11.84,4,331.55,24 / 24,288012,2019-11-06 11:50:41:893,-0.2883,-1.5178,10.3468,-0.0151,0.0032,9.8066,-0.1057,0.1153,-0.0469,-9.56,-37.31,-3.44,146.09,-84.62,62.2
52.828754,-1.651825,114.23,11.84,4,331.55,24 / 24,288112,2019-11-06 11:50:41:993,-0.1216,0.5666,9.8443,0.009,0.0141,9.8065,-0.0497,0.0431,-0.0903,-10,-37.12,-3.44,146.33,-84.4,62.08
52.828754,-1.651825,114.23,11.84,4,331.55,24 / 24,288212,2019-11-06 11:50:42:093,-0.3168,-1.0376,9.9466,0.0093,0.0273,9.8065,0.073,0.1464,-0.0772,-8.94,-37.56,-3.44,147.51,-84.38,63.9
52.828754,-1.651825,114.23,11.84,4,331.55,24 / 24,288312,2019-11-06 11:50:42:193,0.4992,0.6949,9.7917,0.009,-0.0032,9.8066,-0.076,0.052,-0.0976,-10.12,-37.37,-2.81,149.27,-84.57,66.21
52.828754,-1.651825,114.23,11.84,4,331.55,24 / 24,288412,2019-11-06 11:50:42:293,0.9452,-1.2366,9.6785,-0.0071,0.0239,9.8066,-0.04,0.1268,-0.039,-9.87,-37.25,-3,148.53,-84.42,64.98
52.828754,-1.651825,114.23,11.84,4,331.55,24 / 24,288512,2019-11-06 11:50:42:393,1.1309,-1.4531,9.909,0.0076,-0.0113,9.8066,-0.0551,0.062,-0.1096,-9.94,-37.25,-3.44,146.41,-84.52,62.42
52.828754,-1.651825,114.23,11.84,4,331.55,24 / 24,288612,2019-11-06 11:50:42:493,0.7572,-1.61,9.3966,0.0051,0.0169,9.8065,0.0561,0.0988,-0.0048,-10.25,-36.75,-2.56,146.9,-84.51,63.03
52.828754,-1.651825,114.23,11.84,4,331.55,24 / 24,288712,2019-11-06 11:50:42:593,2.4083,0.7443,9.4164,0.016,-0.0304,9.8065,0.0011,0.1164,-0.1231,-10.69,-36.94,-2.37,150.71,-84.9,62.83
52.828754,-1.651825,114.23,11.84,4,331.55,24 / 24,288812,2019-11-06 11:50:42:693,0.1835,-0.6788,10.1094,0.0078,-0.002,9.8065,0.005,0.0683,0.0043,-10.31,-36.75,-3.06,147.42,-84.94,64.53
52.828754,-1.651825,114.23,11.84,4,331.55,24 / 24,288912,2019-11-06 11:50:42:793,0.6783,0.5613,9.6637,-0.0112,-0.0446,9.8065,-0.0785,0.1284,-0.1082,-9.87,-36.06,-3,144.91,-85.31,62.36
52.828754,-1.651825,114.23,11.84,4,331.55,24 / 24,289012,2019-11-06 11:50:42:893,-0.4727,-1.2884,10.0896,-0.0141,-0.0147,9.8066,0.0146,-0.0857,0.0712,-10,-35.94,-3.31,143.17,-85.23,60.06
52.828754,-1.651825,114.23,11.84,4,331.55,24 / 24,289112,2019-11-06 11:50:42:993,2.1946,-2.7339,9.7554,0.0043,-0.0291,9.8066,0.0528,0.0542,-0.0915,-10.5,-37.25,-3,143.32,-85.28,60.07
52.828754,-1.651825,114.23,11.84,4,331.55,24 / 24,289212,2019-11-06 11:50:43:093,-0.4929,-1.5581,9.5986,0.0187,-0.0193,9.8065,0.0104,0.1995,-0.1383,-10.81,-37.75,-2.94,145.1,-85.44,61.71
52.828754,-1.651825,114.23,11.84,4,331.55,24 / 24,289311,2019-11-06 11:50:43:192,1.8852,-2.4623,10.3028,0.0001,-0.0107,9.8066,0.0654,-0.0807,0.0296,-10.12,-37.87,-2.87,146.45,-85.42,63.98
52.828754,-1.651825,114.23,11.84,4,331.55,24 / 24,289411,2019-11-06 11:50:43:292,-0.2507,0.0624,9.9581,0.01,-0.0234,9.8066,-0.0172,-0.1542,0.1047,-10.62,-38.37,-3,146.92,-85.51,64.06
52.829662,-1.652532,114.76,12.58,4,338.61,22 / 22,289512,2019-11-06 11:50:43:393,2.5518,-1.715,9.3818,0.0044,0.0009,9.8066,-0.0286,-0.1207,0.0547,-10.62,-38.62,-3.5,147.18,-85.36,63.89
52.829662,-1.652532,114.76,12.58,4,338.61,22 / 22,289612,2019-11-06 11:50:43:493,1.1964,0.7239,9.7302,-0.0077,-0.0119,9.8066,-0.0107,-0.1825,0.0886,-11,-39.5,-3.25,146.45,-85.31,62.9
52.829662,-1.652532,114.76,12.58,4,338.61,22 / 22,289712,2019-11-06 11:50:43:593,-0.059,-2.0289,9.8782,0.0042,0.0164,9.8066,0.0387,-0.1043,0.0656,-10.44,-39.06,-2.94,146.82,-85.3,63.95
52.829662,-1.652532,114.76,12.58,4,338.61,22 / 22,289812,2019-11-06 11:50:43:693,0.5974,0.0567,10.3323,-0.0033,-0.0215,9.8065,-0.0615,-0.267,0.101,-10.69,-38.5,-2.56,147.67,-85.29,64.59
52.829662,-1.652532,114.76,12.58,4,338.61,22 / 22,289912,2019-11-06 11:50:43:793,-0.1761,-4.5552,9.1461,-0.0067,0.0288,9.8065,-0.0856,-0.1722,0.2239,-10.62,-38.94,-3.69,142.77,-85.22,63.17
52.829662,-1.652532,114.76,12.58,4,338.61,22 / 22,290012,2019-11-06 11:50:43:893,2.9815,1.35,10.9809,-0.0203,-0.0587,9.8064,0.113,0.1312,-0.2447,-10.12,-37.44,-3.31,142.96,-85.33,59.74
52.829662,-1.652532,114.76,12.58,4,338.61,22 / 22,290112,2019-11-06 11:50:43:993,2.224,-0.9233,10.6848,-0.0181,-0.0086,9.8066,0.1763,-0.1148,-0.0344,-10.62,-37.81,-3.87,141.29,-85.07,61.31
52.829662,-1.652532,114.76,12.58,4,338.61,22 / 22,290212,2019-11-06 11:50:44:093,0.3077,1.1492,9.6268,0.0229,-0.0171,9.8066,0.0659,-0.1747,-0.0564,-10.37,-37.5,-2.87,147.48,-85.07,64.84
52.829662,-1.652532,114.76,12.58,4,338.61,22 / 22,290312,2019-11-06 11:50:44:193,-0.7743,-0.0394,10.2079,0.0111,0.0584,9.8064,-0.0097,-0.2442,0.2223,-10.44,-37.81,-3.06,148.25,-85,65.43
52.829662,-1.652532,114.76,12.58,4,338.61,22 / 22,290412,2019-11-06 11:50:44:293,0.7096,1.093,10.0835,0.0015,-0.0026,9.8066,0.0509,-0.2254,0.0533,-10,-37.56,-2.87,149.99,-84.89,67.45
52.829662,-1.652532,114.76,12.58,4,338.61,24 / 24,290512,2019-11-06 11:50:44:393,0.5193,-1.283,9.5646,-0.0078,0.0428,9.8065,0.0166,-0.2572,0.1271,-10.19,-37.37,-3.19,150.77,-84.63,68.24
52.829662,-1.652532,114.76,12.58,4,338.61,24 / 24,290612,2019-11-06 11:50:44:493,-0.0848,-4.6147,10.0353,0.0138,0.0178,9.8065,-0.0137,0.1091,-0.1532,-10.25,-37.25,-2.31,154.61,-84.72,67.79
52.829662,-1.652532,114.76,12.58,4,338.61,24 / 24,290712,2019-11-06 11:50:44:593,-0.5167,-2.173,8.6489,0.0104,0.0586,9.8065,-0.1301,-0.138,0.2173,-10.06,-36.81,-2.69,149.78,-84.59,66.9
52.829662,-1.652532,114.76,12.58,4,338.61,24 / 24,290812,2019-11-06 11:50:44:693,1.3853,-0.404,11.27,0.0066,-0.026,9.8066,-0.1592,-0.0557,0.0204,-9.56,-37.12,-3.31,147.81,-84.78,64.72
52.829662,-1.652532,114.76,12.58,4,338.61,24 / 24,290912,2019-11-06 11:50:44:793,-0.0003,-1.0188,9.5033,-0.0056,0.0341,9.8065,0.0359,-0.1323,0.1397,-10.19,-37.37,-3.37,147.62,-84.91,64.72
52.829662,-1.652532,114.76,12.58,4,338.61,24 / 24,291012,2019-11-06 11:50:44:893,0.6628,0.6628,9.7319,-0.0024,-0.0319,9.8065,0.007,-0.1454,0.0113,-10.25,-37.19,-3.44,147.67,-84.84,64.66
52.829662,-1.652532,114.76,12.58,4,338.61,24 / 24,291112,2019-11-06 11:50:44:993,1.4661,-2.2133,10.2591,-0.0039,0.038,9.8065,0.0491,-0.1971,0.1214,-9.81,-38,-2.94,148.92,-84.58,65.5
52.829662,-1.652532,114.76,12.58,4,338.61,24 / 24,291212,2019-11-06 11:50:45:093,0.6685,2.3654,9.6123,-0.0051,0.0081,9.8066,0.0158,-0.3264,0.1021,-10.06,-37.19,-2.87,148.65,-84.55,65.36
52.829662,-1.652532,114.76,12.58,4,338.61,24 / 24,291312,2019-11-06 11:50:45:193,-0.7099,-1.798,9.2363,-0.0181,0.0624,9.8064,0.1097,-0.4035,0.3129,-9.87,-36.69,-3.19,149.12,-84.39,65.69
52.829662,-1.652532,114.76,12.58,4,338.61,24 / 24,291412,2019-11-06 11:50:45:293,-0.8519,2.1121,9.4297,-0.0201,-0.0466,9.8065,0.0239,-0.4086,0.2301,-9.75,-37.06,-3.25,147.51,-84.61,64.01
52.829662,-1.652532,114.76,12.58,4,338.61,24 / 24,291512,2019-11-06 11:50:45:393,0.3339,-3.4478,9.215,-0.0172,0.046,9.8064,0.0631,-0.5049,0.309,-9.5,-37.25,-3.25,146.07,-84.7,63
52.829662,-1.652532,114.76,12.58,4,338.61,24 / 24,291612,2019-11-06 11:50:45:493,-0.156,-0.5253,10.6705,-0.006,-0.0336,9.8065,0.0144,0.0465,-0.1784,-10.19,-37.75,-3.19,145.47,-84.82,61.52
52.829662,-1.652532,114.76,12.58,4,338.61,24 / 24,291711,2019-11-06 11:50:45:592,-0.0111,0.0474,10.0269,0.0045,-0.0416,9.8066,0.0051,0.4987,-0.2482,-9.81,-37.25,-3.06,144.58,-84.89,60.83
52.829662,-1.652532,114.76,12.58,4,338.61,24 / 24,291812,2019-11-06 11:50:45:693,1.1541,2.6644,9.5629,0.015,-0.0774,9.8062,-0.0462,-0.1648,0.003,-10,-37.12,-3.25,144.33,-85.02,60.78
52.829662,-1.652532,114.76,12.58,4,338.61,24 / 24,291912,2019-11-06 11:50:45:793,0.7925,-6.4876,11.3727,0.0102,-0.0296,9.8065,-0.1958,0.7766,-0.3144,-10.31,-37.62,-2.81,145.95,-85.07,62.66
52.829662,-1.652532,114.76,12.58,4,338.61,24 / 24,292012,2019-11-06 11:50:45:893,0.2434,4.6164,10.011,0.013,-0.0701,9.8064,-0.0351,0.5714,-0.3249,-10.44,-37.31,-3.75,140.65,-85.08,61.77
52.829662,-1.652532,114.76,12.58,4,338.61,24 / 24,292112,2019-11-06 11:50:45:993,1.1136,-1.6224,9.0964,0.0245,0.0795,9.8063,0.0093,-0.1246,0.1674,-10.44,-37.62,-2.94,142.19,-85.3,58.43
52.829662,-1.652532,114.76,12.58,4,338.61,24 / 24,292212,2019-11-06 11:50:46:093,1.1256,-8.0891,10.0007,-0.0287,0.0582,9.8064,0.0313,0.5296,-0.3704,-10.25,-36.87,-3.56,138.91,-85.1,59.68
52.829662,-1.652532,114.76,12.58,4,338.61,24 / 24,292312,2019-11-06 11:50:46:193,-1.3654,-3.0225,10.687,0.0164,0.0822,9.8062,0.1037,-0.7206,0.36,-11,-37.44,-3.69,141.39,-85.18,61.92
52.829662,-1.652532,114.76,12.58,4,338.61,24 / 24,292412,2019-11-06 11:50:46:293,0.6452,-6.4539,10.06,0.0196,-0.0788,9.8062,-0.0259,-0.2093,0.1269,-10.94,-36.56,-3.12,146.29,-85.11,62.81
52.829662,-1.652532,114.76,12.58,4,338.61,23 / 23,292512,2019-11-06 11:50:46:393,-0.4074,1.6673,9.6813,0.0083,-0.0655,9.8063,-0.0219,0.3963,-0.2953,-10.12,-37.25,-3.5,142.86,-85.56,60.09
52.829662,-1.652532,114.76,12.58,4,338.61,23 / 23,292612,2019-11-06 11:50:46:493,0.6908,3.1791,9.461,-0.0208,0.0573,9.8064,0.1142,-0.4574,0.2815,-10.5,-36.81,-3.25,146.54,-84.77,63.07
52.829662,-1.652532,114.76,12.58,4,338.61,23 / 23,292712,2019-11-06 11:50:46:593,-0.0505,1.9958,10.0243,0.0046,-0.0199,9.8066,0.0961,-0.1087,0.0743,-10.12,-36.06,-3.31,146.02,-84.95,63.04
52.829662,-1.652532,114.76,12.58,4,338.61,23 / 23,292812,2019-11-06 11:50:46:693,0.7029,-3.2469,9.4648,0.0116,0.0392,9.8065,0.0525,-0.3846,0.2909,-9.75,-36.31,-2.75,149.24,-84.96,67.11
52.829662,-1.652532,114.76,12.58,4,338.61,23 / 23,292912,2019-11-06 11:50:46:793,0.3583,-1.1891,9.5914,0.0045,-0.0123,9.8066,0.0161,-0.0426,0.1238,-10.75,-37.12,-3.62,147.35,-85.17,69.16
52.829662,-1.652532,114.76,12.58,4,338.61,23 / 23,293012,2019-11-06 11:50:46:893,0.5986,-4.821,8.7462,-0.0096,0.0551,9.8064,-0.0948,-0.486,0.2108,-10.44,-36.87,-2.75,150.41,-84.88,68.22
52.829662,-1.652532,114.76,12.58,4,338.61,23 / 23,293111,2019-11-06 11:50:46:992,-1.3241,-0.7792,10.1092,-0.0196,0.0637,9.8064,-0.0645,0.2536,-0.015,-10.19,-37.37,-3.25,148.29,-84.85,65.46
52.829662,-1.652532,114.76,12.58,4,338.61,23 / 23,293212,2019-11-06 11:50:47:093,-0.6783,2.7749,9.2639,-0.0086,0.0684,9.8064,-0.0322,-0.2356,0.0105,-10.5,-36.69,-3.56,144.64,-84.51,65.58
52.829662,-1.652532,114.76,12.58,4,338.61,23 / 23,293312,2019-11-06 11:50:47:193,0.0846,1.7866,9.4272,-0.0233,0.0818,9.8062,0.0178,0.3488,-0.2329,-9.69,-36.75,-3.87,146.25,-84.24,67.13
52.829662,-1.652532,114.76,12.58,4,338.61,23 / 23,293413,2019-11-06 11:50:47:294,-0.4136,1.8609,10.3799,-0.001,0.0424,9.8065,-0.0157,-0.1095,0.0505,-9.69,-36.87,-3,151.02,-84.36,68.11
52.829662,-1.652532,114.76,12.58,4,338.61,23 / 24,293511,2019-11-06 11:50:47:392,0.9605,-4.1915,9.3523,0.0011,0.0791,9.8063,-0.0545,-0.4152,0.2976,-10.19,-36.56,-3.37,152.05,-84.02,68.9
52.829662,-1.652532,114.76,12.58,4,338.61,23 / 24,293612,2019-11-06 11:50:47:493,-0.2463,1.7958,9.6943,-0.0124,-0.0034,9.8065,-0.0775,0.2996,-0.0348,-9.56,-36.87,-3.5,149.28,-84.09,65.37
52.829662,-1.652532,114.76,12.58,4,338.61,23 / 24,293712,2019-11-06 11:50:47:593,-0.0221,-4.0026,9.6233,-0.0169,0.0157,9.8065,-0.0172,0.3459,-0.142,-10,-36.5,-3.87,143.84,-84.14,64.14
52.829662,-1.652532,114.76,12.58,4,338.61,23 / 24,293812,2019-11-06 11:50:47:693,-0.2507,-0.4788,10.2676,0.009,-0.0733,9.8064,-0.0138,0.338,-0.176,-9.12,-35.69,-4.31,139.6,-84.62,60.84
52.829662,-1.652532,114.76,12.58,4,338.61,23 / 24,293912,2019-11-06 11:50:47:793,-1.574,-2.6223,10.7171,0.017,0.0178,9.8065,0.0754,0.2117,-0.0724,-9.19,-35.5,-3.69,140.14,-84.6,61.83
52.829662,-1.652532,114.76,12.58,4,338.61,23 / 24,294012,2019-11-06 11:50:47:893,-2.0846,2.7889,9.5958,0.0302,-0.0286,9.8065,-0.1013,0.4558,-0.2576,-9.06,-34.5,-2.69,144.14,-84.62,61.33
52.829662,-1.652532,114.76,12.58,4,338.61,23 / 24,294112,2019-11-06 11:50:47:993,-0.7233,-0.8448,11.5356,-0.0042,0.0065,9.8066,-0.023,0.5099,-0.2122,-8.69,-35,-2.44,150.71,-84.65,63.37
52.829662,-1.652532,114.76,12.58,4,338.61,23 / 24,294212,2019-11-06 11:50:48:093,-1.2022,5.324,12.3881,-0.0094,-0.0761,9.8063,0.1945,0.6344,-0.429,-9.19,-35.69,-2.19,153.93,-84.88,67.73
52.829662,-1.652532,114.76,12.58,4,338.61,23 / 24,294312,2019-11-06 11:50:48:193,-4.1086,0.8836,8.7881,0.0462,-0.0096,9.8065,0.2688,-0.2717,0.0881,-8.81,-35.31,-1.62,158.28,-84.67,73.39
52.829662,-1.652532,114.76,12.58,4,338.61,23 / 24,294411,2019-11-06 11:50:48:292,0.2128,-2.6756,10.8298,0.0292,-0.0114,9.8066,-0.0164,0.0602,-0.0046,-10.12,-35.94,-1.37,166.08,-84.56,77.16
52.829662,-1.652532,114.76,12.58,4,338.61,23 / 23,294512,2019-11-06 11:50:48:393,-1.2822,-0.9406,9.2472,0.0004,-0.0486,9.8065,-0.0753,0.4242,-0.1876,-10.75,-35.5,-1.25,165.41,-84.58,76.34
52.829662,-1.652532,114.76,12.58,4,338.61,23 / 23,294611,2019-11-06 11:50:48:492,-1.131,-3.8382,9.3096,-0.0062,0.0277,9.8066,-0.0429,-0.1991,0.134,-11.12,-34.94,-2.94,156.88,-84.08,75.1
52.829662,-1.652532,114.76,12.58,4,338.61,23 / 23,294711,2019-11-06 11:50:48:592,-1.5313,0.1006,9.1953,-0.0115,-0.0122,9.8066,0.0132,-0.0438,0.0353,-9.5,-35.12,-3.69,150.65,-83.98,74.22
52.829662,-1.652532,114.76,12.58,4,338.61,23 / 23,294812,2019-11-06 11:50:48:693,-1.0538,-2.4527,8.9931,-0.02,0.0498,9.8064,-0.04,-0.1907,0.246,-8.19,-35.94,-3.25,154.15,-83.59,73
52.829662,-1.652532,114.76,12.58,4,338.61,23 / 23,294912,2019-11-06 11:50:48:793,-0.9247,-0.0117,10.5901,-0.0166,-0.0027,9.8065,-0.1692,0.3424,-0.0452,-7.75,-35.5,-3,151.51,-83.75,69.92
52.829662,-1.652532,114.76,12.58,4,338.61,23 / 23,295012,2019-11-06 11:50:48:893,-2.1379,2.5523,9.7316,-0.0094,0.0114,9.8066,-0.004,0.0125,0.107,-8.37,-36.37,-2.81,149.85,-83.77,67.25
52.829662,-1.652532,114.76,12.58,4,338.61,23 / 23,295111,2019-11-06 11:50:48:992,-0.7324,-0.2851,10.3879,0.0019,0.0358,9.8065,0.0298,0.3849,-0.0941,-7.62,-35.69,-2.62,149.91,-83.84,67.48
52.829662,-1.652532,114.76,12.58,4,338.61,23 / 23,295212,2019-11-06 11:50:49:093,-0.6896,2.4802,9.82,0.0288,-0.0004,9.8066,-0.0245,0.2299,-0.0243,-8.31,-36.37,-2.5,156.18,-84.12,69.91
52.829662,-1.652532,114.76,12.58,4,338.61,23 / 23,295312,2019-11-06 11:50:49:193,-0.0739,-1.2534,9.6145,0.0214,0.0264,9.8065,-0.0005,-0.0173,0.1181,-7.25,-36.25,-2.19,156.81,-84.21,71.54
52.829662,-1.652532,114.76,12.58,4,338.61,23 / 23,295412,2019-11-06 11:50:49:293,-0.2453,1.5621,9.4549,0.0189,-0.0205,9.8066,-0.0776,0.3376,-0.0892,-7.56,-37.12,-2,158.04,-84.45,72.83
52.829662,-1.652532,114.76,12.58,4,338.61,23 / 23,295512,2019-11-06 11:50:49:393,0.156,-0.4878,9.8668,-0.0003,0.0176,9.8065,-0.0486,0.2571,-0.0542,-7.25,-36.12,-1.69,157.29,-84.36,72.51
52.829662,-1.652532,114.76,12.58,4,338.61,23 / 23,295612,2019-11-06 11:50:49:493,-0.3252,1.5646,10.066,-0.0083,-0.0145,9.8066,0.0138,0.2693,-0.1232,-7.31,-36.69,-1.5,163.31,-84.31,72.94
52.829662,-1.652532,114.76,12.58,4,338.61,23 / 23,295712,2019-11-06 11:50:49:593,-0.8382,-0.6917,10.3793,-0.0029,0.0123,9.8066,0.0371,0.2785,-0.1186,-7,-36.44,-2.37,158.07,-84.24,73.43
52.829662,-1.652532,114.76,12.58,4,338.61,23 / 23,295812,2019-11-06 11:50:49:693,-0.4384,1.3002,9.5614,0.0315,0.0101,9.8065,-0.0395,0.2815,-0.0582,-6.87,-36.44,-1.19,165.66,-84.21,76.55
52.829662,-1.652532,114.76,12.58,4,338.61,23 / 23,295912,2019-11-06 11:50:49:793,0.3067,-0.9849,10.3663,0.0231,0.0201,9.8065,-0.0135,0.294,-0.1036,-6.56,-37,-0.62,167.47,-84.13,79
52.829662,-1.652532,114.76,12.58,4,338.61,23 / 23,296012,2019-11-06 11:50:49:893,-0.368,0.6087,10.2204,0.0083,0.0067,9.8066,0.071,0.3367,-0.1022,-5.87,-36.69,-0.37,175.93,-83.87,83.28
52.829662,-1.652532,114.76,12.58,4,338.61,23 / 23,296112,2019-11-06 11:50:49:993,-0.517,1.9687,10.2336,0.0177,-0.0073,9.8065,-0.0563,0.2948,-0.0986,-6.06,-37.31,-0.62,171.68,-83.79,85.72
52.829662,-1.652532,114.76,12.58,4,338.61,23 / 23,296211,2019-11-06 11:50:50:092,-0.0273,0.8802,9.8663,0.0364,-0.0113,9.8065,-0.0066,0.2029,-0.033,-5.62,-36.5,0.31,178.06,-83.63,86.79
52.829662,-1.652532,114.76,12.58,4,338.61,23 / 23,296311,2019-11-06 11:50:50:192,-0.2503,0.5456,10.5122,0.0349,-0.0077,9.8065,0.0176,0.2129,0.0158,-5.12,-37.5,0.88,187.06,-83.68,91.35
52.829662,-1.652532,114.76,12.58,4,338.61,23 / 23,296411,2019-11-06 11:50:50:292,-0.1335,0.0765,9.9701,0.016,-0.0185,9.8065,0.0555,0.1676,-0.0568,-4.69,-37.12,0.63,188.9,-83.85,94.44
52.829662,-1.652532,114.76,12.58,4,338.61,23 / 23,296511,2019-11-06 11:50:50:392,0.2095,-1.1662,10.3777,0.0023,0.0023,9.8066,0.0205,0.1751,0.026,-4.94,-37.75,1.5,195.75,-83.82,95.78
52.829662,-1.652532,114.76,12.58,4,338.61,23 / 23,296612,2019-11-06 11:50:50:493,0.6332,0.232,10.0512,0.0172,-0.026,9.8066,0.0313,0.288,-0.0967,-5,-36.37,2,198.05,-83.99,98.69
52.829662,-1.652532,114.76,12.58,4,338.61,23 / 23,296711,2019-11-06 11:50:50:592,0.7279,2.1338,9.7803,0.008,-0.0141,9.8066,0.0168,0.0026,0.0868,-5.06,-37.75,2.13,198.22,-83.92,99.85
52.829662,-1.652532,114.76,12.58,4,338.61,23 / 23,296812,2019-11-06 11:50:50:693,-0.2195,-0.1379,10.012,0.0078,-0.0273,9.8065,-0.0174,0.1576,-0.0477,-4.75,-37.69,2.19,198.49,-84.01,100.1
52.829662,-1.652532,114.76,12.58,4,338.61,23 / 23,296912,2019-11-06 11:50:50:793,0.956,0.8635,9.7514,0.0041,-0.0085,9.8065,0.0608,-0.05,0.093,-4.31,-37.69,3.06,207.51,-84.08,101.75
52.829662,-1.652532,114.76,12.58,4,338.61,23 / 23,297012,2019-11-06 11:50:50:893,-0.8694,-1.2213,9.7086,0.0033,0.0084,9.8066,0.0667,0.1129,-0.0819,-4.31,-37.75,2.44,201.51,-84.02,103.79
52.829662,-1.652532,114.76,12.58,4,338.61,23 / 23,297112,2019-11-06 11:50:50:993,-0.1544,-1.0255,9.143,0.0032,0.005,9.8066,-0.0184,-0.0291,0.0142,-4.06,-37.31,2.75,208.55,-83.78,104.1
52.829662,-1.652532,114.76,12.58,4,338.61,23 / 23,297212,2019-11-06 11:50:51:093,0.289,-1.7031,9.6301,-0.023,-0.0014,9.8065,-0.0298,-0.1235,0.0976,-4.31,-37.5,3.06,206.85,-83.65,101.55
52.829662,-1.652532,114.76,12.58,4,338.61,23 / 23,297312,2019-11-06 11:50:51:193,-0.192,-1.7755,9.5539,-0.03,-0.007,9.8066,-0.0264,0.0038,0.0345,-4.56,-37.06,2.75,204.05,-83.94,98.83
52.829662,-1.652532,114.76,12.58,4,338.61,23 / 23,297412,2019-11-06 11:50:51:293,-1.7121,-2.9813,9.8827,0.0101,0.021,9.8065,-0.0286,-0.1088,0.0631,-4.06,-37.06,2.38,198.26,-84.08,97.13
52.829662,-1.652532,114.76,12.58,4,338.61,23 / 23,297512,2019-11-06 11:50:51:393,-0.1779,-2.4277,9.7872,0.0038,0.033,9.8065,0.0706,-0.2315,0.1186,-4.19,-37.31,2.56,204.66,-83.84,97.03
52.829662,-1.652532,114.76,12.58,4,338.61,23 / 23,297612,2019-11-06 11:50:51:493,1.2306,-0.9317,9.4318,0.0019,-0.0016,9.8066,0.0391,-0.0326,-0.0631,-4.25,-37.5,2.81,205.61,-83.88,98.59
52.829662,-1.652532,114.76,12.58,4,338.61,23 / 23,297713,2019-11-06 11:50:51:594,-0.7178,-2.9805,9.3049,0.0073,0.0415,9.8065,-0.0638,0.1439,-0.1659,-4.56,-37.81,2.63,203.07,-83.68,98.33
52.829662,-1.652532,114.76,12.58,4,338.61,23 / 23,297812,2019-11-06 11:50:51:693,0.9774,-1.2771,9.6806,-0.0267,0.0158,9.8066,-0.0739,0.0362,-0.0859,-4.06,-37.25,2.31,196.34,-83.52,94.92
52.829662,-1.652532,114.76,12.58,4,338.61,23 / 23,297912,2019-11-06 11:50:51:793,0.226,-2.102,9.7422,-0.0295,0.021,9.8066,-0.0361,-0.0877,-0.0049,-4.12,-38.06,1.69,194.29,-83.36,91.67
52.829662,-1.652532,114.76,12.58,4,338.61,23 / 23,298012,2019-11-06 11:50:51:893,0.8096,-0.7887,9.3136,-0.0063,-0.0329,9.8066,-0.0493,0.083,-0.17,-3.44,-37.12,2.44,194.62,-83.01,89.21
52.829662,-1.652532,114.76,12.58,4,338.61,23 / 23,298112,2019-11-06 11:50:51:993,2.2529,-1.5648,9.8371,-0.0032,-0.0231,9.8066,0.0232,-0.4438,0.1273,-4,-37.69,1.44,186.46,-83.03,89.6
52.829662,-1.652532,114.76,12.58,4,338.61,23 / 23,298211,2019-11-06 11:50:52:092,-0.5209,-5.7027,9.6742,-0.0057,0.0048,9.8066,0.0022,-0.2462,0.0265,-4.37,-37.25,1.94,192.93,-82.72,89.84
52.829662,-1.652532,114.76,12.58,4,338.61,23 / 23,298312,2019-11-06 11:50:52:193,-1.3016,-3.6506,9.6812,-0.044,-0.047,9.8064,-0.0933,-0.0129,-0.0933,-4.12,-37.37,1.38,185.36,-82.8,87.32
52.829662,-1.652532,114.76,12.58,4,338.61,23 / 23,298412,2019-11-06 11:50:52:293,1.3833,-5.9135,9.8144,-0.0593,0.0132,9.8064,-0.0242,0.1187,-0.1551,-4.87,-36.81,0.31,177.16,-82.74,84.53
52.83043,-1.653167,115.45,9.15,4,321.85,23 / 23,298511,2019-11-06 11:50:52:392,2.1731,-0.8876,8.924,0.0036,-0.0578,9.8065,0.0021,0.0363,-0.132,-5,-37.56,1.06,183.11,-83.22,84.51
52.83043,-1.653167,115.45,9.15,4,321.85,23 / 23,298612,2019-11-06 11:50:52:493,-0.0185,-5.3394,9.3896,-0.0148,0.02,9.8066,-0.0232,-0.1292,-0.0223,-5.81,-37.56,0.56,182.16,-83.26,84.27
52.83043,-1.653167,115.45,9.15,4,321.85,23 / 23,298712,2019-11-06 11:50:52:593,0.2555,-4.6861,9.5656,-0.024,-0.0002,9.8066,-0.0709,0.1425,-0.2184,-6.56,-37.5,-0.06,175.13,-83.39,82.2
52.83043,-1.653167,115.45,9.15,4,321.85,23 / 23,298812,2019-11-06 11:50:52:693,0.8754,-7.0301,9.1321,-0.0029,0.0649,9.8064,-0.0254,-0.3958,0.0112,-5.94,-37.25,-0.19,174.14,-83.63,80.16
52.83043,-1.653167,115.45,9.15,4,321.85,23 / 23,298912,2019-11-06 11:50:52:793,-0.7887,-4.8695,10.0255,-0.013,0.0304,9.8065,0.0073,-0.077,-0.059,-7.19,-37.69,-0.37,172.46,-83.4,77.81
52.83043,-1.653167,115.45,9.15,4,321.85,23 / 23,299012,2019-11-06 11:50:52:893,1.4488,1.0442,10.1782,-0.0011,0.0313,9.8065,0.042,-0.5981,0.349,-7.69,-37.81,-0.62,165.92,-83.4,75.56
52.83043,-1.653167,115.45,9.15,4,321.85,23 / 23,299111,2019-11-06 11:50:52:992,1.8517,-5.8062,9.2485,0.0147,0.0717,9.8064,0.0492,-0.311,-0.1059,-7.81,-38.37,-0.62,165.75,-83.6,75.53
52.83043,-1.653167,115.45,9.15,4,321.85,23 / 23,299212,2019-11-06 11:50:53:093,0.8994,-2.6447,9.6303,0.0241,-0.0072,9.8066,-0.0011,-0.5238,0.1903,-7.81,-36.75,-0.75,164.66,-83.9,74.46
52.83043,-1.653167,115.45,9.15,4,321.85,23 / 23,299312,2019-11-06 11:50:53:193,2.982,-5.44,9.3624,-0.005,0.0155,9.8065,0.0461,-0.4972,0.0091,-9.19,-38.06,-1.25,163.81,-84.08,73.3
52.83043,-1.653167,115.45,9.15,4,321.85,23 / 23,299412,2019-11-06 11:50:53:293,2.2551,-2.4344,8.7979,0.0058,-0.0315,9.8065,0.0335,-0.4427,0.0119,-10.12,-37.37,-1.81,155.7,-84.54,68.93
52.83043,-1.653167,115.45,9.15,4,321.85,24 / 24,299514,2019-11-06 11:50:53:395,2.55,-5.7946,9.6848,-0.0113,-0.0524,9.8065,0.0758,-0.6155,0.1841,-10.69,-38.06,-1.75,152.95,-84.78,65.27
52.83043,-1.653167,115.45,9.15,4,321.85,24 / 24,299612,2019-11-06 11:50:53:493,-0.405,-6.2944,8.8493,-0.0115,-0.0533,9.8065,-0.0668,-0.478,0.1537,-11.25,-37.87,-2.31,149.74,-85.09,61.71
52.83043,-1.653167,115.45,9.15,4,321.85,24 / 24,299712,2019-11-06 11:50:53:593,0.6372,-7.7205,9.4496,-0.0178,-0.0271,9.8066,-0.0324,-0.718,0.2772,-12.56,-37.75,-3.06,145.92,-84.99,60.99
52.83043,-1.653167,115.45,9.15,4,321.85,24 / 24,299812,2019-11-06 11:50:53:693,2.2128,-3.0425,9.7993,-0.0112,-0.0699,9.8064,-0.0165,-0.4647,0.1046,-12.69,-37.31,-2.62,144.97,-84.87,59.88
52.83043,-1.653167,115.45,9.15,4,321.85,24 / 24,299912,2019-11-06 11:50:53:793,0.6626,-5.3781,9.2126,-0.0041,-0.0038,9.8066,-0.048,-0.5015,0.1188,-13.19,-37.37,-3,141.54,-85.05,56.08
52.83043,-1.653167,115.45,9.15,4,321.85,24 / 24,300012,2019-11-06 11:50:53:893,0.4944,-4.635,9.1617,-0.0147,-0.0086,9.8066,-0.1014,-0.3496,0.008,-14.25,-37.06,-2.69,137.55,-85.12,51.19
52.83043,-1.653167,115.45,9.15,4,321.85,24 / 24,300112,2019-11-06 11:50:53:993,2.4648,-3.2069,9.445,-0.0051,-0.0325,9.8066,0.0408,-0.4289,-0.0841,-14.75,-37.69,-2.62,133.59,-85.2,46.32
52.83043,-1.653167,115.45,9.15,4,321.85,24 / 24,300212,2019-11-06 11:50:54:093,-0.3488,-6.8684,9.467,-0.0068,-0.0009,9.8066,0.0213,-0.213,-0.2003,-15.87,-37.12,-3.06,128.96,-85.01,40.81
52.83043,-1.653167,115.45,9.15,4,321.85,24 / 24,300312,2019-11-06 11:50:54:193,-1.1191,-4.6482,9.1978,-0.025,-0.045,9.8064,-0.0833,-0.2732,0.0127,-15.62,-37,-3.12,126.26,-84.9,37.6
52.83043,-1.653167,115.45,9.15,4,321.85,24 / 24,300412,2019-11-06 11:50:54:293,4.0302,-5.0746,10.0222,-0.0106,0.0004,9.8065,-0.0424,-0.1846,0.003,-16.56,-37.12,-2.87,126.82,-84.94,38.21
52.83043,-1.653167,115.45,9.15,4,321.85,24 / 24,300512,2019-11-06 11:50:54:393,0.0901,-5.0539,9.0001,0.0297,0.0214,9.8065,-0.0271,-0.1012,-0.2206,-17.12,-36.31,-3.31,128.66,-85.09,40.74
52.83043,-1.653167,115.45,9.15,4,321.85,24 / 24,300612,2019-11-06 11:50:54:493,3.6306,-4.5409,8.2111,0.0248,0.043,9.8065,-0.0955,-0.2868,-0.1174,-17.44,-36,-3.56,128.36,-85.16,43.84
52.83043,-1.653167,115.45,9.15,4,321.85,24 / 24,300712,2019-11-06 11:50:54:593,1.6488,-2.8905,9.7731,0.006,-0.0172,9.8066,0.0605,-0.3157,-0.0298,-17.87,-37.06,-3.81,125.61,-85.2,40.37
52.83043,-1.653167,115.45,9.15,4,321.85,24 / 24,300812,2019-11-06 11:50:54:693,0.0281,-2.7557,8.8494,-0.0284,-0.0338,9.8065,0.0517,-0.3286,0.1375,-18.5,-36.81,-3.5,122.48,-84.78,33.07
52.83043,-1.653167,115.45,9.15,4,321.85,24 / 24,300912,2019-11-06 11:50:54:793,3.2823,-3.1604,9.3229,-0.0369,-0.0025,9.8066,-0.0674,-0.1386,-0.0161,-19.5,-37.19,-3.87,117.02,-84.59,29.76
52.83043,-1.653167,115.45,9.15,4,321.85,24 / 24,301012,2019-11-06 11:50:54:893,0.3991,-1.9593,10.3463,-0.012,-0.0294,9.8065,-0.06,-0.4361,0.2413,-20,-36.31,-4.19,110.52,-84.83,23.3
52.83043,-1.653167,115.45,9.15,4,321.85,24 / 24,301112,2019-11-06 11:50:54:993,1.5772,-4.3807,9.1252,-0.027,-0.0151,9.8065,-0.0247,-0.155,0.128,-21.56,-36.62,-4.56,98.55,-84.8,12.91
52.83043,-1.653167,115.45,9.15,4,321.85,24 / 24,301212,2019-11-06 11:50:55:093,1.8001,-0.4543,8.233,-0.0189,-0.0215,9.8066,-0.0538,-0.3485,0.089,-22.06,-36.62,-4.25,91.29,-84.63,2.65
52.83043,-1.653167,115.45,9.15,4,321.85,24 / 24,301312,2019-11-06 11:50:55:193,2.091,-3.2389,9.1427,-0.0644,0.0037,9.8064,-0.1772,-0.2917,0.2628,-21.81,-36.25,-4.56,88.16,-84.09,1.45
52.83043,-1.653167,115.45,9.15,4,321.85,24 / 24,301412,2019-11-06 11:50:55:293,1.7315,0.869,9.2842,-0.0481,-0.0402,9.8064,-0.0687,-0.1708,0.182,-22.06,-36.44,-5.12,86.79,-83.06,-1.61
52.83043,-1.653167,115.45,9.15,4,321.85,24 / 24,301511,2019-11-06 11:50:55:392,1.9808,-2.4255,9.7553,-0.0098,0.0555,9.8064,-0.0003,-0.2298,0.0279,-21.87,-36.5,-5.37,90.45,-82.9,1.79
52.83043,-1.653167,115.45,9.15,4,321.85,24 / 24,301612,2019-11-06 11:50:55:493,2.7837,2.5857,9.0718,0.0321,0.0223,9.8065,0.0629,0.0126,-0.0638,-21.25,-36.81,-5.31,93.99,-82.86,5.05
52.83043,-1.653167,115.45,9.15,4,321.85,24 / 24,301712,2019-11-06 11:50:55:593,1.8545,1.7142,10.5178,-0.007,0.052,9.8064,0.0429,-0.1822,0.0628,-20.94,-36.75,-5.37,100.75,-82.92,12.14
52.83043,-1.653167,115.45,9.15,4,321.85,24 / 24,301812,2019-11-06 11:50:55:693,0.7117,2.803,10.4233,0.0312,-0.0276,9.8065,0.0656,0.0326,0.0456,-20.12,-37,-5.5,103.22,-83.16,15.27
52.83043,-1.653167,115.45,9.15,4,321.85,24 / 24,301912,2019-11-06 11:50:55:793,3.3262,0.92,10.6668,0.0355,0.0193,9.8065,0.1642,-0.103,0.0774,-19.69,-36.87,-5.69,103.03,-83.42,18.33
52.83043,-1.653167,115.45,9.15,4,321.85,24 / 24,302012,2019-11-06 11:50:55:893,2.9626,-0.681,9.5366,0.0272,-0.0475,9.8064,0.0796,0.1429,-0.1408,-19.69,-37.12,-4.69,105.09,-83.97,18.66
52.83043,-1.653167,115.45,9.15,4,321.85,24 / 24,302112,2019-11-06 11:50:55:993,2.9063,-1.8244,9.355,0.0062,-0.0367,9.8066,0.0574,-0.1714,0.2172,-19.62,-37.44,-5.06,106.36,-84.02,20.09
52.83043,-1.653167,115.45,9.15,4,321.85,24 / 24,302212,2019-11-06 11:50:56:093,1.2123,1.1247,9.8324,0.0034,-0.0716,9.8064,0.0106,0.2739,-0.2106,-19.5,-37.5,-4.81,109.25,-83.95,23.24
52.83043,-1.653167,115.45,9.15,4,321.85,24 / 24,302312,2019-11-06 11:50:56:193,0.9273,5.6141,10.7461,-0.0032,-0.052,9.8064,-0.0039,-0.2583,0.199,-19.12,-36.12,-4.06,111.34,-83.99,22.87
52.83043,-1.653167,115.45,9.15,4,321.85,24 / 24,302412,2019-11-06 11:50:56:293,1.5471,-3.3284,9.345,0.0027,-0.0821,9.8063,0.0469,-0.5597,0.4607,-18.62,-35.75,-3.69,111.19,-84.14,22.97
52.83043,-1.653167,115.45,9.15,4,321.85,24 / 24,302512,2019-11-06 11:50:56:393,2.1785,0.8649,10.178,0.0312,-0.1098,9.8059,-0.0711,0.1063,0.088,-18.5,-35.06,-4.62,109.47,-84.34,25
52.83043,-1.653167,115.45,9.15,4,321.85,24 / 24,302611,2019-11-06 11:50:56:492,3.2417,-3.245,11.7254,-0.002,-0.0184,9.8065,0.1063,-0.449,0.2686,-18.31,-35.44,-4.31,115.76,-84.29,28.57
52.83043,-1.653167,115.45,9.15,4,321.85,24 / 24,302712,2019-11-06 11:50:56:593,-0.2483,4.3296,9.5785,0.0468,-0.0539,9.8063,-0.097,0.508,-0.1103,-17.69,-35.62,-4.37,116.54,-84.68,29.81
52.83043,-1.653167,115.45,9.15,4,321.85,24 / 24,302812,2019-11-06 11:50:56:693,3.4353,3.4554,11.3728,-0.0034,0.0432,9.8065,-0.1559,0.093,0.0904,-16.69,-35.44,-4.81,114.31,-84.78,31.32
52.83043,-1.653167,115.45,9.15,4,321.85,24 / 24,302912,2019-11-06 11:50:56:793,2.41,4.0213,10.5921,0.0187,0.0626,9.8064,0.0778,0.4717,-0.1527,-16.69,-36.44,-5.37,117.35,-84.73,34.26
52.83043,-1.653167,115.45,9.15,4,321.85,24 / 24,303012,2019-11-06 11:50:56:893,-0.0328,3.9494,9.6028,0.0024,0.0671,9.8063,0.0514,-0.3682,0.2484,-16.75,-36.94,-5.19,118.48,-84.46,34.74
52.83043,-1.653167,115.45,9.15,4,321.85,24 / 24,303112,2019-11-06 11:50:56:993,-1.1669,-1.8321,9.5543,-0.0198,0.0919,9.8061,0.2496,0.149,-0.0859,-16.94,-37.31,-5.31,117.82,-84.27,33.67
52.83043,-1.653167,115.45,9.15,4,321.85,24 / 24,303212,2019-11-06 11:50:57:093,1.4879,3.5857,9.4328,0.0539,0.0175,9.8065,0.1445,-0.1465,0.0991,-16.5,-37.25,-4.5,124.18,-84.81,38.64
52.83043,-1.653167,115.45,9.15,4,321.85,24 / 24,303311,2019-11-06 11:50:57:192,0.7729,0.5697,10.5855,-0.0161,0.0112,9.8065,0.1082,-0.1985,0.1497,-16.31,-36.94,-4.87,120.72,-84.78,38.2
52.83043,-1.653167,115.45,9.15,4,321.85,24 / 24,303412,2019-11-06 11:50:57:293,0.8659,0.826,9.569,0.0226,-0.0487,9.8065,0.0665,0.1441,0.0671,-16.31,-37.44,-4.56,122.3,-84.7,39.8
52.83043,-1.653167,115.45,9.15,4,321.85,23 / 23,303512,2019-11-06 11:50:57:393,0.9355,-0.0046,10.2422,0.0104,0.0006,9.8066,-0.0057,-0.0012,0.0617,-16.19,-37.56,-3.87,125.25,-84.98,39.89
52.83043,-1.653167,115.45,9.15,4,321.85,23 / 23,303612,2019-11-06 11:50:57:493,2.9623,2.8638,10.1046,0.0183,-0.011,9.8065,-0.0127,0.0303,0.1186,-15.94,-37.62,-4,128.3,-84.96,43.29
52.83043,-1.653167,115.45,9.15,4,321.85,23 / 23,303712,2019-11-06 11:50:57:593,0.6922,-0.699,9.9395,0.0178,0.062,9.8064,0.0494,0.1788,-0.0389,-15,-37.19,-3.75,132.61,-84.82,48.51
52.83043,-1.653167,115.45,9.15,4,321.85,23 / 23,303812,2019-11-06 11:50:57:693,0.8251,2.1303,10.0414,0.0171,0.0298,9.8066,-0.0408,-0.0554,0.0845,-14.81,-38.12,-4.62,130.17,-84.98,49.45
52.83043,-1.653167,115.45,9.15,4,321.85,23 / 23,303912,2019-11-06 11:50:57:793,2.9263,-0.5941,10.5748,0.008,0.034,9.8065,0.1598,-0.0196,0.1133,-14.69,-37.37,-3.94,136.08,-84.84,52.55
52.83043,-1.653167,115.45,9.15,4,321.85,23 / 23,304012,2019-11-06 11:50:57:893,0.6969,1.2254,9.6099,0.0128,-0.0125,9.8066,0.0612,-0.0289,0.0014,-14.12,-37.62,-4,135.51,-85.18,52.7
52.83043,-1.653167,115.45,9.15,4,321.85,23 / 23,304112,2019-11-06 11:50:57:993,1.88,-2.1647,9.6963,-0.0029,0.0007,9.8066,0.0603,-0.2252,0.2236,-14.94,-37.62,-3.69,136.61,-85.16,53.47
52.83043,-1.653167,115.45,9.15,4,321.85,23 / 23,304212,2019-11-06 11:50:58:093,0.5009,1.6464,10.1859,0.0092,-0.0502,9.8065,-0.027,0.2532,-0.0509,-14.31,-37.31,-3.94,136.23,-85.21,53.82
52.83043,-1.653167,115.45,9.15,4,321.85,23 / 23,304312,2019-11-06 11:50:58:193,0.9402,4.6518,9.3092,0.0002,-0.0227,9.8066,0.0066,-0.1162,0.0764,-13.37,-37.5,-4.06,137.24,-85.02,55.21
52.83043,-1.653167,115.45,9.15,4,321.85,23 / 23,304413,2019-11-06 11:50:58:294,2.259,-1.2772,10.5037,0.0232,-0.0374,9.8065,0.0809,-0.2984,0.2615,-13.25,-37.31,-3.69,139.26,-84.85,57.3
52.83043,-1.653167,115.45,9.15,4,321.85,23 / 23,304512,2019-11-06 11:50:58:393,0.3976,4.2598,9.8938,0.0192,-0.0664,9.8063,0.0107,0.1052,-0.0713,-13.81,-37.12,-4.12,138.76,-85.16,56.67
52.83043,-1.653167,115.45,9.15,4,321.85,23 / 23,304612,2019-11-06 11:50:58:493,1.9426,-3.5381,10.1116,0.0134,-0.0057,9.8066,-0.1221,0.5937,-0.318,-13.75,-37.44,-4,140.42,-85.25,58.75
52.83043,-1.653167,115.45,9.15,4,321.85,23 / 23,304712,2019-11-06 11:50:58:593,0.2746,1.6846,9.6012,0.0223,-0.0622,9.8064,-0.0586,0.3138,-0.1474,-13,-38,-3.94,139.84,-85.32,58.57
52.83043,-1.653167,115.45,9.15,4,321.85,23 / 23,304811,2019-11-06 11:50:58:692,1.3934,-4.0784,10.0179,-0.015,0.0421,9.8065,-0.0034,-0.2204,-0.3266,-13.62,-38,-3.5,144,-85.14,58.59
52.83043,-1.653167,115.45,9.15,4,321.85,23 / 23,304911,2019-11-06 11:50:58:792,0.6238,1.6446,9.7348,0.0285,-0.0394,9.8065,-0.0425,0.487,-0.2548,-12.69,-37.62,-3.5,145.32,-85.05,60.36
52.83043,-1.653167,115.45,9.15,4,321.85,23 / 23,305011,2019-11-06 11:50:58:892,2.4592,-3.5823,10.0502,0.0004,0.0519,9.8064,-0.0185,0.3037,-0.1497,-13.12,-37.31,-4.25,144.82,-84.84,63.92
52.83043,-1.653167,115.45,9.15,4,321.85,23 / 23,305112,2019-11-06 11:50:58:993,1.1634,2.2352,10.3962,0.0129,-0.0351,9.8065,0.0275,0.3479,-0.1947,-13.19,-37.87,-3.31,147,-85.25,62.7
52.83043,-1.653167,115.45,9.15,4,321.85,23 / 23,305212,2019-11-06 11:50:59:093,1.1411,0.1339,10.2665,0.0121,0.0228,9.8065,-0.0062,0.0593,0.0272,-13.25,-37.87,-2.94,149.22,-85.5,65.73
52.83043,-1.653167,115.45,9.15,4,321.85,23 / 23,305312,2019-11-06 11:50:59:193,1.2057,2.4901,9.3272,0.0136,-0.0006,9.8066,-0.0527,0.3444,-0.1458,-13.37,-37.87,-2.69,149.04,-85.85,66.01
52.83043,-1.653167,115.45,9.15,4,321.85,23 / 23,305412,2019-11-06 11:50:59:293,1.4156,-1.2993,9.1973,-0.03,0.0464,9.8064,-0.0758,-0.0073,0.0497,-13.06,-37.06,-3.5,145.71,-86.15,62.73
52.83043,-1.653167,115.45,9.15,4,321.85,23 / 23,305513,2019-11-06 11:50:59:394,-0.0605,-1.8524,9.1096,-0.0197,0.0286,9.8065,-0.011,0.2379,-0.2386,-13.75,-37.25,-3.81,139.8,-85.86,59.02
52.83043,-1.653167,115.45,9.15,4,321.85,23 / 23,305612,2019-11-06 11:50:59:493,0.6763,1.8004,10.1088,0.0064,0.0397,9.8065,0.0234,0.1192,-0.0666,-13.56,-37.56,-3.94,140.54,-85.73,59.46
52.83043,-1.653167,115.45,9.15,4,321.85,23 / 23,305712,2019-11-06 11:50:59:593,0.6719,0.1351,10.2278,-0.0001,0.0155,9.8066,0.0091,0.1422,-0.1525,-13.25,-37.25,-3.44,142.74,-85.82,58.77
52.83043,-1.653167,115.45,9.15,4,321.85,23 / 23,305812,2019-11-06 11:50:59:693,1.2805,-0.2534,10.7143,0.0052,0.0207,9.8065,-0.0649,0.0064,-0.0305,-13.5,-37.81,-3.5,144.53,-85.93,60.84
52.83043,-1.653167,115.45,9.15,4,321.85,23 / 23,305912,2019-11-06 11:50:59:793,1.3229,-0.4036,10.7775,0.0153,0.0014,9.8066,0.0403,0.0758,-0.0285,-13.31,-37.31,-3.12,144.76,-86.01,61.42
52.83043,-1.653167,115.45,9.15,4,321.85,23 / 23,306012,2019-11-06 11:50:59:893,0.476,-0.3141,8.8895,0.0198,0.0265,9.8065,0.0463,-0.0073,-0.0823,-13.62,-37.62,-2.94,144.93,-85.92,60.85
52.83043,-1.653167,115.45,9.15,4,321.85,23 / 23,306113,2019-11-06 11:50:59:994,1.1061,0.4667,9.9095,0.0076,-0.0076,9.8065,0.0501,-0.1229,0.0378,-13.75,-37.69,-3.37,146.81,-85.88,62.98
52.83043,-1.653167,115.45,9.15,4,321.85,23 / 23,306212,2019-11-06 11:51:00:093,-0.8355,-1.8066,9.5994,-0.0061,-0.0329,9.8066,-0.1034,-0.0771,0.0729,-13.31,-37.69,-3.44,146.99,-85.73,63.42
52.83043,-1.653167,115.45,9.15,4,321.85,23 / 23,306312,2019-11-06 11:51:00:193,-0.4432,-8.2309,8.8042,-0.0048,0.0724,9.8063,0.191,-0.6712,0.3605,-12.75,-37.56,-3.12,149.32,-85.27,65.52
52.83043,-1.653167,115.45,9.15,4,321.85,23 / 23,306412,2019-11-06 11:51:00:293,1.2427,-0.154,9.1964,0.0291,-0.1136,9.8059,0.1013,-0.1445,0.3867,-12.94,-37.62,-3.94,141.88,-85.59,61.44
52.83043,-1.653167,115.45,9.15,4,321.85,23 / 23,306512,2019-11-06 11:51:00:393,0.1326,1.4235,8.6695,-0.0358,0.0426,9.8064,0.1918,-0.2843,-0.0448,-13.25,-37.5,-3.5,146.25,-84.92,61.51
52.83043,-1.653167,115.45,9.15,4,321.85,23 / 23,306612,2019-11-06 11:51:00:493,-0.3284,3.4204,10.8019,-0.0007,-0.0249,9.8066,0.0407,0.4409,-0.2887,-12.69,-37.31,-4,145.45,-84.95,64.84
52.83043,-1.653167,115.45,9.15,4,321.85,23 / 23,306712,2019-11-06 11:51:00:593,0.0328,-3.6738,9.7883,0.011,-0.005,9.8066,0.0287,0.1752,-0.2224,-13,-37.19,-3.94,147.64,-84.83,67.29
52.83043,-1.653167,115.45,9.15,4,321.85,23 / 23,306812,2019-11-06 11:51:00:693,0.58,-1.5417,9.9296,0.0055,-0.0571,9.8064,0.038,0.4006,-0.1984,-12,-37.69,-3.31,150.71,-84.98,67.28
52.83043,-1.653167,115.45,9.15,4,321.85,23 / 23,306912,2019-11-06 11:51:00:793,-0.2146,2.8753,10.2717,-0.0027,-0.0221,9.8065,-0.0495,0.299,-0.211,-12.06,-37.12,-3.75,147.34,-84.91,67.82
52.83043,-1.653167,115.45,9.15,4,321.85,23 / 23,307012,2019-11-06 11:51:00:893,0.6558,-1.0668,9.5357,-0.0062,-0.0554,9.8064,-0.076,0.2204,-0.1735,-12.44,-37.56,-3.87,144.99,-84.96,64.81
52.83043,-1.653167,115.45,9.15,4,321.85,23 / 23,307112,2019-11-06 11:51:00:993,-0.1682,1.3703,10.0155,-0.0162,-0.0388,9.8065,-0.0308,-0.1464,0.0672,-12.69,-37.12,-4.31,144.32,-84.75,63.18
52.83043,-1.653167,115.45,9.15,4,321.85,23 / 23,307212,2019-11-06 11:51:01:093,-0.7511,0.2539,9.844,-0.0112,-0.0216,9.8066,-0.0214,0.0826,-0.0293,-12.81,-37.06,-4.19,143.66,-84.63,62.19
52.83043,-1.653167,115.45,9.15,4,321.85,23 / 23,307312,2019-11-06 11:51:01:193,0.7412,1.2207,10.3745,0.0086,-0.0373,9.8065,-0.0112,-0.2088,0.128,-12.75,-36.31,-3.5,145.57,-84.74,60.63
52.83043,-1.653167,115.45,9.15,4,321.85,23 / 23,307412,2019-11-06 11:51:01:293,0.5682,-1.5119,9.5847,0.01,0.0027,9.8066,-0.0068,-0.0067,0.0693,-12.87,-37,-4,143.45,-84.81,62.22
52.831345,-1.653286,116.1,13.43,4,350.14,23 / 23,307512,2019-11-06 11:51:01:393,1.8477,-0.5973,9.4608,-0.0045,-0.0317,9.8066,-0.0466,-0.0871,0.0862,-12.44,-36.87,-3.81,141.92,-84.89,61.22
52.831345,-1.653286,116.1,13.43,4,350.14,23 / 23,307612,2019-11-06 11:51:01:493,-1.9931,-1.4925,9.971,-0.0152,-0.0158,9.8066,-0.0719,0.0059,-0.0646,-12.56,-36.87,-3.5,144.35,-84.75,58.94
52.831345,-1.653286,116.1,13.43,4,350.14,23 / 23,307711,2019-11-06 11:51:01:592,1.3762,0.4912,10.0193,-0.0187,0.0017,9.8066,-0.0599,-0.0395,0.0534,-12.19,-36.94,-3.75,139.89,-84.55,58.12
52.831345,-1.653286,116.1,13.43,4,350.14,23 / 23,307811,2019-11-06 11:51:01:692,1.4206,0.4513,9.9953,-0.0063,-0.002,9.8066,0.0143,0.0583,-0.0681,-12.25,-37.44,-3.12,144.48,-84.45,58.94
52.831345,-1.653286,116.1,13.43,4,350.14,23 / 23,307912,2019-11-06 11:51:01:793,-0.1693,-0.5754,10.4299,-0.0036,-0.0113,9.8066,-0.0399,-0.0927,0.0048,-12.37,-37.19,-3.62,140.94,-84.36,59.06
52.831345,-1.653286,116.1,13.43,4,350.14,23 / 23,308012,2019-11-06 11:51:01:893,1.964,-0.5553,9.3444,-0.0014,-0.006,9.8066,0.0227,-0.009,-0.0083,-11.81,-36.87,-3.56,141.44,-84.36,59.66
52.831345,-1.653286,116.1,13.43,4,350.14,23 / 23,308111,2019-11-06 11:51:01:992,2.2551,-0.175,9.5652,0.0021,-0.0241,9.8065,-0.0305,-0.1101,0.1205,-12.12,-37.12,-3.75,141.32,-84.45,59.68
52.831345,-1.653286,116.1,13.43,4,350.14,23 / 23,308212,2019-11-06 11:51:02:093,0.8148,-1.338,9.9077,-0.007,-0.0148,9.8065,-0.029,0.0277,0.0087,-11.81,-37.37,-3.5,143.25,-84.48,57.48
52.831345,-1.653286,116.1,13.43,4,350.14,23 / 23,308312,2019-11-06 11:51:02:193,-0.8246,0.21,10.1198,0.0045,-0.0277,9.8066,0.0266,-0.146,0.0574,-12.25,-37.37,-3.25,142.63,-84.54,56.82
52.831345,-1.653286,116.1,13.43,4,350.14,23 / 23,308412,2019-11-06 11:51:02:293,0.4618,-0.3066,10.4789,0.0137,-0.0075,9.8066,0.0733,0.0698,-0.0195,-12.44,-37.19,-4.31,139.87,-84.5,58.01
52.831345,-1.653286,116.1,13.43,4,350.14,23 / 23,308512,2019-11-06 11:51:02:393,-0.2661,1.3173,10.006,0.0213,-0.0384,9.8065,0.0437,-0.2863,0.2003,-12.87,-37.56,-3.5,146,-84.71,60.65
52.831345,-1.653286,116.1,13.43,4,350.14,23 / 23,308612,2019-11-06 11:51:02:493,2.1321,-3.2171,9.9235,0.0056,-0.0216,9.8066,-0.022,-0.0366,-0.0576,-11.69,-37.87,-2.81,147.26,-84.67,62.52
52.831345,-1.653286,116.1,13.43,4,350.14,23 / 23,308712,2019-11-06 11:51:02:593,-0.6053,0.0953,10.0281,0.0106,-0.0372,9.8066,0.0694,-0.3027,0.1913,-11.87,-37.37,-3,147.56,-84.64,63.09
52.831345,-1.653286,116.1,13.43,4,350.14,23 / 23,308812,2019-11-06 11:51:02:693,0.6014,-4.0184,10.0721,0.0015,0.0145,9.8066,0.031,-0.1973,0.1267,-12.19,-37.94,-3.06,150.39,-84.57,66.26
52.831345,-1.653286,116.1,13.43,4,350.14,23 / 23,308912,2019-11-06 11:51:02:793,0.1246,0.3167,9.721,0.0083,-0.039,9.8065,0.0444,-0.3823,0.1502,-12.94,-38.06,-3.5,150.09,-84.71,65.66
52.831345,-1.653286,116.1,13.43,4,350.14,23 / 23,309012,2019-11-06 11:51:02:893,2.099,-4.1264,9.7464,-0.0081,0.0543,9.8064,0.0667,-0.4418,0.2395,-12.31,-37.62,-3.37,149.6,-84.73,65.52
52.831345,-1.653286,116.1,13.43,4,350.14,23 / 23,309112,2019-11-06 11:51:02:993,1.5113,1.8013,9.6544,-0.0069,-0.0087,9.8066,0.0198,-0.0893,0.0648,-12.5,-37.25,-3.81,146.05,-84.57,65.7
52.831345,-1.653286,116.1,13.43,4,350.14,23 / 23,309212,2019-11-06 11:51:03:093,1.2549,2.0029,9.8858,0.0078,0.0769,9.8063,0.0322,-0.4987,0.2926,-12.19,-37.06,-2.62,152.83,-84.34,69.24
52.831345,-1.653286,116.1,13.43,4,350.14,23 / 23,309312,2019-11-06 11:51:03:193,-0.2481,2.8646,10.7121,-0.0038,0.0321,9.8065,0.0103,0.0898,-0.0757,-12.75,-37.69,-3,152.45,-84.56,68.37
52.831345,-1.653286,116.1,13.43,4,350.14,23 / 23,309412,2019-11-06 11:51:03:293,-0.0064,-0.9366,9.5648,0.0174,0.0777,9.8063,-0.0082,-0.3715,0.2632,-13,-37.44,-2.81,154.61,-84.49,71.15
52.831345,-1.653286,116.1,13.43,4,350.14,24 / 24,309512,2019-11-06 11:51:03:393,2.4997,-4.6224,9.3367,-0.0156,0.0628,9.8064,0.0126,-0.4868,0.3168,-12.94,-37.87,-2.62,153.9,-84.57,70.18
52.831345,-1.653286,116.1,13.43,4,350.14,24 / 24,309612,2019-11-06 11:51:03:493,1.4199,1.9224,9.6249,-0.0044,0.0402,9.8065,0.0387,-0.1805,0.0535,-12.31,-37.87,-2.56,152.16,-84.57,68.49
52.831345,-1.653286,116.1,13.43,4,350.14,24 / 24,309713,2019-11-06 11:51:03:594,-0.1417,-2.8183,9.6667,-0.0019,0.0767,9.8063,0.0418,-0.4949,0.3011,-13.25,-37.31,-3.62,149.36,-84.57,69.02
52.831345,-1.653286,116.1,13.43,4,350.14,24 / 24,309811,2019-11-06 11:51:03:692,-0.4589,2.4964,9.8205,-0.0168,-0.0039,9.8065,-0.1103,0.1025,-0.0026,-13.44,-38.06,-3.5,150.01,-84.74,65.6
52.831345,-1.653286,116.1,13.43,4,350.14,24 / 24,309911,2019-11-06 11:51:03:792,0.1604,-4.1655,9.8321,-0.0191,0.0623,9.8063,-0.0124,0.4446,-0.2963,-13.31,-37.5,-3.06,148.38,-84.64,63.67
52.831345,-1.653286,116.1,13.43,4,350.14,24 / 24,310012,2019-11-06 11:51:03:893,1.1854,1.7536,9.2006,0.015,-0.0238,9.8066,-0.0582,0.277,-0.1751,-13.87,-37.69,-3.31,148.5,-84.83,63.5
52.831345,-1.653286,116.1,13.43,4,350.14,24 / 24,310112,2019-11-06 11:51:03:993,2.2526,-4.0587,10.1028,-0.0065,0.0416,9.8065,-0.0403,-0.1917,0.1753,-13.62,-37.87,-3.37,148.04,-84.86,63.01
52.831345,-1.653286,116.1,13.43,4,350.14,24 / 24,310213,2019-11-06 11:51:04:094,0.0936,0.1092,9.8116,0.0134,-0.0399,9.8065,-0.047,0.3369,-0.1696,-13.75,-37.5,-3.37,145.49,-85.18,60.61
52.831345,-1.653286,116.1,13.43,4,350.14,24 / 24,310312,2019-11-06 11:51:04:193,3.3706,-3.3819,9.2593,0.002,0.0216,9.8066,-0.0244,0.1828,-0.1458,-13.62,-37.81,-3.5,147.08,-85.1,62.18
52.831345,-1.653286,116.1,13.43,4,350.14,24 / 24,310412,2019-11-06 11:51:04:293,-0.3504,1.7476,10.0839,-0.0101,-0.0525,9.8064,-0.115,0.308,-0.2013,-13.5,-37.69,-3.44,144.16,-85.28,59.34
52.831345,-1.653286,116.1,13.43,4,350.14,23 / 23,310512,2019-11-06 11:51:04:393,-0.656,-0.8949,10.1407,-0.0191,0.0124,9.8066,-0.0384,0.242,-0.0889,-14.06,-37.75,-3.81,139.75,-84.99,57.33
52.831345,-1.653286,116.1,13.43,4,350.14,23 / 23,310612,2019-11-06 11:51:04:493,-0.1196,2.6866,10.2726,0.03,-0.0529,9.8064,0.052,0.4026,-0.2514,-14.19,-37.25,-3.37,142.69,-85.32,57.53
52.831345,-1.653286,116.1,13.43,4,350.14,23 / 23,310712,2019-11-06 11:51:04:593,-1.2839,-2.6252,9.6548,0.0189,-0.0021,9.8066,-0.0045,0.1131,-0.1189,-13.81,-37.44,-3.37,146.13,-85.27,61.49
52.831345,-1.653286,116.1,13.43,4,350.14,23 / 23,310812,2019-11-06 11:51:04:693,2.9871,-0.8257,9.1931,-0.025,-0.067,9.8063,-0.0854,0.4296,-0.126,-14.62,-38.44,-3.31,142.41,-85.37,56.78
52.831345,-1.653286,116.1,13.43,4,350.14,23 / 23,310912,2019-11-06 11:51:04:793,-0.9435,-3.0233,9.585,-0.0176,-0.0513,9.8064,0.0319,-0.0022,0.1364,-14.44,-38.31,-3.06,139.16,-85.3,53.16
52.831345,-1.653286,116.1,13.43,4,350.14,23 / 23,311012,2019-11-06 11:51:04:893,2.714,0.9127,9.6497,0.0177,-0.0822,9.8063,0.074,0.2823,-0.1776,-14.06,-36.94,-3.81,136.22,-85.24,53.86
52.831345,-1.653286,116.1,13.43,4,350.14,23 / 23,311112,2019-11-06 11:51:04:993,2.2878,1.5698,9.0927,0.0236,-0.0402,9.8065,0.0465,-0.1115,0.0854,-15,-37.94,-3.25,137.4,-85.89,51.86
