GPS LATITUDE (degrees), GPS LONGITUDE (degrees), GPS ALTITUDE (m), GPS SPEED (Kmh), GPS ACCURACY (m), GPS ORIENTATION (Â°),GPS SATELLITES IN RANGE, TIME SINCE START (ms), DATE (YYYY-MO-DD HH-MI-SS_SSS), ACCELEROMETER X (m/s²) , ACCELEROMETER Y (m/s²), ACCELEROMETER Z (m/s²), GRAVITY X (m/s²), GRAVITY Y (m/s²), GRAVITY Z (m/s²), GYROSCOPE Yaw (rad/s), GYROSCOPE Pitch (rad/s), GYROSCOPE Roll (rad/s), MAGNETIC FIELD X (Î¼T), MAGNETIC FIELD Y (Î¼T), MAGNETIC FIELD Z (Î¼T), ORIENTATION (Yaw) (Â°), ORIENTATION (Pitch) (Â°), ORIENTATION (Roll ) (Â°)
53.04241,-1.813062,317.93,0,3,227.8,19 / 20,14,2019-11-06 12:42:21:722,-0.1983,0.3191,9.9145,0.0065,-0.003,9.8066,0.0128,-0.0763,0.0177,13.38,-41.25,15.75,36.36,-88.23,175.17
53.04241,-1.813062,317.93,0,3,227.8,19 / 20,114,2019-11-06 12:42:21:822,-0.016,0.1118,9.7219,-0.0003,0.0039,9.8066,0.0161,0.0155,-0.0314,13.06,-41.5,16.06,36.3,-88.23,175.1
53.04241,-1.813062,317.93,0,3,227.8,19 / 20,214,2019-11-06 12:42:21:922,0.5453,0.6691,10.2795,0.0037,-0.0027,9.8066,-0.0436,-0.0208,-0.001,13,-41.37,15.81,36.08,-88.23,174.9
53.04241,-1.813062,317.93,0,3,227.8,19 / 20,314,2019-11-06 12:42:22:022,-0.3849,0.0946,10.034,-0.0139,0.0015,9.8066,-0.025,-0.013,-0.0229,13.81,-41.62,15.94,36.56,-88.31,173.37
53.04241,-1.813062,317.93,0,3,227.8,19 / 20,415,2019-11-06 12:42:22:123,0.1356,-0.062,9.8765,0.0014,0.003,9.8066,0.0099,0.0205,-0.0091,13.69,-41.25,15.31,40.71,-88.29,175.44
53.04241,-1.813062,317.93,0,3,227.8,20 / 21,515,2019-11-06 12:42:22:223,-0.4181,-0.0852,10.0436,0.0005,0.0008,9.8066,-0.014,-0.0188,-0.009,13.5,-41.75,16.31,39.07,-88.28,175.73
53.04241,-1.813062,317.93,0,3,227.8,20 / 21,614,2019-11-06 12:42:22:322,0.1531,0.1732,9.8246,-0.0033,0.0013,9.8066,-0.0039,0.0074,-0.0154,13.06,-41.31,15.81,36.63,-88.3,175.51
53.04241,-1.813062,317.93,0,3,227.8,20 / 21,714,2019-11-06 12:42:22:422,0.0401,-0.021,9.8387,0.0015,-0.0007,9.8066,-0.0013,-0.0093,0.0162,13.25,-41.31,15.88,35.65,-88.31,174.59
53.04241,-1.813062,317.93,0,3,227.8,20 / 21,815,2019-11-06 12:42:22:523,-0.0033,-0.249,9.9617,0.0008,0.0004,9.8066,-0.0143,0.0039,-0.0273,13.44,-40.94,15.75,35.67,-88.32,174.62
53.04241,-1.813062,317.93,0,3,227.8,20 / 21,914,2019-11-06 12:42:22:622,-0.006,0.0664,9.8652,-0.0003,-0.0014,9.8066,-0.0013,-0.0167,0.0087,13.56,-41.37,15.69,38.32,-88.33,175.13
53.04241,-1.813062,317.93,0,3,227.8,20 / 21,1015,2019-11-06 12:42:22:723,-0.058,0.1091,9.7938,-0.0028,0.0025,9.8066,-0.019,0.0035,-0.0046,13.75,-41.12,16.13,37.89,-88.35,174.73
53.04241,-1.813062,317.93,0,3,227.8,20 / 21,1114,2019-11-06 12:42:22:822,0.1534,-0.0383,9.8026,0.0002,-0.0023,9.8066,-0.0292,-0.0192,0.0293,13.63,-41.5,15.38,40.29,-88.34,175.1
53.04241,-1.813062,317.93,0,3,227.8,20 / 21,1215,2019-11-06 12:42:22:923,0.0283,-0.045,9.7792,0.0024,-0.0013,9.8066,-0.0157,0.0352,0.0088,13.81,-40.94,15.94,38.74,-88.38,175.59
53.04241,-1.813062,317.93,0,3,227.8,20 / 21,1315,2019-11-06 12:42:23:023,-0.0883,-0.0039,9.9199,0.0073,-0.0057,9.8066,0.0002,0.0124,0.0164,13.19,-40.94,15.44,35.64,-88.35,172.72
53.04241,-1.813062,317.93,0,3,227.8,20 / 21,1415,2019-11-06 12:42:23:123,0.2304,-0.3005,9.9605,0.03,-0.0078,9.8065,-0.1239,0.131,-0.1718,13.69,-41.37,16,39.17,-88.25,175.84
53.04241,-1.813062,317.93,0,3,227.8,19 / 19,1515,2019-11-06 12:42:23:223,0.047,-0.0471,9.8946,0.0003,0.0125,9.8066,-0.0056,0.0092,-0.0256,13.31,-41.5,16.19,32.11,-88.46,171.38
53.04241,-1.813062,317.93,0,3,227.8,19 / 19,1615,2019-11-06 12:42:23:323,0.0444,-0.1333,9.9126,-0.0029,0.008,9.8066,-0.0069,-0.0182,0.0359,13.56,-41.75,15.75,35.47,-88.5,172.56
53.04241,-1.813062,317.93,0,3,227.8,19 / 19,1714,2019-11-06 12:42:23:422,-0.1306,-0.1551,10.013,0.0088,-0.0019,9.8066,0.0284,-0.0387,0.0382,13.5,-41.37,16.5,38.85,-88.54,177.66
53.04241,-1.813062,317.93,0,3,227.8,19 / 19,1814,2019-11-06 12:42:23:522,-0.1057,-0.1252,9.858,0.0075,0.0036,9.8066,0.0124,-0.0111,-0.0193,13.56,-41.44,16.19,44.18,-88.51,-179.01
53.04241,-1.813062,317.93,0,3,227.8,19 / 19,1915,2019-11-06 12:42:23:623,0.1288,0.2635,9.6585,-0.0065,0.0096,9.8066,0.0156,-0.0125,-0.0114,13.88,-41.56,15.75,42.61,-88.57,179.51
53.04241,-1.813062,317.93,0,3,227.8,19 / 19,2014,2019-11-06 12:42:23:722,0.3222,-0.2423,9.837,-0.01,0.0024,9.8066,0.024,-0.0207,0.005,13.56,-41.81,15.88,46.17,-88.62,-177
53.04241,-1.813062,317.93,0,3,227.8,19 / 19,2114,2019-11-06 12:42:23:822,0.2721,-0.1836,9.9333,-0.0029,0.008,9.8066,0.0395,-0.0369,-0.0338,13.38,-41.44,15.88,49.47,-88.61,-171.74
53.04241,-1.813062,317.93,0,3,227.8,19 / 19,2214,2019-11-06 12:42:23:922,-0.2563,0.2123,9.6694,0.0055,0.0115,9.8066,-0.0451,-0.0284,0.015,13.63,-41.75,16.31,49.68,-88.56,-173.69
53.04241,-1.813062,317.93,0,3,227.8,19 / 19,2314,2019-11-06 12:42:24:022,0.1172,-0.2337,9.8559,-0.0067,-0.0009,9.8066,0.0161,-0.0077,-0.0337,13.31,-41.69,15.88,50.7,-88.6,-170.62
53.04241,-1.813062,317.93,0,3,227.8,19 / 19,2414,2019-11-06 12:42:24:122,0.09,0.0034,9.8116,0.0048,-0.0021,9.8066,-0.0041,-0.0095,-0.0326,13.5,-41.06,16.13,53.02,-88.59,-170.34
53.04241,-1.813062,317.93,0,3,227.8,20 / 20,2514,2019-11-06 12:42:24:222,0.0935,-0.0365,9.8292,0.0082,-0.0057,9.8066,-0.0025,-0.0463,-0.0069,13.25,-41.5,15.94,49.41,-88.62,-171.77
53.04241,-1.813062,317.93,0,3,227.8,20 / 20,2615,2019-11-06 12:42:24:323,0.2309,-0.1822,9.7993,-0.006,-0.0019,9.8066,0.0069,0.0045,-0.0119,13.75,-41.5,16.25,52.41,-88.67,-170.82
53.04241,-1.813062,317.93,0,3,227.8,20 / 20,2714,2019-11-06 12:42:24:422,-0.0555,-0.029,9.849,-0.0003,0.0026,9.8066,-0.0057,0.0032,-0.0027,14.06,-40.94,15.75,54.64,-88.6,-168.75
53.04241,-1.813062,317.93,0,3,227.8,20 / 20,2814,2019-11-06 12:42:24:522,-0.1949,0.0076,9.8971,-0.0042,-0.0025,9.8066,0.0146,-0.0136,0.0111,13.38,-41.31,15.88,54.26,-88.6,-167.1
53.04241,-1.813062,317.93,0,3,227.8,20 / 20,2914,2019-11-06 12:42:24:622,0.1609,-0.0635,9.7406,0.0025,0.0041,9.8066,-0.0041,-0.0051,-0.0132,13.69,-41.69,15.75,54.5,-88.64,-168.88
53.04241,-1.813062,317.93,0,3,227.8,20 / 20,3014,2019-11-06 12:42:24:722,0.145,0.0257,9.8647,0.0051,-0.0004,9.8066,-0.0025,-0.0156,-0.0021,13.81,-41.87,15.44,55.56,-88.68,-169.71
53.04241,-1.813062,317.93,0,3,227.8,20 / 20,3114,2019-11-06 12:42:24:822,0.0746,-0.0368,9.8996,-0.0019,0.0055,9.8066,-0.0068,0.0006,-0.0138,13.31,-41.87,16.06,52.33,-88.69,-168.89
53.04241,-1.813062,317.93,0,3,227.8,20 / 20,3214,2019-11-06 12:42:24:922,0.0763,-0.0686,9.8651,0.0003,0.0028,9.8066,0.0084,-0.0091,-0.0043,13.19,-41.81,16.13,52.55,-88.73,-168.61
53.04241,-1.813062,317.93,0,3,227.8,20 / 20,3314,2019-11-06 12:42:25:022,0.0662,-0.0641,9.7548,-0.0059,-0.0065,9.8066,-0.0076,0,-0.0271,13.81,-41.56,16.19,55.46,-88.68,-167.88
53.04241,-1.813062,317.93,0,3,227.8,20 / 20,3414,2019-11-06 12:42:25:122,-0.0987,-0.0474,9.9473,-0.0046,0.0081,9.8066,0.0018,-0.029,-0.0154,13.44,-41.94,16.5,54.53,-88.67,-165
53.04241,-1.813062,317.93,0,3,227.8,21 / 21,3514,2019-11-06 12:42:25:222,-0.1126,-0.1153,9.8114,0.0041,-0.0008,9.8066,0.0093,-0.0227,-0.0229,13.38,-41.5,16.06,55.25,-88.7,-165.97
53.04241,-1.813062,317.93,0,3,227.8,21 / 21,3614,2019-11-06 12:42:25:322,0.1009,-0.1919,9.952,0.0021,-0.0066,9.8066,-0.0058,-0.0208,0.0047,13,-41.62,15.94,54.66,-88.68,-166.63
53.04241,-1.813062,317.93,0,3,227.8,21 / 21,3714,2019-11-06 12:42:25:422,-0.0154,-0.0538,9.9172,-0.0004,0.001,9.8066,-0.0119,-0.0024,-0.0094,13.06,-41.19,15.63,54.94,-88.68,-166.32
53.04241,-1.813062,317.93,0,3,227.8,21 / 21,3814,2019-11-06 12:42:25:522,-0.081,-0.0891,9.7497,0.0029,-0.0036,9.8066,0.0105,0.0084,0.0112,13.06,-41.87,16.25,54.15,-88.68,-167.14
53.04241,-1.813062,317.93,0,3,227.8,21 / 21,3915,2019-11-06 12:42:25:623,0.3481,-0.1435,9.7304,0.0075,0.0028,9.8065,-0.0017,0.004,-0.0123,13.63,-41.25,16.25,55.72,-88.69,-167.55
53.04241,-1.813062,317.93,0,3,227.8,21 / 21,4014,2019-11-06 12:42:25:722,-0.0428,0.0936,9.848,0.0038,-0.0066,9.8066,-0.006,-0.0049,0.0224,13.56,-41.62,15.88,55.29,-88.7,-168.01
53.04241,-1.813062,317.93,0,3,227.8,21 / 21,4114,2019-11-06 12:42:25:822,-0.3386,-0.0057,10.0466,-0.0044,-0.0046,9.8066,-0.0124,0.0363,0.0078,13.69,-41.19,16.31,52.4,-88.67,-170.82
53.04241,-1.813062,317.93,0,3,227.8,21 / 21,4214,2019-11-06 12:42:25:922,-0.0081,-0.1509,9.8405,0.0046,-0.004,9.8066,0.0161,0.0142,0.023,13.5,-41.75,16.69,52.16,-88.7,-169.28
53.04241,-1.813062,317.93,0,3,227.8,21 / 21,4315,2019-11-06 12:42:26:023,0.2302,-0.0987,9.802,0.0019,-0.0076,9.8066,-0.0072,-0.0052,0.0167,13.38,-41.25,15.88,50.92,-88.65,-170.27
53.04241,-1.813062,317.93,0,3,227.8,21 / 21,4414,2019-11-06 12:42:26:122,-0.1504,-0.0412,9.8509,-0.0025,0.0014,9.8066,-0.0009,0.019,0.0325,12.94,-41.19,15.69,51.34,-88.68,-169.8
53.04241,-1.813062,317.93,0,3,227.8,20 / 21,4514,2019-11-06 12:42:26:222,-0.222,0.0496,9.7962,-0.0031,-0.0078,9.8066,-0.0086,0.041,0.0096,13.13,-41.75,16.13,51.91,-88.61,-169.42
53.04241,-1.813062,317.93,0,3,227.8,20 / 21,4614,2019-11-06 12:42:26:322,0.1753,-0.0196,9.8218,0.0041,0.0044,9.8066,-0.0215,0.0062,0.0363,14,-41.56,15.81,54.18,-88.62,-169.22
53.04241,-1.813062,317.93,0,3,227.8,20 / 21,4714,2019-11-06 12:42:26:422,0.0701,-0.0802,9.8255,0.0027,0.0061,9.8066,-0.0098,0.035,0.0303,13.75,-41.56,16.13,56.91,-88.67,-166.49
53.04241,-1.813062,317.93,0,3,227.8,20 / 21,4815,2019-11-06 12:42:26:523,-0.1742,-0.0399,9.8132,-0.0088,0.0147,9.8066,-0.0185,-0.0133,0.0623,13.38,-41.44,16.44,58.71,-88.66,-162.67
53.04241,-1.813062,317.93,0,3,227.8,20 / 21,4915,2019-11-06 12:42:26:623,-0.0242,-0.0654,9.9444,0.0022,-0.0035,9.8066,0.0079,-0.036,0.0139,13.31,-41.44,17.56,59.6,-88.62,-158.44
53.04241,-1.813062,317.93,0,3,227.8,20 / 21,5014,2019-11-06 12:42:26:722,-0.208,0.0965,9.976,-0.0117,0.0024,9.8066,-0.0028,0.0167,0.0291,13.75,-41.56,15.75,63.03,-88.63,-160.59
53.04241,-1.813062,317.93,0,3,227.8,20 / 21,5114,2019-11-06 12:42:26:822,-0.1378,0.022,9.8358,-0.003,0.0046,9.8066,0.0374,0.0289,0.0261,13.56,-41.37,15.69,63.22,-88.66,-160.28
53.04241,-1.813062,317.93,0,3,227.8,20 / 21,5214,2019-11-06 12:42:26:922,-0.1336,0.0712,9.8089,0.0295,-0.0097,9.8066,0.0121,-0.0339,-0.0419,13.5,-41.94,15.63,55.36,-88.76,-167.85
53.04241,-1.813062,317.93,0,3,227.8,20 / 21,5314,2019-11-06 12:42:27:022,0.887,0.1332,9.7004,-0.0088,-0.0192,9.8066,0.0409,0.1512,0.0248,13.69,-41.19,15.88,47.49,-88.49,-175.86
53.04241,-1.813062,317.93,0,3,227.8,20 / 21,5414,2019-11-06 12:42:27:122,-1.5762,1.216,10.3466,0.0165,0.0096,9.8065,0.0718,-0.0872,0.0477,13.81,-42,16.13,44.52,-88.37,-178.93
53.04241,-1.813062,317.93,0,3,227.8,20 / 20,5514,2019-11-06 12:42:27:222,1.6711,-1.2837,9.3581,0.0168,-0.0182,9.8066,-0.0177,0.0141,0.0652,13.5,-41.5,16.44,37.58,-88.46,174.58
53.04241,-1.813062,317.93,0,3,227.8,20 / 20,5614,2019-11-06 12:42:27:322,-1.3002,1.0113,10.169,-0.0282,0.0155,9.8065,-0.0223,0.123,-0.0776,13.56,-41.5,16.5,35.73,-88.46,174.58
53.04241,-1.813062,317.93,0,3,227.8,20 / 20,5714,2019-11-06 12:42:27:422,-1.2199,0.5507,10.2153,-0.0219,0.0053,9.8066,-0.0598,0.1835,-0.1081,12.94,-41.44,16.56,35.15,-88.48,176.06
53.04241,-1.813062,317.93,0,3,227.8,20 / 20,5814,2019-11-06 12:42:27:522,-0.568,0.2806,9.9427,0.0032,0.0029,9.8066,-0.0019,0.0729,-0.0335,13.25,-41.69,16.25,39.42,-88.46,178.32
53.04241,-1.813062,317.93,0,3,227.8,20 / 20,5914,2019-11-06 12:42:27:622,-0.7202,0.5874,9.984,-0.0173,0.0096,9.8066,-0.03,0.1549,-0.0865,14,-41.25,16.38,44.34,-88.42,-178.98
53.04241,-1.813062,317.93,0,3,227.8,20 / 20,6014,2019-11-06 12:42:27:722,-0.1384,-0.2299,9.9309,-0.0072,0.0031,9.8066,-0.0144,0.1377,-0.0717,13.38,-41.69,15.94,40.39,-88.44,179.23
53.04241,-1.813062,317.93,0,3,227.8,20 / 20,6114,2019-11-06 12:42:27:822,-0.6541,0.8147,9.9233,-0.0097,0.0083,9.8066,-0.001,0.087,-0.0245,14,-41.44,15.88,40.78,-88.42,177.6
53.04241,-1.813062,317.93,0,3,227.8,20 / 20,6214,2019-11-06 12:42:27:922,0.5296,-0.5095,9.7293,-0.0177,0.0102,9.8066,-0.0312,0.1445,-0.0893,13.63,-41.44,15.56,44.34,-88.4,-179.02
53.04241,-1.813062,317.93,0,3,227.8,20 / 20,6314,2019-11-06 12:42:28:022,-0.5866,0.4637,9.8884,-0.0063,0.0031,9.8066,-0.0016,0.0024,0.0011,13.44,-41,16.06,39.87,-88.4,178.72
53.04241,-1.813062,317.93,0,3,227.8,20 / 20,6415,2019-11-06 12:42:28:123,0.6318,-0.7699,9.796,-0.0106,0.0058,9.8066,-0.0205,0.1064,-0.0352,13.69,-41.37,15.75,44.23,-88.37,-179.16
53.04241,-1.813062,317.93,0,3,227.8,20 / 20,6515,2019-11-06 12:42:28:223,-0.2291,0.5022,9.8709,0.0015,-0.0043,9.8066,-0.0072,-0.0564,0.0358,13.81,-41.62,16.44,43.84,-88.37,-179.59
53.04241,-1.813062,317.93,0,3,227.8,20 / 20,6615,2019-11-06 12:42:28:323,-0.4036,0.2326,9.9046,-0.0063,0.0043,9.8066,-0.0041,0.0388,-0.0037,13.81,-41.37,15.81,43.57,-88.34,-179.84
53.04241,-1.813062,317.93,0,3,227.8,20 / 20,6714,2019-11-06 12:42:28:422,-0.4539,0.4255,9.9249,0.009,-0.0066,9.8066,-0.0082,-0.0715,0.0638,13.75,-41.69,15.56,42.03,-88.32,178.61
53.04241,-1.813062,317.93,0,3,227.8,20 / 20,6814,2019-11-06 12:42:28:522,-0.165,0.0244,10.0157,-0.0011,0,9.8066,0.0023,-0.0047,0.0152,14.25,-41.37,15.69,43.35,-88.3,179.9
53.04241,-1.813062,317.93,0,3,227.8,20 / 20,6914,2019-11-06 12:42:28:622,0.427,-0.5436,9.7732,0.0085,-0.0047,9.8066,0.0098,-0.0475,0.0453,13.31,-41.25,15.81,41.53,-88.28,-179.84
53.04241,-1.813062,317.93,0,3,227.8,20 / 20,7016,2019-11-06 12:42:28:724,-0.3789,0.4091,9.8425,0.0024,-0.006,9.8066,-0.0069,-0.0384,0.0402,13.5,-41.62,15.44,44.37,-88.26,178.85
53.04241,-1.813062,317.93,0,3,227.8,20 / 20,7114,2019-11-06 12:42:28:822,0.1507,-0.1724,9.8101,0.0077,-0.0049,9.8066,-0.0064,-0.0174,0.0355,13.19,-41.12,16.06,40.94,-88.24,179.54
53.04241,-1.813062,317.93,0,3,227.8,20 / 20,7214,2019-11-06 12:42:28:922,-0.3313,0.2048,9.9318,0.0062,-0.0046,9.8065,-0.0024,-0.0325,0.0358,13.75,-41.31,16.25,42,-88.24,178.52
53.04241,-1.813062,317.93,0,3,227.8,20 / 20,7314,2019-11-06 12:42:29:022,0.2687,-0.4346,9.6498,0.0022,-0.0043,9.8066,-0.0014,0.0231,0.0078,13.25,-41.06,16.25,40.36,-88.23,178.98
53.04241,-1.813062,317.93,0,3,227.8,20 / 20,7414,2019-11-06 12:42:29:122,-0.2058,-0.0091,10.0014,0.0062,-0.0051,9.8066,0.0113,-0.0145,0.0361,13.5,-41.5,15.56,41.55,-88.18,178.03
53.04241,-1.813062,317.93,0,3,227.8,21 / 21,7514,2019-11-06 12:42:29:222,0.3761,-0.3094,9.8181,-0.0013,0.0026,9.8066,-0.0093,0.0358,-0.0348,13.56,-41.12,16,42.59,-88.2,179.03
53.04241,-1.813062,317.93,0,3,227.8,21 / 21,7614,2019-11-06 12:42:29:322,-0.4048,-0.1279,9.9781,0.0059,-0.0011,9.8066,0.018,0.0007,0.0294,13.38,-41.25,16,39.17,-88.22,177.82
53.04241,-1.813062,317.93,0,3,227.8,21 / 21,7715,2019-11-06 12:42:29:423,-0.0594,0.2484,9.8708,-0.0017,0.003,9.8066,-0.0006,0.0409,-0.0124,13.25,-41.81,16.25,39.95,-88.21,178.5
53.04241,-1.813062,317.93,0,3,227.8,21 / 21,7815,2019-11-06 12:42:29:523,-0.1318,0.2234,9.8907,-0.0009,0,9.8066,0.0083,0.0208,-0.0033,13.56,-41.31,16.5,40.29,-88.23,178.67
53.04241,-1.813062,317.93,0,3,227.8,21 / 21,7915,2019-11-06 12:42:29:623,-0.2463,-0.0394,10.0348,-0.0025,0.0022,9.8066,0.0019,0.0259,-0.0214,13.38,-41.69,16.13,40.43,-88.26,179.02
53.04241,-1.813062,317.93,0,3,227.8,21 / 21,8014,2019-11-06 12:42:29:722,0.2043,-0.3266,9.8209,-0.0024,0.0006,9.8066,0.0106,0.0099,-0.0246,13.31,-41.69,15.94,40.64,-88.27,179.24
53.04241,-1.813062,317.93,0,3,227.8,21 / 21,8115,2019-11-06 12:42:29:823,-0.1027,-0.0962,9.923,-0.0034,0.0031,9.8066,0.0158,0.005,-0.0259,13.56,-41.81,15.69,43.06,-88.25,179.5
53.04241,-1.813062,317.93,0,3,227.8,21 / 21,8214,2019-11-06 12:42:29:922,0.3789,-0.1248,9.783,-0.0056,0.0016,9.8066,-0.0065,0.0153,-0.0341,13.69,-41.44,16.31,42.88,-88.24,179.37
53.04241,-1.813062,317.93,0,3,227.8,21 / 21,8314,2019-11-06 12:42:30:022,-0.1115,0.1414,9.8522,-0.0026,0.0038,9.8066,0.0067,-0.0042,-0.0186,13.81,-41.69,15.94,42.33,-88.24,178.78
53.04241,-1.813062,317.93,0,3,227.8,21 / 21,8415,2019-11-06 12:42:30:123,0.1955,-0.0562,9.8436,-0.0054,0.0014,9.8066,-0.0251,0.022,-0.0283,14.25,-41,15.81,43.26,-88.23,179.72
53.04241,-1.813062,317.93,0,3,227.8,20 / 20,8515,2019-11-06 12:42:30:223,-0.1592,0.0293,9.8742,-0.0023,0,9.8066,-0.0113,-0.0292,-0.0109,13.63,-41.31,15.94,42.43,-88.25,178.95
53.04241,-1.813062,317.93,0,3,227.8,20 / 20,8615,2019-11-06 12:42:30:323,0.0587,0.0893,9.829,0.0007,0.0017,9.8066,-0.0083,0.0035,-0.0109,13.63,-41.44,15.75,42.83,-88.25,179.33
53.04241,-1.813062,317.93,0,3,227.8,20 / 20,8715,2019-11-06 12:42:30:423,0.0673,0.2534,9.7638,0.0008,-0.0013,9.8066,-0.0219,-0.0308,-0.0042,13.75,-41.81,16,42.72,-88.26,179.19
53.04241,-1.813062,317.93,0,3,227.8,20 / 20,8815,2019-11-06 12:42:30:523,0.0036,-0.0074,9.8186,0.001,0.0004,9.8066,-0.0058,-0.0185,-0.0078,13.5,-41.5,15.69,42.46,-88.28,179.02
53.04241,-1.813062,317.93,0,3,227.8,20 / 20,8914,2019-11-06 12:42:30:622,0.1235,-0.1743,9.9682,0.0036,-0.0032,9.8066,-0.0144,-0.029,0.0116,14,-40.94,15.94,42.89,-88.28,179.43
53.04241,-1.813062,317.93,0,3,227.8,20 / 20,9014,2019-11-06 12:42:30:722,-0.1533,-0.0119,9.9836,0.0009,-0.0007,9.8066,-0.0105,-0.0266,-0.0059,14,-41.37,16.25,42.42,-88.29,179
53.04241,-1.813062,317.93,0,3,227.8,20 / 20,9114,2019-11-06 12:42:30:822,0.0867,-0.3171,9.9273,0.0008,-0.0017,9.8066,-0.0193,-0.0121,-0.0028,13.25,-41.56,16.06,40.27,-88.3,178.92
53.04241,-1.813062,317.93,0,3,227.8,20 / 20,9215,2019-11-06 12:42:30:923,0.0585,0.178,9.7384,0.0027,-0.004,9.8066,-0.0236,-0.0247,0.01,13.81,-41.31,15.81,42.24,-88.3,178.84
53.04241,-1.813062,317.93,0,3,227.8,20 / 20,9315,2019-11-06 12:42:31:023,0.3952,-0.1001,9.7221,-0.0022,0.0006,9.8066,-0.0197,0.005,-0.0175,13.44,-41.19,16.25,40.44,-88.32,179.17
53.04241,-1.813062,317.93,0,3,227.8,20 / 20,9414,2019-11-06 12:42:31:122,-0.1347,0.0705,9.8848,0.005,-0.0034,9.8066,-0.0087,-0.0015,0.025,13.69,-41.56,16.31,42.13,-88.32,178.71
53.04241,-1.813062,317.93,0,3,227.8,19 / 21,9514,2019-11-06 12:42:31:222,0.1063,0.03,9.864,-0.0032,-0.0013,9.8066,-0.0213,0.0321,-0.0177,13.19,-41.31,15.56,40.57,-88.32,179.28
53.04241,-1.813062,317.93,0,3,227.8,19 / 21,9614,2019-11-06 12:42:31:322,0.0072,-0.1313,9.869,0.0042,-0.0017,9.8066,0.0025,0.0168,0.0252,13.44,-40.94,15.81,39.84,-88.31,178.58
53.04241,-1.813062,317.93,0,3,227.8,19 / 21,9714,2019-11-06 12:42:31:422,0.0184,-0.166,9.8655,-0.0003,-0.0004,9.8066,-0.0079,0.0386,-0.0014,13.56,-41.12,15.56,42.66,-88.29,179.23
53.04241,-1.813062,317.93,0,3,227.8,19 / 21,9814,2019-11-06 12:42:31:522,-0.1062,-0.1059,9.9448,0.0006,0.0003,9.8066,0.0119,0.0149,0.0065,13.44,-41.44,16.06,39.85,-88.3,178.58
53.04241,-1.813062,317.93,0,3,227.8,19 / 21,9914,2019-11-06 12:42:31:622,0.0672,0.0939,9.8658,0.0003,-0.0018,9.8066,0.0019,0.0131,0.0081,14.25,-41.69,15.75,42.21,-88.29,178.74
53.04241,-1.813062,317.93,0,3,227.8,19 / 21,10015,2019-11-06 12:42:31:723,0.0059,-0.0562,9.8731,0.0002,0.0021,9.8066,0.0145,-0.0036,-0.0104,13.75,-41.56,16.5,40.39,-88.31,178.81
53.04241,-1.813062,317.93,0,3,227.8,19 / 21,10114,2019-11-06 12:42:31:822,-0.0939,-0.041,9.9356,0.0001,-0.001,9.8066,0.0114,-0.0118,0.0062,13.38,-41.5,16.56,38.07,-88.3,178.64
53.04241,-1.813062,317.93,0,3,227.8,19 / 21,10214,2019-11-06 12:42:31:922,0.0138,-0.1285,9.8737,-0.0013,0.0021,9.8066,0.0069,-0.0095,-0.0199,13.38,-41.31,15.69,40.09,-88.31,178.81
53.04241,-1.813062,317.93,0,3,227.8,19 / 21,10314,2019-11-06 12:42:32:022,-0.0375,-0.0583,9.855,-0.0005,0.0012,9.8066,0.0087,-0.0275,-0.0074,13.5,-41.12,16.25,41.65,-88.3,178.27
53.04241,-1.813062,317.93,0,3,227.8,19 / 21,10414,2019-11-06 12:42:32:122,0.1445,0.0477,9.848,-0.0001,-0.0002,9.8066,0.0087,-0.0194,-0.0128,13.19,-41.31,15.75,39.89,-88.29,178.61
53.04241,-1.813062,317.93,0,3,227.8,20 / 22,10514,2019-11-06 12:42:32:222,0.0597,-0.0277,9.8133,0.0002,0.0008,9.8066,0.012,-0.0311,-0.01,13.69,-41.19,15.88,41.87,-88.27,178.45
53.04241,-1.813062,317.93,0,3,227.8,20 / 22,10614,2019-11-06 12:42:32:322,0.0744,0.0071,9.8888,-0.0014,0.0003,9.8066,-0.004,-0.0238,-0.0074,13.69,-41.06,16,42.36,-88.26,178.9
53.04241,-1.813062,317.93,0,3,227.8,20 / 22,10714,2019-11-06 12:42:32:422,-0.004,-0.1141,9.8312,0.0003,0.0004,9.8066,-0.0055,-0.0253,-0.0134,13.44,-41.25,16.5,38.52,-88.27,179.03
53.04241,-1.813062,317.93,0,3,227.8,20 / 22,10814,2019-11-06 12:42:32:522,0.0452,0.1372,9.8866,0.0032,0.0011,9.8066,0.0077,-0.03,-0.0022,13.94,-41.37,15.88,42.3,-88.27,178.86
53.04241,-1.813062,317.93,0,3,227.8,20 / 22,10915,2019-11-06 12:42:32:623,0.1439,0.1042,9.7691,-0.0004,0.0002,9.8066,-0.0125,-0.0188,-0.0066,13.63,-41.69,16.25,43.13,-88.26,179.58
53.04241,-1.813062,317.93,0,3,227.8,20 / 22,11014,2019-11-06 12:42:32:722,-0.0922,-0.1275,9.8709,0.0005,0.0009,9.8066,0.0056,-0.0207,-0.0073,13.69,-41.12,15.5,43.06,-88.26,179.58
53.04241,-1.813062,317.93,0,3,227.8,20 / 22,11114,2019-11-06 12:42:32:822,0.0436,0.0337,9.9044,0.0028,0.0028,9.8066,-0.006,-0.009,-0.0082,13.94,-41.44,16,43.21,-88.25,179.69
53.04241,-1.813062,317.93,0,3,227.8,20 / 22,11215,2019-11-06 12:42:32:923,-0.1801,-0.0762,10.0555,-0.0005,0.0009,9.8066,-0.006,-0.0129,-0.0153,14.06,-41.75,16.25,43.42,-88.28,179.88
53.04241,-1.813062,317.93,0,3,227.8,20 / 22,11315,2019-11-06 12:42:33:023,0.0059,-0.0371,9.9111,0.0007,0.0019,9.8066,-0.0024,0.0087,-0.0079,13.25,-41.25,16.44,40.98,-88.27,179.61
53.04241,-1.813062,317.93,0,3,227.8,20 / 22,11414,2019-11-06 12:42:33:122,0.2257,0.122,9.689,-0.0018,-0.0017,9.8066,-0.025,0.0009,-0.0087,13.5,-41.25,16,43.35,-88.27,179.86
53.04241,-1.813062,317.93,0,3,227.8,19 / 19,11514,2019-11-06 12:42:33:222,-0.0926,0.0396,9.8427,-0.0006,0.0022,9.8066,0.0029,0.0095,-0.0137,13.5,-41.69,16.13,43.57,-88.29,-179.96
53.04241,-1.813062,317.93,0,3,227.8,19 / 19,11614,2019-11-06 12:42:33:322,-0.0842,-0.1038,9.9325,-0.0001,-0.0013,9.8066,-0.0192,0.0104,-0.0058,13.69,-41.19,16.63,41.33,-88.27,179.71
53.04241,-1.813062,317.93,0,3,227.8,19 / 19,11714,2019-11-06 12:42:33:422,0.1399,0.2148,9.752,-0.0001,0.0006,9.8066,-0.0095,0.0104,0,13.69,-41.25,15.69,42.97,-88.27,179.5
53.04241,-1.813062,317.93,0,3,227.8,19 / 19,11814,2019-11-06 12:42:33:522,0.0137,-0.1397,9.8469,-0.0003,0.0016,9.8066,-0.0094,0.0209,-0.0004,13.63,-40.94,15.44,45.12,-88.27,179.63
53.04241,-1.813062,317.93,0,3,227.8,19 / 19,11914,2019-11-06 12:42:33:622,0.0986,-0.0681,9.7428,-0.0013,-0.0016,9.8066,-0.0202,0.0197,-0.0006,13.44,-41.12,16.25,41.01,-88.27,179.65
53.04241,-1.813062,317.93,0,3,227.8,19 / 19,12014,2019-11-06 12:42:33:722,-0.2095,-0.1127,10.0759,0.0021,0.0003,9.8066,0.0124,0.018,0.0129,13.56,-41.5,15.88,42.86,-88.28,179.4
53.04241,-1.813062,317.93,0,3,227.8,19 / 19,12115,2019-11-06 12:42:33:823,-0.0153,-0.053,9.914,0.0001,0.0001,9.8066,-0.0051,0.0201,0.0102,13.13,-41.87,16,41,-88.26,179.56
53.04241,-1.813062,317.93,0,3,227.8,19 / 19,12214,2019-11-06 12:42:33:922,-0.0879,-0.0295,9.949,-0.0004,-0.0019,9.8066,-0.0026,0.0212,0.0112,13.5,-40.87,15.94,42.88,-88.25,179.39
53.04241,-1.813062,317.93,0,3,227.8,19 / 19,12314,2019-11-06 12:42:34:022,0.2117,-0.0466,9.7914,0.0023,-0.0003,9.8066,0.0166,0.0097,0.0166,13.38,-41.25,16.25,40.79,-88.25,179.41
53.04241,-1.813062,317.93,0,3,227.8,19 / 19,12414,2019-11-06 12:42:34:122,0.0581,0.0408,9.8285,-0.0004,-0.0014,9.8066,-0.0097,0.0125,0.0077,13.38,-41.37,16.38,40.73,-88.25,179.35
53.04241,-1.813062,317.93,0,3,227.8,20 / 20,12515,2019-11-06 12:42:34:223,0.0536,-0.0509,9.9152,-0.0003,0.002,9.8066,0.0179,0.0131,0.0032,13.25,-42.12,16.06,40.65,-88.26,179.23
53.04241,-1.813062,317.93,0,3,227.8,20 / 20,12614,2019-11-06 12:42:34:322,0.0423,0.0622,9.7805,0.0007,-0.001,9.8066,0.0022,0.0055,0.0082,13.69,-41.56,16.56,41.14,-88.25,179.46
53.04241,-1.813062,317.93,0,3,227.8,20 / 20,12714,2019-11-06 12:42:34:422,-0.0054,0.1332,9.8428,-0.0025,0.0028,9.8066,0.0073,0.0094,-0.018,13.88,-41.31,16.13,43.44,-88.27,179.94
53.04241,-1.813062,317.93,0,3,227.8,20 / 20,12814,2019-11-06 12:42:34:522,0.0673,0.1017,9.7343,0.001,-0.002,9.8066,0.0072,-0.0069,0.0211,13.75,-41.62,16.44,42.97,-88.27,179.44
53.04241,-1.813062,317.93,0,3,227.8,20 / 20,12914,2019-11-06 12:42:34:622,-0.0822,0.0048,9.9107,-0.0012,-0.0007,9.8066,0.0048,0.0077,-0.0063,13,-41.12,15.69,41.34,-88.27,179.96
53.04241,-1.813062,317.93,0,3,227.8,20 / 20,13015,2019-11-06 12:42:34:723,0.0235,-0.2065,9.9392,-0.0014,0.0003,9.8066,0.0134,0.0009,-0.0111,14.13,-41.19,16.25,43.33,-88.26,179.83
53.04241,-1.813062,317.93,0,3,227.8,20 / 20,13114,2019-11-06 12:42:34:822,-0.1879,-0.0744,9.9415,-0.002,-0.0007,9.8066,0.0018,-0.0119,-0.002,13.69,-41.62,16.25,43.38,-88.25,179.81
53.04241,-1.813062,317.93,0,3,227.8,20 / 20,13214,2019-11-06 12:42:34:922,0.0881,-0.1531,9.8095,-0.0024,0.001,9.8066,0.0184,-0.0001,-0.0219,13.56,-41.62,16.31,43.69,-88.25,-179.9
53.04241,-1.813062,317.93,0,3,227.8,20 / 20,13315,2019-11-06 12:42:35:023,-0.1875,0.036,10.0271,0.001,0.0018,9.8066,0.0148,-0.0153,-0.0063,13.56,-41.69,16.13,43.28,-88.24,179.7
53.04241,-1.813062,317.93,0,3,227.8,20 / 20,13414,2019-11-06 12:42:35:122,0.0795,0.0549,9.8,-0.0034,0.0002,9.8066,-0.0017,-0.0013,-0.0203,13.75,-41.19,15.88,43.33,-88.23,179.79
53.04241,-1.813062,317.93,0,3,227.8,19 / 20,13514,2019-11-06 12:42:35:222,-0.0906,0.09,9.925,0.0005,0.0007,9.8066,0.0131,-0.0364,-0.0075,13.69,-41.44,16.06,42.93,-88.23,179.41
53.04241,-1.813062,317.93,0,3,227.8,19 / 20,13614,2019-11-06 12:42:35:322,0.2272,0.017,9.6593,-0.0025,-0.0012,9.8066,-0.0119,-0.0067,-0.0125,13.44,-41.37,16.31,41.18,-88.22,179.74
53.04241,-1.813062,317.93,0,3,227.8,19 / 20,13714,2019-11-06 12:42:35:422,-0.0178,-0.1055,9.9063,-0.0007,0.0003,9.8066,-0.0086,-0.0231,-0.0161,13.75,-41.44,16.5,41.3,-88.23,179.64
53.04241,-1.813062,317.93,0,3,227.8,19 / 20,13814,2019-11-06 12:42:35:522,0.1584,0.0134,9.7991,0.002,0.0004,9.8066,0.0071,-0.0112,-0.0044,13.5,-41.37,16.25,42.99,-88.23,179.47
53.04241,-1.813062,317.93,0,3,227.8,19 / 20,13914,2019-11-06 12:42:35:622,-0.2512,-0.1691,10.0372,-0.0006,0,9.8066,-0.0212,-0.0227,-0.0116,13.25,-41.56,16.19,41.47,-88.23,179.98
53.04241,-1.813062,317.93,0,3,227.8,19 / 20,14014,2019-11-06 12:42:35:722,0.0741,0.1207,9.8605,0.0007,-0.0002,9.8066,0.0015,-0.0222,-0.0064,13,-41.5,16.06,41.06,-88.25,179.67
53.04241,-1.813062,317.93,0,3,227.8,19 / 20,14115,2019-11-06 12:42:35:823,0.0984,0.1166,9.8569,0.003,-0.0008,9.8066,-0.0028,-0.0128,-0.0017,13.63,-41.19,16.19,43.37,-88.25,179.85
53.04241,-1.813062,317.93,0,3,227.8,19 / 20,14214,2019-11-06 12:42:35:922,0.0284,-0.0709,9.841,-0.0023,0.0009,9.8066,-0.0138,-0.0154,-0.0169,13.75,-41.31,16.19,43.35,-88.26,179.85
53.04241,-1.813062,317.93,0,3,227.8,19 / 20,14314,2019-11-06 12:42:36:022,0.0016,-0.0611,9.9098,0.0007,-0.0004,9.8066,-0.0066,-0.0038,0.0022,13.81,-41.69,16.44,43.08,-88.26,179.54
53.04241,-1.813062,317.93,0,3,227.8,19 / 20,14414,2019-11-06 12:42:36:122,-0.0633,-0.0514,9.9469,-0.0012,-0.0011,9.8066,-0.0216,-0.0042,-0.0128,13.63,-41.37,16.81,41.64,-88.26,-180
53.04241,-1.813062,317.93,0,3,227.8,19 / 19,14514,2019-11-06 12:42:36:222,0.1873,0.0756,9.8165,-0.0014,0.0006,9.8066,-0.0084,0.0022,-0.0096,13.75,-41.62,16.38,43.24,-88.27,179.69
53.04241,-1.813062,317.93,0,3,227.8,19 / 19,14614,2019-11-06 12:42:36:322,0.1301,-0.004,9.7723,0.0008,-0.001,9.8066,-0.0181,0.0203,0.0067,13.38,-41.5,16.38,41.33,-88.25,179.92
53.04241,-1.813062,317.93,0,3,227.8,19 / 19,14714,2019-11-06 12:42:36:422,0.1685,-0.0344,9.7306,-0.0037,0.0001,9.8066,-0.0186,0.0206,-0.0181,13.44,-40.94,16.5,39.72,-88.26,-179.83
53.04241,-1.813062,317.93,0,3,227.8,19 / 19,14814,2019-11-06 12:42:36:522,-0.0034,0.0254,9.908,0.0005,-0.0011,9.8066,-0.0075,0.0209,0.0011,13.13,-41.25,16.5,39.66,-88.25,-179.9
53.04241,-1.813062,317.93,0,3,227.8,19 / 19,14915,2019-11-06 12:42:36:623,-0.1489,-0.1259,10.0048,0,-0.0021,9.8066,-0.021,0.0251,0.001,13.44,-41.19,16.06,41.58,-88.23,-179.87
53.04241,-1.813062,317.93,0,3,227.8,19 / 19,15014,2019-11-06 12:42:36:722,-0.1945,-0.0474,9.9493,0.0001,-0.0005,9.8066,-0.0014,0.0153,-0.0004,12.75,-41.25,16.25,40.91,-88.23,179.49
53.04241,-1.813062,317.93,0,3,227.8,19 / 19,15114,2019-11-06 12:42:36:822,0.1946,0.05,9.8504,-0.0011,-0.0013,9.8066,-0.0128,0.0363,0.0176,13.44,-41.19,15.44,42.86,-88.21,179.42
53.04241,-1.813062,317.93,0,3,227.8,19 / 19,15215,2019-11-06 12:42:36:923,0.1896,-0.0315,9.7245,-0.0018,-0.0016,9.8066,-0.0145,0.0213,-0.0071,13.25,-42,16.38,41.43,-88.21,179.91
53.04241,-1.813062,317.93,0,3,227.8,19 / 19,15315,2019-11-06 12:42:37:023,0.066,-0.1279,9.8764,-0.0004,0.0008,9.8066,0.002,0.0255,0.0035,13,-41.12,15.69,40.92,-88.21,179.48
53.04241,-1.813062,317.93,0,3,227.8,19 / 19,15415,2019-11-06 12:42:37:123,-0.0129,-0.0061,9.9076,-0.0001,-0.003,9.8066,-0.0144,0.03,0.0061,13.5,-41.5,16.25,43.13,-88.19,179.54
53.04241,-1.813062,317.93,0,3,227.8,19 / 19,15515,2019-11-06 12:42:37:223,-0.1351,0.0095,9.9538,-0.0032,0.001,9.8066,-0.0081,0.0314,-0.0085,13.19,-41.31,16.38,40.73,-88.19,179.28
53.04241,-1.813062,317.93,0,3,227.8,19 / 19,15615,2019-11-06 12:42:37:323,0.0561,0.0935,9.8347,0.0014,-0.0008,9.8066,-0.005,0.026,0.0265,13.56,-41.25,16,43.2,-88.18,179.6
53.04241,-1.813062,317.93,0,3,227.8,19 / 19,15715,2019-11-06 12:42:37:423,0.0953,-0.013,9.8407,-0.002,-0.001,9.8066,-0.018,0.0378,-0.0033,13.56,-41.87,16.56,42.17,-88.17,-179.65
53.04241,-1.813062,317.93,0,3,227.8,19 / 19,15815,2019-11-06 12:42:37:523,0.0429,-0.0385,9.8914,0.0019,-0.0002,9.8066,0.0067,0.0224,0.0237,13.13,-40.94,16.5,39.09,-88.2,179.5
53.04241,-1.813062,317.93,0,3,227.8,19 / 19,15915,2019-11-06 12:42:37:623,0.0446,-0.0758,9.8962,-0.0004,-0.0015,9.8066,-0.0093,0.0356,0.0142,13.5,-41.44,16.5,41.95,-88.2,-179.78
53.04241,-1.813062,317.93,0,3,227.8,19 / 19,16014,2019-11-06 12:42:37:722,-0.1597,-0.0822,9.9899,0.0003,0.0013,9.8066,0.0051,0.0093,0.0088,13.38,-41.25,16,41.77,-88.22,-179.7
53.04241,-1.813062,317.93,0,3,227.8,19 / 19,16114,2019-11-06 12:42:37:822,0.2375,0.1946,9.8029,0.001,0.0009,9.8066,0.0146,0.0207,0.0194,13.63,-41.12,16.31,44.02,-88.22,-179.57
53.04241,-1.813062,317.93,0,3,227.8,19 / 19,16214,2019-11-06 12:42:37:922,0.0552,0.0999,9.906,-0.0003,-0.0002,9.8066,-0.0042,0.0047,0.0007,13.56,-41.62,16.25,44.33,-88.23,-179.32
53.04241,-1.813062,317.93,0,3,227.8,19 / 19,16314,2019-11-06 12:42:38:022,0.1817,0.0018,9.7491,-0.001,0.0019,9.8066,0.0157,0.0031,0.0039,13.38,-41.69,16.38,42.15,-88.25,-179.35
53.04241,-1.813062,317.93,0,3,227.8,19 / 19,16415,2019-11-06 12:42:38:123,-0.0199,-0.0704,9.8939,0.0006,-0.0008,9.8066,-0.0006,-0.0001,0.0014,13.69,-41.25,16.75,42.48,-88.24,-179.22
53.04241,-1.813062,317.93,0,3,227.8,20 / 20,16515,2019-11-06 12:42:38:223,0.0268,-0.1044,9.8586,-0.0037,-0.0003,9.8066,0.0036,-0.0058,-0.0174,13.44,-41.19,16.31,41.98,-88.26,-179.44
53.04241,-1.813062,317.93,0,3,227.8,20 / 20,16615,2019-11-06 12:42:38:323,0.1469,0.1157,9.8127,0.0016,-0.0008,9.8066,0.0107,-0.0042,0.0165,13,-41.5,16,42.02,-88.24,-179.43
53.04241,-1.813062,317.93,0,3,227.8,20 / 20,16715,2019-11-06 12:42:38:423,-0.0312,-0.069,9.9038,-0.002,-0.0015,9.8066,-0.0084,-0.0092,-0.0118,13.5,-41.44,16.13,44.72,-88.23,-178.88
53.04241,-1.813062,317.93,0,3,227.8,20 / 20,16814,2019-11-06 12:42:38:522,-0.0072,-0.0911,9.9164,0.0004,0.0015,9.8066,0.0136,-0.0132,0.005,13.38,-41,15.88,42.37,-88.23,-179.11
53.04241,-1.813062,317.93,0,3,227.8,20 / 20,16915,2019-11-06 12:42:38:623,-0.1692,-0.1054,9.9831,0.0015,-0.0013,9.8066,-0.0086,-0.0152,0.0013,13.25,-40.81,16.19,42.69,-88.21,-178.84
53.04241,-1.813062,317.93,0,3,227.8,20 / 20,17014,2019-11-06 12:42:38:722,0.1433,0.1055,9.8361,-0.0004,0.0027,9.8066,0.0043,-0.0092,-0.0106,13.13,-41.37,16,42.91,-88.22,-178.61
53.04241,-1.813062,317.93,0,3,227.8,20 / 20,17114,2019-11-06 12:42:38:822,0.0314,0.1089,9.8702,0.0036,0.0002,9.8066,0.0002,0.0019,0.0086,13.69,-41.06,16.19,45.17,-88.2,-178.49
53.04241,-1.813062,317.93,0,3,227.8,20 / 20,17215,2019-11-06 12:42:38:923,0.0276,-0.1309,9.9585,-0.0018,0.0034,9.8066,-0.0101,0.0032,-0.0277,13.5,-42.06,15.69,45.18,-88.22,-178.51
53.04241,-1.813062,317.93,0,3,227.8,20 / 20,17314,2019-11-06 12:42:39:022,0.0117,-0.057,9.8224,0.0017,0.0018,9.8066,0.0022,0.0064,0.009,13.88,-40.94,15.75,44.71,-88.22,-178.91
53.04241,-1.813062,317.93,0,3,227.8,20 / 20,17414,2019-11-06 12:42:39:122,0.0227,-0.1725,9.9176,-0.0027,0.0012,9.8066,-0.0105,0.0112,-0.0262,13.63,-41,16.69,43.38,-88.22,-178.38
53.04241,-1.813062,317.93,0,3,227.8,19 / 20,17514,2019-11-06 12:42:39:222,0.2126,0.2036,9.7473,-0.0007,0.0029,9.8066,0.0073,0.0056,-0.0133,13.25,-41.31,15.81,42.26,-88.22,-179.23
53.04241,-1.813062,317.93,0,3,227.8,19 / 20,17614,2019-11-06 12:42:39:322,0.0358,-0.0661,9.805,-0.0002,-0.0009,9.8066,-0.014,0.023,0.0033,12.88,-41.56,16.56,40.21,-88.19,-179.5
53.04241,-1.813062,317.93,0,3,227.8,19 / 20,17714,2019-11-06 12:42:39:422,0.1462,0.0366,9.7667,-0.0023,-0.0003,9.8066,-0.013,0.0139,-0.009,13.31,-41.5,16.31,41.85,-88.2,-179.65
53.04241,-1.813062,317.93,0,3,227.8,19 / 20,17814,2019-11-06 12:42:39:522,-0.0064,-0.0083,9.9475,0.0018,0.0007,9.8066,-0.0008,0.0334,0.01,14.13,-41.44,15.88,43.79,-88.18,-179.83
53.04241,-1.813062,317.93,0,3,227.8,19 / 20,17914,2019-11-06 12:42:39:622,-0.1022,-0.0845,9.951,-0.0002,-0.0008,9.8066,-0.017,0.0146,0.0059,12.94,-41.81,16.13,42.08,-88.17,-179.52
53.04241,-1.813062,317.93,0,3,227.8,19 / 20,18015,2019-11-06 12:42:39:723,-0.0266,-0.0273,9.8585,0.0004,0.0009,9.8066,0.0083,0.0176,0.0013,13.56,-41.69,16.13,43.6,-88.17,179.91
53.04241,-1.813062,317.93,0,3,227.8,19 / 20,18114,2019-11-06 12:42:39:822,0.1497,0.1116,9.8016,0.0012,-0.0008,9.8066,-0.0069,0.0138,0.0155,13.5,-41.31,16.31,43.24,-88.15,179.6
53.04241,-1.813062,317.93,0,3,227.8,19 / 20,18214,2019-11-06 12:42:39:922,0.0917,-0.0168,9.8096,-0.0003,-0.0001,9.8066,-0.0051,0.0257,-0.0047,13.5,-40.69,15.44,45.13,-88.15,179.47
53.04241,-1.813062,317.93,0,3,227.8,19 / 20,18314,2019-11-06 12:42:40:022,-0.025,-0.0739,9.9076,0.0004,0.001,9.8066,0.0045,0.0124,0.0084,13.75,-41.37,15.88,42.62,-88.14,178.99
53.04241,-1.813062,317.93,0,3,227.8,19 / 20,18415,2019-11-06 12:42:40:123,-0.076,-0.0323,9.9436,-0.0001,-0.0015,9.8066,-0.0102,0.021,0.0081,13.31,-41.44,16.56,38.64,-88.13,178.98
53.04241,-1.813062,317.93,0,3,227.8,19 / 19,18514,2019-11-06 12:42:40:222,0.0414,-0.0156,9.8539,0.0007,-0.0013,9.8066,0.0013,0.0061,0.0024,13.13,-41.31,16.63,38.08,-88.13,178.46
53.04241,-1.813062,317.93,0,3,227.8,19 / 19,18614,2019-11-06 12:42:40:322,0.1582,0.1416,9.7761,0.0024,-0.0007,9.8066,0.0034,0.0103,0.0162,13.75,-41.56,16.63,39.8,-88.13,178.03
53.04241,-1.813062,317.93,0,3,227.8,19 / 19,18714,2019-11-06 12:42:40:422,0.1607,-0.0616,9.7781,-0.0005,-0.0007,9.8066,-0.0065,0.0117,0.0058,13.88,-41.25,16.06,41.82,-88.13,178.21
53.04241,-1.813062,317.93,0,3,227.8,19 / 19,18815,2019-11-06 12:42:40:523,-0.0891,-0.0525,10.0641,0.0027,0.0012,9.8066,0.0219,0.0086,0.0185,13.56,-41.06,16,41.51,-88.14,177.93
53.04241,-1.813062,317.93,0,3,227.8,19 / 19,18915,2019-11-06 12:42:40:623,-0.005,-0.0054,9.9366,0.0011,0.0008,9.8066,0.0012,0.0093,0.0089,13.38,-40.94,16.5,37.8,-88.12,178.18
53.04241,-1.813062,317.93,0,3,227.8,19 / 19,19015,2019-11-06 12:42:40:723,-0.1153,-0.1127,9.9846,0.0004,0.0014,9.8066,0.0223,0.0043,0.0036,14,-41.62,16.56,39.72,-88.15,177.98
53.04241,-1.813062,317.93,0,3,227.8,19 / 19,19114,2019-11-06 12:42:40:822,0.2538,0.1339,9.7321,0.0036,0.0015,9.8066,0.0228,0.0003,0.0157,13.63,-41.37,16.31,41.35,-88.15,177.79
53.04241,-1.813062,317.93,0,3,227.8,19 / 19,19214,2019-11-06 12:42:40:922,0.1155,0.0265,9.8181,-0.0017,-0.0006,9.8066,0.0098,-0.0091,-0.0059,14.06,-41.19,15.88,41.53,-88.15,177.96
53.04241,-1.813062,317.93,0,3,227.8,19 / 19,19314,2019-11-06 12:42:41:022,0.0989,-0.0137,9.8812,0.0009,0.0019,9.8066,0.0184,-0.012,0.0015,13.63,-41.56,16.31,41.48,-88.15,177.85
53.04241,-1.813062,317.93,0,3,227.8,19 / 19,19414,2019-11-06 12:42:41:122,-0.0926,0.0341,9.8885,0.0003,-0.0008,9.8066,0.0051,-0.0088,0.0038,13.5,-41.37,16.13,41.82,-88.15,178.24
53.04241,-1.813062,317.93,0,3,227.8,19 / 19,19515,2019-11-06 12:42:41:223,-0.053,-0.0923,9.9193,0.0013,-0.0014,9.8066,0.016,-0.0238,-0.0084,13.19,-41.44,16.25,39.27,-88.14,177.82
53.04241,-1.813062,317.93,0,3,227.8,19 / 19,19614,2019-11-06 12:42:41:322,0.1304,0.252,9.7443,-0.0017,-0.0002,9.8066,0.001,-0.021,0.0049,13.56,-41.44,16.31,41.41,-88.15,177.85
53.04241,-1.813062,317.93,0,3,227.8,19 / 19,19714,2019-11-06 12:42:41:422,0.0946,-0.0568,9.8773,-0.0002,0.0004,9.8066,-0.0005,-0.0203,-0.0051,13,-41.87,16.63,37.09,-88.13,177.46
53.04241,-1.813062,317.93,0,3,227.8,19 / 19,19814,2019-11-06 12:42:41:522,0.0264,0.0825,9.8302,-0.0007,-0.0007,9.8066,0.0068,-0.0174,0.0019,13.75,-41.62,16.81,39.1,-88.13,177.36
53.04241,-1.813062,317.93,0,3,227.8,19 / 19,19915,2019-11-06 12:42:41:623,-0.0846,-0.168,10.005,-0.0016,0.0023,9.8066,0.001,-0.0236,0,13,-41.25,16.06,38.86,-88.14,177.43
53.04241,-1.813062,317.93,0,3,227.8,19 / 19,20014,2019-11-06 12:42:41:722,0.0282,0.076,9.8812,0.0005,0,9.8066,0.006,-0.0416,-0.0112,13.38,-41.56,16.06,38.46,-88.13,176.98
53.04241,-1.813062,317.93,0,3,227.8,19 / 19,20114,2019-11-06 12:42:41:822,0.1256,-0.0375,9.8972,-0.002,0.0021,9.8066,0.0055,-0.0195,-0.0043,13.38,-41.69,16.88,36.78,-88.14,177.17
53.04241,-1.813062,317.93,0,3,227.8,19 / 19,20215,2019-11-06 12:42:41:923,0.0257,0.0302,9.8226,-0.0003,0.002,9.8066,-0.0024,-0.0314,-0.0049,13.19,-40.94,15.75,38.09,-88.13,176.69
53.04241,-1.813062,317.93,0,3,227.8,19 / 19,20314,2019-11-06 12:42:42:022,0.0617,0.0682,9.9033,-0.0009,0.0008,9.8066,-0.0043,-0.0132,-0.0145,13.19,-41.37,15.69,38.56,-88.14,177.15
53.04241,-1.813062,317.93,0,3,227.8,19 / 19,20414,2019-11-06 12:42:42:122,-0.0301,0.0912,9.8968,-0.0004,0.0008,9.8066,-0.0128,-0.0214,-0.0029,13.06,-41.62,16.06,38.38,-88.15,176.93
53.04241,-1.813062,317.93,0,3,227.8,19 / 19,20514,2019-11-06 12:42:42:222,-0.0019,0.0121,9.8452,0.0007,0,9.8066,-0.0143,0.0016,-0.0198,13.19,-41.56,16.63,36.45,-88.16,176.88
53.04241,-1.813062,317.93,0,3,227.8,19 / 19,20614,2019-11-06 12:42:42:322,0.1772,0.0379,9.8192,0.0002,-0.0016,9.8066,-0.01,0.0052,0.0039,13.56,-41.06,16.56,38.56,-88.17,176.94
53.04241,-1.813062,317.93,0,3,227.8,19 / 19,20714,2019-11-06 12:42:42:422,0.1507,0.0469,9.7513,0.0023,-0.0012,9.8066,-0.019,0.022,-0.015,13.56,-41.12,16.81,37.89,-88.16,176.29
53.04241,-1.813062,317.93,0,3,227.8,19 / 19,20814,2019-11-06 12:42:42:522,0.0151,-0.0577,9.9156,0.0018,-0.0017,9.8066,-0.0086,0.0252,0.0013,13.44,-41.69,16.56,35.93,-88.16,176.39
53.04241,-1.813062,317.93,0,3,227.8,19 / 19,20915,2019-11-06 12:42:42:623,-0.1342,0.0152,9.9097,0.002,0.0004,9.8066,-0.011,0.0335,0.0007,13.25,-41.5,15.94,37.41,-88.16,176.08
53.04241,-1.813062,317.93,0,3,227.8,19 / 19,21014,2019-11-06 12:42:42:722,0.1318,-0.0651,9.7872,0.0022,-0.0009,9.8066,-0.0007,0.0199,0.0009,13.19,-41.81,16.56,35.99,-88.14,176.43
53.04241,-1.813062,317.93,0,3,227.8,19 / 19,21114,2019-11-06 12:42:42:822,-0.1059,-0.0749,9.9264,-0.0006,0.0003,9.8066,0.0018,0.0292,0.0168,13.75,-41.69,16.56,37.73,-88.15,176.08
53.04241,-1.813062,317.93,0,3,227.8,19 / 19,21214,2019-11-06 12:42:42:922,-0.0331,-0.0421,9.9214,0.0028,0.0017,9.8066,-0.0063,0.0103,-0.0034,13.63,-41.06,16.63,37.67,-88.13,176.05
53.04241,-1.813062,317.93,0,3,227.8,19 / 19,21315,2019-11-06 12:42:43:023,0.2587,0.1927,9.7594,-0.0007,-0.001,9.8066,0.0116,0.0179,0.0176,13.63,-41.44,16.13,39.44,-88.14,175.96
53.04241,-1.813062,317.93,0,3,227.8,19 / 19,21414,2019-11-06 12:42:43:122,0.2036,0.0634,9.8115,0,0.0015,9.8066,-0.0062,0.0158,-0.0024,13.38,-41.37,16.38,37.01,-88.17,175.7
53.04241,-1.813062,317.93,0,3,227.8,19 / 19,21514,2019-11-06 12:42:43:222,0.0405,0.077,9.7482,-0.0003,-0.0024,9.8066,0.0156,-0.0034,0.0005,13.75,-41.37,16.63,37.38,-88.16,175.81
53.04241,-1.813062,317.93,0,3,227.8,19 / 19,21614,2019-11-06 12:42:43:322,-0.1467,-0.0465,9.9172,-0.0016,0.0013,9.8066,0.0021,0.0068,0.0026,13.38,-41.19,16.44,36.64,-88.17,175.36
53.04241,-1.813062,317.93,0,3,227.8,19 / 19,21714,2019-11-06 12:42:43:422,0.002,-0.026,9.8328,0.0029,0.0002,9.8066,0.0024,-0.0168,-0.0041,13.94,-41.37,16.06,38.76,-88.17,175.35
53.04241,-1.813062,317.93,0,3,227.8,19 / 19,21814,2019-11-06 12:42:43:522,0.0437,0.1666,9.84,-0.0026,0.0004,9.8066,0.0195,-0.0149,0.0158,13.94,-40.75,16.06,38.49,-88.17,175.1
53.04241,-1.813062,317.93,0,3,227.8,19 / 19,21914,2019-11-06 12:42:43:622,0.023,-0.048,9.8595,0.0013,-0.0007,9.8066,0.0018,-0.0169,-0.0084,13.25,-41.31,15.88,35.89,-88.17,174.65
53.04241,-1.813062,317.93,0,3,227.8,19 / 19,22015,2019-11-06 12:42:43:723,-0.0353,-0.0044,9.8239,0.0009,-0.0003,9.8066,0.0199,-0.0238,0.0079,13.63,-41.37,15.63,38.07,-88.15,174.68
53.04241,-1.813062,317.93,0,3,227.8,19 / 19,22114,2019-11-06 12:42:43:822,-0.0828,-0.1346,10.0184,-0.0013,0.0018,9.8066,0.0036,-0.0237,0.0069,13.44,-41.25,16.44,35.66,-88.17,174.43
53.04241,-1.813062,317.93,0,3,227.8,19 / 19,22214,2019-11-06 12:42:43:922,0.0142,0.0679,9.8575,0.0017,0.001,9.8066,0.0147,-0.0329,-0.0064,13.69,-41.25,16.38,37.81,-88.15,174.41
53.04241,-1.813062,317.93,0,3,227.8,19 / 19,22315,2019-11-06 12:42:44:023,0.0159,-0.0581,9.9352,-0.0027,-0.0005,9.8066,0.0121,-0.0174,-0.002,13.5,-41.62,16.31,37.93,-88.16,174.49
53.04241,-1.813062,317.93,0,3,227.8,19 / 19,22414,2019-11-06 12:42:44:122,0.0608,0.1193,9.7883,0.002,0.0032,9.8066,-0.0107,-0.0324,-0.005,13.63,-40.75,15.88,37.88,-88.15,174.48
53.04241,-1.813062,317.93,0,3,227.8,19 / 19,22514,2019-11-06 12:42:44:222,0.1505,0.0949,9.819,-0.0042,-0.0013,9.8066,0.0023,-0.0134,-0.0072,13.75,-41.12,16.5,36.45,-88.15,174.91
53.04241,-1.813062,317.93,0,3,227.8,19 / 19,22614,2019-11-06 12:42:44:322,-0.0965,0.093,9.9527,0.0001,0.0026,9.8066,-0.0192,-0.0318,-0.0017,13.06,-41.12,15.69,35.92,-88.18,174.7
53.04241,-1.813062,317.93,0,3,227.8,19 / 19,22714,2019-11-06 12:42:44:422,0.0939,-0.0428,9.7949,-0.0017,0.001,9.8066,-0.0176,0.0111,-0.0169,13.63,-41.12,15.88,37.98,-88.17,174.61
53.04241,-1.813062,317.93,0,3,227.8,19 / 19,22814,2019-11-06 12:42:44:522,0.1526,0.1674,9.7646,0.0004,0.0007,9.8066,-0.014,-0.0189,0.0082,13.5,-40.94,16.38,37.78,-88.2,174.45
53.04241,-1.813062,317.93,0,3,227.8,19 / 19,22915,2019-11-06 12:42:44:623,0.2624,0.1184,9.686,-0.0019,-0.0008,9.8066,-0.0244,0.0124,-0.0104,13.44,-41.37,16.44,35.3,-88.19,174.1
53.04241,-1.813062,317.93,0,3,227.8,19 / 19,23014,2019-11-06 12:42:44:722,-0.0696,0.0419,9.8476,0.0008,-0.0021,9.8066,-0.0032,-0.0116,-0.0056,13.44,-41.75,16.63,33.31,-88.2,173.95
53.04241,-1.813062,317.93,0,3,227.8,19 / 19,23114,2019-11-06 12:42:44:822,-0.1543,-0.0774,9.9657,-0.0007,0.0016,9.8066,-0.0205,0.0239,0.0071,13.63,-40.75,16.13,37.02,-88.19,173.71
53.04241,-1.813062,317.93,0,3,227.8,19 / 19,23214,2019-11-06 12:42:44:922,-0.1677,-0.0008,9.8981,0.0003,-0.0021,9.8066,0.0054,0.0201,-0.0076,13.38,-40.94,15.75,34.81,-88.18,173.64
53.04241,-1.813062,317.93,0,3,227.8,19 / 19,23315,2019-11-06 12:42:45:023,0.0889,0.065,9.8488,0.0003,-0.0007,9.8066,-0.0098,0.0264,-0.0004,13.44,-41.44,16.38,35.24,-88.18,174.05
53.04241,-1.813062,317.93,0,3,227.8,19 / 19,23414,2019-11-06 12:42:45:122,0.062,0.0126,9.8408,0.0008,0.0009,9.8066,0.0047,0.0227,0.0002,13.06,-41.19,15.88,34.98,-88.17,173.78
53.04241,-1.813062,317.93,0,3,227.8,19 / 21,23514,2019-11-06 12:42:45:222,-0.0802,0.0147,9.9647,-0.0006,-0.0018,9.8066,0.0157,0.0173,0.0058,13.88,-41.75,16.19,37.35,-88.18,173.97
53.04241,-1.813062,317.93,0,3,227.8,19 / 21,23614,2019-11-06 12:42:45:322,0.0341,-0.1033,9.8751,0,0.0006,9.8066,-0.0001,0.0117,-0.001,14.25,-41.5,16.06,37.21,-88.19,173.89
53.04241,-1.813062,317.93,0,3,227.8,19 / 21,23714,2019-11-06 12:42:45:422,0.1006,0.1686,9.7541,0.001,-0.0012,9.8066,0.0104,0.001,0.0032,13.13,-41.06,16.56,33.54,-88.19,174.2
53.04241,-1.813062,317.93,0,3,227.8,19 / 21,23814,2019-11-06 12:42:45:522,0.2948,0.1149,9.6871,-0.0015,-0.0009,9.8066,0.0123,0.0108,0.0009,13.44,-41.69,16.38,35.24,-88.2,174.02
53.04241,-1.813062,317.93,0,3,227.8,19 / 21,23914,2019-11-06 12:42:45:622,-0.0307,0.032,9.8633,0.0043,-0.0016,9.8066,0.0065,-0.0064,-0.0114,13.38,-41.62,16.31,34.56,-88.21,173.39
53.04241,-1.813062,317.93,0,3,227.8,19 / 21,24015,2019-11-06 12:42:45:723,-0.1887,-0.1627,9.9979,-0.0021,-0.0021,9.8066,0.0164,0.0004,0.0137,13.44,-41.44,15.88,34.63,-88.22,173.51
53.04241,-1.813062,317.93,0,3,227.8,19 / 21,24114,2019-11-06 12:42:45:822,-0.162,-0.009,9.9247,0.0018,-0.0003,9.8066,0.0104,-0.0009,-0.0071,13.44,-41.5,16.38,34.29,-88.21,173.17
53.04241,-1.813062,317.93,0,3,227.8,19 / 21,24214,2019-11-06 12:42:45:922,0.1535,0.0138,9.8439,0.0021,-0.0052,9.8066,0.0251,-0.0021,-0.0164,13.94,-41.56,16.25,37.16,-88.2,173.82
53.04241,-1.813062,317.93,0,3,227.8,19 / 21,24314,2019-11-06 12:42:46:022,0.0807,0.0096,9.7857,0.0015,0.0005,9.8066,0.0151,-0.0079,0,13.63,-41.37,16.38,36.36,-88.2,173.1
53.04241,-1.813062,317.93,0,3,227.8,19 / 21,24415,2019-11-06 12:42:46:123,0.0519,-0.0529,9.7931,0.0014,-0.0004,9.8066,0.0105,-0.0005,-0.0166,13.69,-41.5,16.56,34.17,-88.19,172.79
53.04241,-1.813062,317.93,0,3,227.8,19 / 19,24514,2019-11-06 12:42:46:222,-0.077,0.1201,9.9407,0.0005,-0.0018,9.8066,0.0228,-0.0146,-0.0094,13.13,-41.5,15.81,34.18,-88.19,173.05
53.04241,-1.813062,317.93,0,3,227.8,19 / 19,24614,2019-11-06 12:42:46:322,0.296,0.1569,9.7295,0.0002,-0.0015,9.8066,0.0024,-0.0086,-0.0136,13.25,-41.12,16,33.83,-88.18,172.71
53.04241,-1.813062,317.93,0,3,227.8,19 / 19,24714,2019-11-06 12:42:46:422,0.0089,-0.0089,9.7625,0.0015,-0.0025,9.8066,0.015,-0.0339,-0.0143,13.31,-41.69,16.19,33.21,-88.15,172.05
53.04241,-1.813062,317.93,0,3,227.8,19 / 19,24814,2019-11-06 12:42:46:522,0.187,0.0037,9.7282,-0.0037,-0.0028,9.8066,0.0067,-0.0042,-0.0068,12.69,-40.94,16.25,33.61,-88.14,172.45
53.04241,-1.813062,317.93,0,3,227.8,19 / 19,24914,2019-11-06 12:42:46:622,-0.2181,0.0185,9.9294,0.0034,-0.0009,9.8066,-0.0003,-0.0299,-0.0135,13.25,-41.56,16.31,33.22,-88.14,172.03
53.04241,-1.813062,317.93,0,3,227.8,19 / 19,25015,2019-11-06 12:42:46:723,-0.0005,0.0452,9.922,0.0005,-0.0013,9.8066,0.0085,0.002,0.0064,13.56,-41.25,16.13,36.09,-88.13,172.76
53.04241,-1.813062,317.93,0,3,227.8,19 / 19,25114,2019-11-06 12:42:46:822,-0.0084,0.2049,9.8913,0.0032,0.0005,9.8066,-0.0027,-0.0131,0.0009,13.75,-41.25,16.06,34.83,-88.14,171.58
53.04241,-1.813062,317.93,0,3,227.8,19 / 19,25214,2019-11-06 12:42:46:922,0.0121,-0.029,9.8034,0.0028,0.0006,9.8066,-0.0036,-0.0155,-0.0128,13.25,-41.37,16.13,33.21,-88.13,172.07
53.04241,-1.813062,317.93,0,3,227.8,19 / 19,25314,2019-11-06 12:42:47:022,0.1169,0.0465,9.8175,-0.0005,0.001,9.8066,0.0022,-0.0099,0.0105,12.81,-40.94,16.44,32.93,-88.15,171.83
53.04241,-1.813062,317.93,0,3,227.8,19 / 19,25415,2019-11-06 12:42:47:123,-0.054,-0.045,9.9221,0.0021,0.0016,9.8066,-0.0185,-0.0019,-0.0201,13.75,-41.25,16.19,34.78,-88.17,171.57
53.04241,-1.813062,317.93,0,3,227.8,20 / 21,25514,2019-11-06 12:42:47:222,0.0849,-0.007,9.8328,0.0003,0.0016,9.8066,-0.0119,-0.0069,0.0019,13.38,-41.31,16.13,33.23,-88.19,172.15
53.04241,-1.813062,317.93,0,3,227.8,20 / 21,25614,2019-11-06 12:42:47:322,0.0177,0.0862,9.8011,-0.0023,0.0025,9.8066,-0.0163,0.0177,0.0023,13.19,-41.62,16.19,32.73,-88.18,171.62
53.04241,-1.813062,317.93,0,3,227.8,20 / 21,25714,2019-11-06 12:42:47:422,0.0715,0.0172,9.793,0.0004,-0.0004,9.8066,-0.0103,0.007,-0.0105,13.13,-41.62,15.69,33.41,-88.19,172.26
53.04241,-1.813062,317.93,0,3,227.8,20 / 21,25814,2019-11-06 12:42:47:522,-0.0764,0.0219,9.9173,-0.0019,0.0004,9.8066,-0.0066,0.0245,0.0169,13.44,-41.19,16.38,33.14,-88.19,172.06
53.04241,-1.813062,317.93,0,3,227.8,20 / 21,25914,2019-11-06 12:42:47:622,-0.0736,-0.0471,9.9133,0.0005,-0.0014,9.8066,-0.006,0.0003,0.0007,13.25,-41.5,16.38,32.93,-88.17,171.84
53.04241,-1.813062,317.93,0,3,227.8,20 / 21,26014,2019-11-06 12:42:47:722,0.0339,0.0859,9.8389,-0.0014,0.0005,9.8066,0.0011,0.017,0.0216,13.31,-41.31,16.69,31.67,-88.17,172.41
53.04241,-1.813062,317.93,0,3,227.8,20 / 21,26115,2019-11-06 12:42:47:823,0.0974,-0.0158,9.8273,0.0001,0.0016,9.8066,-0.006,0.0118,0.0177,12.75,-41.37,16.38,32.89,-88.17,171.81
53.04241,-1.813062,317.93,0,3,227.8,20 / 21,26214,2019-11-06 12:42:47:922,-0.0417,0.0176,9.9255,-0.0002,-0.001,9.8066,0.0144,-0.0046,0.0109,13.19,-41.5,15.81,33.28,-88.17,172.18
53.04241,-1.813062,317.93,0,3,227.8,20 / 21,26314,2019-11-06 12:42:48:022,-0.0405,0.0159,9.8884,-0.0022,0.0011,9.8066,0.0027,0.0157,0.0174,13.06,-41.06,16.25,33.44,-88.18,172.34
53.04241,-1.813062,317.93,0,3,227.8,20 / 21,26414,2019-11-06 12:42:48:122,-0.0748,-0.0191,9.899,0.0013,0.0006,9.8066,0.0098,0.0018,-0.0045,13.63,-41.5,16.25,35.53,-88.18,172.29
53.04241,-1.813062,317.93,0,3,227.8,19 / 20,26515,2019-11-06 12:42:48:223,0.1484,0.1608,9.8092,0.0005,0.0007,9.8066,0.0116,0.0026,0.0064,13.69,-41.69,16.38,35.63,-88.19,172.34
53.04241,-1.813062,317.93,0,3,227.8,19 / 20,26615,2019-11-06 12:42:48:323,0.0981,0.1081,9.8345,0.0002,0.0021,9.8066,0.0102,-0.0046,0.0019,13.94,-41.19,16.5,33.5,-88.2,172.16
53.04241,-1.813062,317.93,0,3,227.8,19 / 20,26715,2019-11-06 12:42:48:423,0.066,0.033,9.7701,-0.0012,-0.0013,9.8066,0.019,-0.0044,-0.0017,13.44,-41.19,16.25,33.42,-88.18,172.32
53.04241,-1.813062,317.93,0,3,227.8,19 / 20,26815,2019-11-06 12:42:48:523,-0.1473,0,9.9049,-0.0012,0.0016,9.8066,0.0084,-0.0023,0.0169,13.38,-41.62,15.81,33.53,-88.2,172.39
53.04241,-1.813062,317.93,0,3,227.8,19 / 20,26915,2019-11-06 12:42:48:623,-0.0928,-0.0473,9.8619,0.0026,-0.0005,9.8066,0.0056,-0.0005,0.0028,13.5,-41.31,16.5,33.36,-88.19,172.02
53.04241,-1.813062,317.93,0,3,227.8,19 / 20,27014,2019-11-06 12:42:48:722,-0.1565,0.0556,9.9653,-0.0014,0.0006,9.8066,0.0237,-0.0008,0.0202,13.69,-41.06,16,35.59,-88.2,172.38
53.04241,-1.813062,317.93,0,3,227.8,19 / 20,27114,2019-11-06 12:42:48:822,0.1986,0.0601,9.7973,0.0003,0.0013,9.8066,0.0113,-0.0081,0.0125,13.5,-41.94,15.75,35.38,-88.22,172.14
53.04241,-1.813062,317.93,0,3,227.8,19 / 20,27214,2019-11-06 12:42:48:922,0.0457,0.0911,9.8416,0.0012,-0.0005,9.8066,0.0186,-0.0099,0.0017,13.31,-41.12,16.5,31.23,-88.21,172.03
53.04241,-1.813062,317.93,0,3,227.8,19 / 20,27315,2019-11-06 12:42:49:023,0.0611,-0.0634,9.8597,-0.0022,0.0016,9.8066,0.0209,0.0022,0.0212,13.38,-41.12,16.25,33.64,-88.22,172.57
53.04241,-1.813062,317.93,0,3,227.8,19 / 20,27414,2019-11-06 12:42:49:122,-0.0202,0.0187,9.8412,0.0009,0.0019,9.8066,0.0021,-0.0034,-0.0025,13.56,-41.19,16.5,33.62,-88.22,172.3
53.04241,-1.813062,317.93,0,3,227.8,19 / 19,27514,2019-11-06 12:42:49:222,-0.0431,-0.0589,9.8895,-0.001,-0.001,9.8066,0.0161,0.0009,0.001,12.94,-41.37,16.63,31.86,-88.23,172.66
53.04241,-1.813062,317.93,0,3,227.8,19 / 19,27614,2019-11-06 12:42:49:322,0.0202,0.0502,9.8251,-0.0015,0.0016,9.8066,0.0068,0.0045,0.0114,13.63,-41.44,16.38,35.5,-88.26,172.35
53.04241,-1.813062,317.93,0,3,227.8,19 / 19,27714,2019-11-06 12:42:49:422,0.0183,0.1096,9.86,0.0024,0.0007,9.8066,0.0021,-0.0007,-0.0135,13.5,-41.44,16.38,35.76,-88.27,172.6
53.04241,-1.813062,317.93,0,3,227.8,19 / 19,27815,2019-11-06 12:42:49:523,0.0622,0.1173,9.7456,-0.0004,0.0003,9.8066,0.0156,-0.0025,0.0186,13.69,-41.69,16.31,36.16,-88.27,172.95
53.04241,-1.813062,317.93,0,3,227.8,19 / 19,27914,2019-11-06 12:42:49:622,-0.0624,-0.0075,9.8922,-0.0003,0.0016,9.8066,0.0063,-0.0124,-0.0024,13.88,-41.31,16.25,35.85,-88.28,172.71
53.04241,-1.813062,317.93,0,3,227.8,19 / 19,28014,2019-11-06 12:42:49:722,-0.104,-0.1786,9.9391,0.0018,-0.0021,9.8066,0.0242,-0.0121,-0.0074,13.56,-41.31,16.13,36.27,-88.28,173.11
53.04241,-1.813062,317.93,0,3,227.8,19 / 19,28114,2019-11-06 12:42:49:822,-0.1593,-0.1376,9.959,0.0001,0.0015,9.8066,0.0107,-0.0088,0.0089,13,-41.25,16.19,33.69,-88.29,172.7
53.04241,-1.813062,317.93,0,3,227.8,19 / 19,28215,2019-11-06 12:42:49:923,0.1061,0.2006,9.8386,0.0017,0.0022,9.8066,0.007,-0.0305,-0.0025,13.75,-41.44,16.5,33.96,-88.26,172.67
53.04241,-1.813062,317.93,0,3,227.8,19 / 19,28314,2019-11-06 12:42:50:022,0.0912,0.0286,9.7291,-0.0022,0.0003,9.8066,0.0186,-0.0192,-0.0021,13.25,-41.44,15.69,34.11,-88.28,173.08
53.04241,-1.813062,317.93,0,3,227.8,19 / 19,28414,2019-11-06 12:42:50:122,0.0272,0.0057,9.8404,0,0.0007,9.8066,-0.0032,-0.0192,-0.0084,13.19,-41.69,15.88,33.5,-88.29,172.48
53.04241,-1.813062,317.93,0,3,227.8,19 / 20,28514,2019-11-06 12:42:50:222,-0.0142,-0.1059,9.8775,0.0005,0.0004,9.8066,-0.0042,-0.0154,-0.0131,13.44,-41.12,16.25,33.75,-88.28,172.75
53.04241,-1.813062,317.93,0,3,227.8,19 / 20,28614,2019-11-06 12:42:50:322,-0.1109,0.0118,9.8984,-0.0027,0.0004,9.8066,0.0039,-0.0185,0.0032,13.19,-41.19,16.69,31.56,-88.3,172.44
53.04241,-1.813062,317.93,0,3,227.8,19 / 20,28714,2019-11-06 12:42:50:422,0.1396,-0.0461,9.8177,0.0021,0.0018,9.8066,-0.0069,-0.0121,-0.0253,13.81,-40.94,16.56,33.79,-88.3,172.55
53.04241,-1.813062,317.93,0,3,227.8,19 / 20,28814,2019-11-06 12:42:50:522,-0.0259,0.1489,9.8109,0.0014,0.0001,9.8066,0.0092,-0.0241,0.0113,13.06,-41.37,16.25,34.1,-88.3,173.09
53.04241,-1.813062,317.93,0,3,227.8,19 / 20,28915,2019-11-06 12:42:50:623,0.0145,-0.0076,9.895,-0.0018,0.0029,9.8066,-0.0044,-0.0025,0.0005,13.31,-41.81,16,33.88,-88.31,172.86
53.04241,-1.813062,317.93,0,3,227.8,19 / 20,29014,2019-11-06 12:42:50:722,-0.0975,0.0498,9.8704,0.0025,-0.0005,9.8066,0.0094,-0.0252,-0.0116,13.56,-41.44,16.13,36.02,-88.31,172.9
53.04241,-1.813062,317.93,0,3,227.8,19 / 20,29114,2019-11-06 12:42:50:822,-0.0875,-0.1308,10.0039,-0.0021,0.0011,9.8066,0.0192,-0.0105,-0.0063,13.38,-41.56,16.31,34.62,-88.31,173.56
53.04241,-1.813062,317.93,0,3,227.8,19 / 20,29214,2019-11-06 12:42:50:922,0.242,0.1303,9.7247,0.001,0.0018,9.8066,-0.0067,-0.014,-0.0103,13.63,-41.37,16.06,36.46,-88.3,173.32
53.04241,-1.813062,317.93,0,3,227.8,19 / 20,29315,2019-11-06 12:42:51:023,0.0206,0.0591,9.7904,-0.0008,-0.0023,9.8066,0.0124,-0.0154,-0.0139,13.56,-40.94,16.44,37.1,-88.28,173.91
53.04241,-1.813062,317.93,0,3,227.8,19 / 20,29414,2019-11-06 12:42:51:122,0.0931,0.0683,9.7446,-0.0005,-0.0004,9.8066,-0.0087,-0.0089,-0.003,13.25,-41,16.63,33.18,-88.29,173.97
53.04241,-1.813062,317.93,0,3,227.8,19 / 19,29514,2019-11-06 12:42:51:222,0.0567,0.1207,9.8004,0.0023,0.0009,9.8066,-0.0106,-0.0072,-0.0145,13.25,-41.5,16,34.76,-88.29,173.71
53.04241,-1.813062,317.93,0,3,227.8,19 / 19,29614,2019-11-06 12:42:51:322,0.118,-0.0384,9.8138,-0.0012,-0.0017,9.8066,0.015,-0.0003,-0.0034,13.13,-41.06,16.25,35.19,-88.28,174.11
53.04241,-1.813062,317.93,0,3,227.8,19 / 19,29714,2019-11-06 12:42:51:422,-0.0693,-0.0161,9.973,0.0034,0.0021,9.8066,-0.011,-0.0114,-0.0098,13.31,-41.06,16.13,34.95,-88.32,173.93
53.04241,-1.813062,317.93,0,3,227.8,19 / 19,29814,2019-11-06 12:42:51:522,-0.0356,-0.0708,9.9245,0.0022,0.0008,9.8066,0.0031,-0.0119,-0.0049,13.81,-40.94,15.94,37.55,-88.3,174.35
53.04241,-1.813062,317.93,0,3,227.8,19 / 19,29914,2019-11-06 12:42:51:622,-0.1459,-0.0926,9.9398,-0.0012,0.0004,9.8066,0.0061,-0.0118,0.0005,13.81,-41.81,16.69,35.49,-88.32,174.15
53.04241,-1.813062,317.93,0,3,227.8,19 / 19,30014,2019-11-06 12:42:51:722,0.2208,0.2302,9.7246,0.0025,0.001,9.8066,-0.0172,0.0021,-0.0132,13.25,-41.31,16.19,35.43,-88.32,174.39
53.04241,-1.813062,317.93,0,3,227.8,19 / 19,30114,2019-11-06 12:42:51:822,0.1079,0.1258,9.8012,-0.0015,0.0007,9.8066,-0.0031,-0.017,0.004,13.31,-41.25,16.13,35.54,-88.33,174.5
53.04241,-1.813062,317.93,0,3,227.8,19 / 19,30215,2019-11-06 12:42:51:923,0.0202,-0.0104,9.8045,-0.0019,0.0024,9.8066,-0.0173,-0.0007,-0.0018,13.25,-40.87,16.38,35.58,-88.34,174.55
53.04241,-1.813062,317.93,0,3,227.8,19 / 19,30314,2019-11-06 12:42:52:022,-0.1023,-0.1024,9.9271,0.0007,0.0018,9.8066,-0.0162,-0.0106,-0.0079,13.38,-41.31,16.38,35.65,-88.35,174.63
53.04241,-1.813062,317.93,0,3,227.8,19 / 19,30414,2019-11-06 12:42:52:122,-0.1229,-0.0872,9.9194,-0.0028,0.0022,9.8066,-0.0115,0.0026,0.0207,12.94,-41.5,15.63,35.71,-88.35,174.69
53.04241,-1.813062,317.93,0,3,227.8,19 / 20,30514,2019-11-06 12:42:52:222,0.0821,0.0771,9.8503,-0.0006,0.0004,9.8066,-0.0232,0.012,-0.0065,13.06,-40.81,17,34.34,-88.35,175.14
53.04241,-1.813062,317.93,0,3,227.8,19 / 20,30614,2019-11-06 12:42:52:322,0.0194,0.0084,9.8067,0.0006,-0.0005,9.8066,-0.0068,0.0072,0.0126,13.38,-41.19,16.44,36.66,-88.34,175.58
53.04241,-1.813062,317.93,0,3,227.8,19 / 20,30714,2019-11-06 12:42:52:422,0.0347,-0.0028,9.7832,-0.0025,0.0025,9.8066,-0.0169,0.0186,0.0175,13.44,-41.25,16.13,36.84,-88.34,175.76
53.04241,-1.813062,317.93,0,3,227.8,19 / 20,30814,2019-11-06 12:42:52:522,-0.0657,-0.0842,9.996,-0.0005,-0.0014,9.8066,0.0031,0.0124,-0.011,13.25,-41.19,16.44,36.7,-88.34,175.61
53.04241,-1.813062,317.93,0,3,227.8,19 / 20,30915,2019-11-06 12:42:52:623,-0.0626,-0.1207,9.9109,-0.0012,0.0008,9.8066,-0.0103,0.0143,0.0066,13.31,-40.94,15.88,37.28,-88.33,176.17
53.04241,-1.813062,317.93,0,3,227.8,19 / 20,31014,2019-11-06 12:42:52:722,-0.1189,-0.1652,9.9838,-0.0011,0.0035,9.8066,-0.0127,0.0196,0.002,13.25,-41.37,15.81,36.9,-88.32,175.78
53.04241,-1.813062,317.93,0,3,227.8,19 / 20,31114,2019-11-06 12:42:52:822,0.2516,0.1485,9.718,-0.0021,-0.0026,9.8066,-0.0027,0.0042,0.0022,13.25,-41.25,15.69,37.62,-88.3,176.45
53.04241,-1.813062,317.93,0,3,227.8,19 / 20,31214,2019-11-06 12:42:52:922,-0.0583,0.0475,9.8459,-0.0026,0.0007,9.8066,-0.0087,0.0177,0.0142,13.69,-41.12,16.13,40.16,-88.3,176.85
53.04241,-1.813062,317.93,0,3,227.8,19 / 20,31315,2019-11-06 12:42:53:023,0.0679,0.0228,9.7467,0.0003,-0.001,9.8066,-0.0116,0.0053,0.008,13.56,-41.31,15.5,39.61,-88.29,176.31
53.04241,-1.813062,317.93,0,3,227.8,19 / 20,31414,2019-11-06 12:42:53:122,-0.211,0.012,9.943,-0.0022,0.0019,9.8066,-0.0019,0.017,0.0224,13.44,-41,16.25,37.34,-88.29,176.17
53.04241,-1.813062,317.93,0,3,227.8,19 / 19,31515,2019-11-06 12:42:53:223,0.0712,-0.0358,9.8994,-0.0001,0.0021,9.8066,-0.0074,0.0163,0.0114,13.13,-41.12,15.75,37.61,-88.3,176.45
53.04241,-1.813062,317.93,0,3,227.8,19 / 19,31615,2019-11-06 12:42:53:323,-0.0561,0.1428,9.8987,0.0005,0.0003,9.8066,0.0051,0.0035,0.0129,13.31,-41.12,15.94,37.89,-88.3,176.71
53.04241,-1.813062,317.93,0,3,227.8,19 / 19,31714,2019-11-06 12:42:53:422,0.1258,-0.1029,9.7911,-0.0035,0.0021,9.8066,-0.0052,0.0257,0.0175,13.13,-41,16.25,38.13,-88.3,176.94
53.04241,-1.813062,317.93,0,3,227.8,19 / 19,31814,2019-11-06 12:42:53:522,0.0711,0.0092,9.8695,0,0.0017,9.8066,0.0093,0.0071,-0.0013,13.38,-41.25,15.94,38.1,-88.31,176.92
53.04241,-1.813062,317.93,0,3,227.8,19 / 19,31915,2019-11-06 12:42:53:623,0.0384,-0.0955,9.9704,-0.0013,0.0007,9.8066,0.0113,0.0123,0.007,13.88,-41.25,16.56,38.8,-88.32,177.35
53.04241,-1.813062,317.93,0,3,227.8,19 / 19,32015,2019-11-06 12:42:53:723,-0.0513,-0.11,9.8849,0.001,0.0019,9.8066,0.0021,0.0136,0.0033,13.81,-41.56,15.88,40.38,-88.33,177.04
53.04241,-1.813062,317.93,0,3,227.8,19 / 19,32114,2019-11-06 12:42:53:822,0.0417,0.2016,9.8063,0.0003,-0.0017,9.8066,0.0119,0.0014,-0.0108,13.44,-41.44,16,38.29,-88.34,177.14
53.04241,-1.813062,317.93,0,3,227.8,19 / 19,32214,2019-11-06 12:42:53:922,0.1447,0.0255,9.8126,0.0008,0.0007,9.8066,0.0051,0.0086,0.0072,13.63,-41.44,16.31,40.24,-88.35,176.98
53.04241,-1.813062,317.93,0,3,227.8,19 / 19,32314,2019-11-06 12:42:54:022,-0.045,0.1024,9.832,0.0015,-0.0028,9.8066,0.0151,-0.0163,-0.0035,13.63,-41.12,16.25,39.66,-88.34,176.42
53.04241,-1.813062,317.93,0,3,227.8,19 / 19,32415,2019-11-06 12:42:54:123,-0.1092,-0.2077,9.9648,-0.0003,-0.003,9.8066,0.01,-0.0002,-0.0072,13.38,-41.25,15.75,37.83,-88.34,176.7
53.04241,-1.813062,317.93,0,3,227.8,19 / 19,32514,2019-11-06 12:42:54:222,-0.0709,0.0547,9.8274,0.0016,0.0003,9.8066,-0.003,-0.0198,0.0014,13.38,-41.31,16,37.8,-88.33,176.66
53.04241,-1.813062,317.93,0,3,227.8,19 / 19,32614,2019-11-06 12:42:54:322,0.1155,-0.0545,9.8839,0,-0.0017,9.8066,0.0235,-0.0122,-0.0138,13.31,-40.87,15.75,38.2,-88.33,177.05
53.04241,-1.813062,317.93,0,3,227.8,19 / 19,32714,2019-11-06 12:42:54:422,-0.014,-0.0912,9.8823,0.0021,-0.0008,9.8066,0.0003,-0.0264,-0.0029,13.31,-41.62,16.06,37.58,-88.34,176.41
53.04241,-1.813062,317.93,0,3,227.8,19 / 19,32814,2019-11-06 12:42:54:522,0.046,-0.0821,9.8558,0.0003,0,9.8066,0.006,-0.0091,-0.0115,13.06,-41.12,16.13,37.36,-88.32,176.23
53.04241,-1.813062,317.93,0,3,227.8,19 / 19,32914,2019-11-06 12:42:54:622,-0.1713,-0.0785,9.9309,0.0017,0.0012,9.8066,-0.0055,-0.0056,-0.0011,13.56,-40.81,16.19,39.61,-88.35,176.38
53.04241,-1.813062,317.93,0,3,227.8,19 / 19,33014,2019-11-06 12:42:54:722,0.1748,0.108,9.8144,0.0013,0.0002,9.8066,-0.0081,0.0021,-0.0177,14.06,-41.19,16.44,39.58,-88.36,176.37
53.04241,-1.813062,317.93,0,3,227.8,19 / 19,33114,2019-11-06 12:42:54:822,0.0335,0.056,9.8447,0,-0.0001,9.8066,-0.0069,-0.0015,0.0013,13.56,-41.25,16.81,38.28,-88.37,176.91
53.04241,-1.813062,317.93,0,3,227.8,19 / 19,33214,2019-11-06 12:42:54:922,0.0754,-0.0117,9.823,-0.0005,0.0012,9.8066,-0.0156,0.0082,-0.0045,13.13,-41.25,16.19,37.78,-88.38,176.7
