GPS LATITUDE (degrees), GPS LONGITUDE (degrees), GPS ALTITUDE (m), GPS SPEED (Kmh), GPS ACCURACY (m), GPS ORIENTATION (Â°),GPS SATELLITES IN RANGE, TIME SINCE START (ms), DATE (YYYY-MO-DD HH-MI-SS_SSS), ACCELEROMETER X (m/s²) , ACCELEROMETER Y (m/s²), ACCELEROMETER Z (m/s²), GRAVITY X (m/s²), GRAVITY Y (m/s²), GRAVITY Z (m/s²), GYROSCOPE Yaw (rad/s), GYROSCOPE Pitch (rad/s), GYROSCOPE Roll (rad/s), MAGNETIC FIELD X (Î¼T), MAGNETIC FIELD Y (Î¼T), MAGNETIC FIELD Z (Î¼T), ORIENTATION (Yaw) (Â°), ORIENTATION (Pitch) (Â°), ORIENTATION (Roll ) (Â°)
52.596283,-1.608857,147.72,0,6,114.12,21 / 23,10,2020-01-08 17:32:13:603,0.0848,-0.0047,9.7008,-0.0009,0.0022,9.8066,0.0065,0.0181,-0.0229,-15.12,-28.5,11.75,311.36,-86.03,-172.89
52.596283,-1.608857,147.72,0,6,114.12,21 / 23,110,2020-01-08 17:32:13:703,0.2831,0.437,9.8097,-0.0035,-0.0053,9.8066,0.0026,0.0053,-0.0082,-15.94,-28.25,12.25,309.63,-86.03,-172.89
52.596283,-1.608857,147.72,0,6,114.12,21 / 23,210,2020-01-08 17:32:13:803,-0.1191,-0.1793,9.8444,0.0005,0.0072,9.8066,0.0063,-0.0166,0.0196,-15.44,-28.75,12.38,311.27,-86.02,-172.8
52.596283,-1.608857,147.72,0,6,114.12,21 / 23,310,2020-01-08 17:32:13:903,0.1268,0.1049,9.8339,-0.0038,-0.0054,9.8066,0.0085,-0.0423,0.0007,-15.44,-28,12.63,314.19,-86.03,-172.64
52.596283,-1.608857,147.72,0,6,114.12,23 / 23,409,2020-01-08 17:32:14:002,0.3342,0.4628,9.7552,0.0034,0.0076,9.8066,0.0111,-0.0518,0.0453,-15.31,-28.62,11.75,311.38,-86.03,-172.71
52.596283,-1.608857,147.72,0,6,114.12,23 / 23,510,2020-01-08 17:32:14:103,0.2003,0.1942,9.8622,-0.0001,0.0003,9.8066,-0.0017,-0.0576,0.0399,-16,-28.19,11.81,309.65,-86.04,-172.88
52.596283,-1.608857,147.72,0,6,114.12,23 / 23,610,2020-01-08 17:32:14:203,0.1843,0.4695,9.8317,0.0069,0.0057,9.8066,-0.0058,-0.0708,0.0449,-15.31,-28.81,12.56,313.87,-86.06,-172.82
52.596283,-1.608857,147.72,0,6,114.12,23 / 23,710,2020-01-08 17:32:14:303,-0.1497,-0.5555,9.8557,0.0032,0.0064,9.8066,-0.0045,-0.0608,0.0509,-15.06,-28.19,12.31,310.9,-86.05,-173.34
52.596283,-1.608857,147.72,0,6,114.12,23 / 23,809,2020-01-08 17:32:14:402,-0.0209,0.2569,9.7619,0.0042,0.0037,9.8066,-0.0135,-0.0548,0.0169,-15.37,-28.94,12.06,310.72,-86.05,-173.34
52.596283,-1.608857,147.72,0,6,114.12,23 / 23,910,2020-01-08 17:32:14:503,-0.3381,-0.5211,9.8539,0.0041,0.0089,9.8066,0.0114,-0.0262,0.0147,-16.37,-28.19,12.56,311.64,-86.06,-173.38
52.596283,-1.608857,147.72,0,6,114.12,23 / 23,1010,2020-01-08 17:32:14:603,0.4713,0.6185,9.8617,0.0019,0.0025,9.8066,-0.0014,0.0151,-0.0164,-15.94,-29.31,11.69,309.25,-86.06,-173.12
52.596283,-1.608857,147.72,0,6,114.12,23 / 23,1110,2020-01-08 17:32:14:703,-0.1129,-0.0449,9.904,0.0038,0.0065,9.8066,0.011,0.0338,-0.0172,-15.19,-27.94,11.75,310.74,-86.05,-173.49
52.596283,-1.608857,147.72,0,6,114.12,23 / 23,1209,2020-01-08 17:32:14:802,0.5353,0.4399,9.8353,-0.0015,-0.0035,9.8066,0.003,0.061,-0.0427,-15.94,-29,12.13,309.43,-86.07,-172.96
52.596283,-1.608857,147.72,0,6,114.12,21 / 23,1310,2020-01-08 17:32:14:903,-0.2004,-0.1253,9.8583,0.0037,0.0081,9.8066,-0.0047,0.0844,-0.0416,-16.31,-28.69,12.13,309.11,-86.07,-173.27
52.596283,-1.608857,147.72,0,6,114.12,21 / 23,1410,2020-01-08 17:32:15:003,-0.1351,-0.3852,9.8701,-0.003,-0.0055,9.8066,-0.0149,0.0632,-0.0312,-15.5,-28.12,12.25,311.6,-86.05,-172.69
52.596283,-1.608857,147.72,0,6,114.12,21 / 23,1510,2020-01-08 17:32:15:103,-0.2455,-0.321,9.8255,-0.0028,-0.0007,9.8066,-0.0024,0.0463,-0.0242,-15.87,-29.31,12.19,309.56,-86.06,-172.83
52.596283,-1.608857,147.72,0,6,114.12,21 / 23,1610,2020-01-08 17:32:15:203,-0.2492,-0.2912,9.8356,-0.0047,-0.0079,9.8066,0.0011,0.0407,-0.0213,-16,-28.31,12.31,309.38,-86.06,-173.16
52.596283,-1.608857,147.72,0,6,114.12,21 / 23,1709,2020-01-08 17:32:15:302,0.3708,0.5617,9.8509,-0.0002,-0.0044,9.8066,0.0149,0.0112,-0.0091,-16.19,-27.75,12,309.68,-86.04,-172.85
52.596283,-1.608857,147.72,0,6,114.12,21 / 23,1810,2020-01-08 17:32:15:403,-0.0879,-0.1574,9.7381,-0.003,-0.0068,9.8066,-0.0023,-0.0093,0.009,-15.31,-29.06,12.13,311.02,-86.06,-173.08
52.596283,-1.608857,147.72,0,6,114.12,21 / 23,1909,2020-01-08 17:32:15:502,0.3989,0.3509,9.9379,-0.0042,-0.007,9.8066,-0.0053,-0.0234,0.0338,-16.12,-28.69,12.38,310.14,-86.04,-172.27
52.596283,-1.608857,147.72,0,6,114.12,21 / 23,2010,2020-01-08 17:32:15:603,-0.0614,-0.0294,9.897,-0.0003,-0.0029,9.8066,-0.001,-0.0561,0.0219,-15.75,-29.44,12.5,312.46,-86.03,-172.44
52.596283,-1.608857,147.72,0,6,114.12,21 / 23,2109,2020-01-08 17:32:15:702,-0.0117,-0.0382,9.7341,-0.002,-0.0059,9.8066,-0.0051,-0.0574,0.022,-16.12,-28.75,12.69,312.6,-86.03,-172.3
52.596283,-1.608857,147.72,0,6,114.12,21 / 23,2209,2020-01-08 17:32:15:802,-0.2865,-0.3017,9.9309,0.0035,0.0049,9.8066,-0.0039,-0.0628,0.0277,-15.81,-29.06,11.81,309.99,-86.03,-172.4
52.596283,-1.608857,147.72,0,6,114.12,21 / 23,2310,2020-01-08 17:32:15:903,-0.0646,0.1226,9.7341,-0.0026,-0.0024,9.8066,0.0026,-0.0319,0.0249,-15.69,-28.37,12.13,310,-86.03,-172.54
52.596283,-1.608857,147.72,0,6,114.12,21 / 22,2410,2020-01-08 17:32:16:003,0.3422,0.2475,9.8442,0.0006,0.0046,9.8066,-0.0036,0.0077,0.0005,-15.62,-28.69,12.31,310.01,-86.05,-172.4
52.596283,-1.608857,147.72,0,6,114.12,21 / 22,2509,2020-01-08 17:32:16:102,-0.1823,0.1743,9.7432,-0.0004,0.0008,9.8066,0.018,0.0339,-0.0006,-15.81,-29,12.75,312.51,-86.07,-172.44
52.596283,-1.608857,147.72,0,6,114.12,21 / 22,2609,2020-01-08 17:32:16:202,0.3778,0.1313,9.8386,0.0032,0.0016,9.8066,0.0071,0.0273,-0.0283,-16.37,-28.56,12.44,309.72,-86.09,-172.71
52.596283,-1.608857,147.72,0,6,114.12,21 / 22,2710,2020-01-08 17:32:16:303,-0.0474,-0.1192,9.9343,0.0042,0.0015,9.8066,0.0025,0.0138,-0.0061,-15.81,-28.81,12,309.84,-86.06,-172.58
52.596283,-1.608857,147.72,0,6,114.12,21 / 22,2810,2020-01-08 17:32:16:403,0.3161,0.1529,9.8591,0.002,0.0002,9.8066,-0.0059,0.0195,-0.0116,-15.87,-28.87,12.19,309.9,-86.05,-172.51
52.596283,-1.608857,147.72,0,6,114.12,21 / 22,2909,2020-01-08 17:32:16:502,-0.131,-0.0977,9.8476,0.0014,0.0033,9.8066,0.0004,0.006,-0.0103,-16.19,-29.06,12.75,312.11,-86.03,-172.77
52.596283,-1.608857,147.72,0,6,114.12,21 / 22,3011,2020-01-08 17:32:16:604,-0.1666,-0.124,9.8138,-0.0031,-0.0013,9.8066,-0.0039,0.0018,0.0065,-15.31,-28.75,12.25,311.48,-86.06,-172.65
52.596283,-1.608857,147.72,0,6,114.12,21 / 22,3111,2020-01-08 17:32:16:704,0.0355,0.0685,9.8543,-0.0045,-0.0008,9.8066,0.001,-0.0222,0.0132,-15.56,-28.44,12,309.49,-86.05,-173.05
52.596283,-1.608857,147.72,0,6,114.12,21 / 22,3210,2020-01-08 17:32:16:803,-0.1756,-0.2956,9.798,0.0009,-0.0008,9.8066,-0.0011,-0.0327,0.0164,-15.81,-28.5,12.19,309.99,-86.07,-172.59
52.596283,-1.608857,147.72,0,6,114.12,21 / 22,3309,2020-01-08 17:32:16:902,-0.0634,0,9.8257,0.0052,0.0051,9.8066,0.0047,-0.0227,0.0257,-15.94,-29,12.38,309.39,-86.06,-173
52.596283,-1.608857,147.72,0,6,114.12,22 / 23,3410,2020-01-08 17:32:17:003,-0.17,-0.059,9.8247,0.0005,0.0031,9.8066,0.0031,-0.047,0.0166,-16.44,-28.81,12.5,312.11,-86.07,-172.81
52.596283,-1.608857,147.72,0,6,114.12,22 / 23,3510,2020-01-08 17:32:17:103,0.2985,0.4032,9.8624,0.0022,0.0024,9.8066,-0.0062,-0.0465,0.0237,-15.69,-29,12.13,309.97,-86.08,-172.47
52.596283,-1.608857,147.72,0,6,114.12,22 / 23,3610,2020-01-08 17:32:17:203,-0.0592,-0.1862,9.8582,0.0051,0.0045,9.8066,-0.0114,-0.028,0.0239,-16.12,-28.94,12.13,309.74,-86.07,-172.67
52.596283,-1.608857,147.72,0,6,114.12,22 / 23,3710,2020-01-08 17:32:17:303,0.2695,0.4126,9.7911,0.0006,-0.0018,9.8066,-0.0071,-0.0208,-0.0069,-15.62,-28.75,12.31,309.8,-86.06,-172.61
52.596283,-1.608857,147.72,0,6,114.12,22 / 23,3810,2020-01-08 17:32:17:403,0.0674,-0.3263,9.6236,0.0005,-0.0002,9.8066,0.0289,-0.008,-0.0339,-15.87,-28.56,12.25,310.37,-86.08,-172.09
52.596283,-1.608857,147.72,0,6,114.12,22 / 23,3910,2020-01-08 17:32:17:503,-0.1485,0.0076,9.8295,-0.0033,0.0003,9.8066,0.0053,0.0327,-0.0096,-16.25,-29,12.13,310.01,-86.1,-172.46
52.596283,-1.608857,147.72,0,6,114.12,22 / 23,4010,2020-01-08 17:32:17:603,-0.3076,-0.3455,9.6928,0.0076,0.0033,9.8066,0.0053,0.0478,-0.0081,-16.06,-28.69,12.25,310,-86.1,-172.47
52.596283,-1.608857,147.72,0,6,114.12,22 / 23,4110,2020-01-08 17:32:17:703,0.1408,0.0549,10.0012,-0.0041,-0.0084,9.8066,0.0144,0.0568,-0.0442,-16.37,-29.06,12.19,309.96,-86.12,-172.53
52.596283,-1.608857,147.72,0,6,114.12,22 / 23,4210,2020-01-08 17:32:17:803,0.3026,0.4151,9.8548,0.0047,0.0018,9.8066,0.0094,0.0974,-0.0281,-15.81,-28.87,12,310.28,-86.09,-172.19
52.596283,-1.608857,147.72,0,6,114.12,22 / 23,4310,2020-01-08 17:32:17:903,0.3581,0.2949,9.8705,-0.0039,-0.0083,9.8065,-0.0092,0.0795,-0.0481,-15.56,-28.5,12.31,310.84,-86.08,-171.8
52.596283,-1.608857,147.72,0,6,114.12,21 / 22,4410,2020-01-08 17:32:18:003,0.1792,0.3745,9.7669,0.0004,-0.0015,9.8066,-0.0062,0.0571,-0.0328,-15.94,-29,12.13,310.38,-86.09,-172.1
52.596283,-1.608857,147.72,0,6,114.12,21 / 22,4510,2020-01-08 17:32:18:103,-0.3365,-0.5824,9.9236,-0.0036,-0.0075,9.8066,-0.0139,0.0411,-0.0229,-16.06,-29.37,12.69,312.66,-86.1,-172.33
52.596283,-1.608857,147.72,0,6,114.12,21 / 22,4610,2020-01-08 17:32:18:203,0.0744,0.1968,9.8001,-0.0045,-0.0037,9.8066,-0.001,0.0138,-0.0224,-16.06,-29,12.75,312.88,-86.1,-172.12
52.596283,-1.608857,147.72,0,6,114.12,21 / 22,4710,2020-01-08 17:32:18:303,-0.3812,-0.4846,9.8834,-0.0042,-0.0052,9.8066,0.0015,-0.0261,0.009,-16.37,-28.12,12.81,312.69,-86.09,-172.43
52.596283,-1.608857,147.72,0,6,114.12,21 / 22,4809,2020-01-08 17:32:18:402,0.5808,0.4411,9.7657,-0.0056,-0.0091,9.8066,0.0072,-0.0257,0.0229,-16.44,-28.37,12,310.98,-86.08,-171.68
52.596283,-1.608857,147.72,0,6,114.12,21 / 22,4910,2020-01-08 17:32:18:503,-0.1026,-0.0141,9.8481,0.0018,-0.0015,9.8066,-0.0024,-0.0463,0.0341,-15.69,-28.5,11.94,310.67,-86.1,-171.99
52.596283,-1.608857,147.72,0,6,114.12,21 / 22,5010,2020-01-08 17:32:18:603,0.2141,0.3914,9.7848,-0.0039,-0.0086,9.8066,0.0047,-0.0515,0.0437,-15.81,-29,12.5,313.38,-86.06,-171.62
52.596283,-1.608857,147.72,0,6,114.12,21 / 22,5109,2020-01-08 17:32:18:702,-0.1713,-0.1323,9.8728,0.0022,0.0024,9.8066,-0.0016,-0.057,0.0318,-16.25,-28.69,12.31,310.93,-86.09,-171.58
52.596283,-1.608857,147.72,0,6,114.12,21 / 22,5212,2020-01-08 17:32:18:805,0.5832,0.3486,9.9032,0.0002,-0.0034,9.8066,0.0076,-0.0725,0.023,-15.56,-29.19,12.31,310.85,-86.08,-171.65
52.596283,-1.608857,147.72,0,6,114.12,21 / 21,5312,2020-01-08 17:32:18:905,-0.1566,-0.3218,9.8003,0.0043,0.0056,9.8066,-0.0039,-0.0294,0.0164,-16,-28.75,12.5,312.92,-86.09,-172.08
52.596283,-1.608857,147.72,0,6,114.12,21 / 21,5410,2020-01-08 17:32:19:003,0.2183,0.0781,9.7662,-0.0022,0.0021,9.8066,-0.0054,-0.0161,0.0095,-15.5,-28.75,11.94,312.6,-86.11,-171.66
52.596283,-1.608857,147.72,0,6,114.12,21 / 21,5509,2020-01-08 17:32:19:102,0.5107,0.1348,9.8813,-0.001,0.0033,9.8066,0.0014,0.0299,-0.0172,-15.94,-29.19,12.56,313.25,-86.1,-171.77
52.596283,-1.608857,147.72,0,6,114.12,21 / 21,5610,2020-01-08 17:32:19:203,0.1487,-0.3593,10.001,0.0036,0.0046,9.8066,-0.0002,0.037,-0.014,-15.69,-28.44,12.63,313.34,-86.1,-171.83
52.596283,-1.608857,147.72,0,6,114.12,21 / 21,5710,2020-01-08 17:32:19:303,0.8474,-0.0029,9.9077,-0.002,0.0025,9.8066,0.0082,0.0269,-0.0265,-16.12,-28.56,12.31,310.9,-86.1,-171.62
52.596283,-1.608857,147.72,0,6,114.12,21 / 21,5809,2020-01-08 17:32:19:402,0.0636,-0.4095,9.8452,0.0028,0.0036,9.8066,-0.0047,0.0124,-0.018,-15.75,-28.25,12.69,313.3,-86.12,-171.88
52.596283,-1.608857,147.72,0,6,114.12,21 / 21,5910,2020-01-08 17:32:19:503,0.2649,-0.4286,9.8816,-0.0006,-0.0028,9.8066,-0.0071,0.0087,-0.0011,-15.81,-28.62,13.75,316.28,-86.11,-171.17
52.596283,-1.608857,147.72,0,6,114.12,21 / 21,6010,2020-01-08 17:32:19:603,0.445,-0.5985,9.9734,-0.0016,-0.0003,9.8066,-0.0178,-0.0048,0.0088,-15.81,-28.75,13.44,314.1,-86.11,-171
52.596283,-1.608857,147.72,0,6,114.12,21 / 21,6110,2020-01-08 17:32:19:703,0.2552,-0.2953,9.7723,-0.0032,-0.0028,9.8066,-0.0158,-0.0272,0.0042,-16.37,-27.75,13.06,314.49,-86.12,-170.78
52.596283,-1.608857,147.72,0,6,114.12,21 / 21,6210,2020-01-08 17:32:19:803,0.5084,-0.1518,9.9396,-0.005,0.0006,9.8066,-0.0257,-0.0537,0.0191,-15.87,-28.19,12.69,315.1,-86.15,-170.23
52.596283,-1.608857,147.72,0,6,114.12,21 / 21,6310,2020-01-08 17:32:19:903,-0.0154,-0.4693,9.7365,-0.0061,-0.0036,9.8066,-0.0199,-0.0522,0.0367,-16.31,-28.87,13.63,317.38,-86.16,-170.19
52.596283,-1.608857,147.72,0,6,114.12,22 / 23,6409,2020-01-08 17:32:20:002,0.4207,-0.4004,9.9234,-0.0054,-0.0012,9.8066,-0.0228,-0.0804,0.0272,-17,-29.56,14.25,316.29,-86.18,-169.52
52.596283,-1.608857,147.72,0,6,114.12,22 / 23,6509,2020-01-08 17:32:20:102,0.1462,-0.5492,9.9613,-0.0044,-0.0031,9.8066,-0.0109,-0.0801,0.029,-16.44,-29.37,12.81,315.77,-86.2,-169.53
52.596283,-1.608857,147.72,0,6,114.12,22 / 23,6610,2020-01-08 17:32:20:203,0.4106,-0.244,9.8755,-0.0049,-0.0041,9.8066,-0.0041,-0.0516,-0.0003,-16.5,-28.56,12.38,314.08,-86.22,-168.79
52.596283,-1.608857,147.72,0,6,114.12,22 / 23,6710,2020-01-08 17:32:20:303,0.4234,-0.4302,9.8124,-0.0019,0.0044,9.8066,-0.0042,-0.0647,0.0043,-16.44,-29.31,13.94,318.82,-86.28,-168.96
52.596283,-1.608857,147.72,0,6,114.12,22 / 23,6810,2020-01-08 17:32:20:403,0.3743,-0.4948,9.8612,-0.0025,-0.0035,9.8066,-0.0185,-0.0726,0.0227,-16.81,-28.44,15.06,319.67,-86.28,-168.73
52.596283,-1.608857,147.72,0,6,114.12,22 / 23,6910,2020-01-08 17:32:20:503,0.1009,-0.7349,9.9058,-0.0035,-0.0054,9.8066,-0.0001,-0.0891,0.023,-16.56,-28.56,14.81,320.16,-86.3,-168.17
52.596283,-1.608857,147.72,0,6,114.12,22 / 23,7010,2020-01-08 17:32:20:603,0.2703,-1.0144,9.8882,-0.0027,-0.0069,9.8066,-0.0151,-0.1196,0.0066,-16.44,-28.37,15.19,323.86,-86.26,-166.41
52.596283,-1.608857,147.72,0,6,114.12,22 / 23,7110,2020-01-08 17:32:20:703,0.0579,-1.2386,10.0659,-0.0048,-0.0011,9.8066,-0.0148,-0.1165,0.017,-16.37,-28.31,15.63,327.7,-86.22,-164.74
52.596283,-1.608857,147.72,0,6,114.12,22 / 23,7210,2020-01-08 17:32:20:803,0.2165,-1.3046,9.7919,-0.0081,-0.0119,9.8065,-0.0225,-0.16,0.0579,-16.19,-29.06,15.63,329.45,-86.17,-163
52.596283,-1.608857,147.72,0,6,114.12,22 / 23,7310,2020-01-08 17:32:20:903,0.1686,-1.0257,9.9788,0.0027,0.0058,9.8065,-0.0089,-0.1682,-0.0083,-16.37,-29.19,14.75,327.84,-86.15,-162.54
52.596283,-1.608857,147.72,0,6,114.12,22 / 22,7410,2020-01-08 17:32:21:003,0.6387,-1.1308,9.7128,-0.0058,0.0023,9.8066,-0.0142,-0.2172,-0.0051,-15.94,-28.81,14.94,327.04,-86.22,-163.33
52.596283,-1.608857,147.72,0,6,114.12,22 / 22,7510,2020-01-08 17:32:21:103,0.1578,-0.8284,9.9256,-0.0061,0.0079,9.8066,-0.0168,-0.2351,0.0313,-15.44,-29.25,15.63,331.17,-86.27,-163.25
52.596283,-1.608857,147.72,0,6,114.12,22 / 22,7610,2020-01-08 17:32:21:203,0.5675,-0.7957,9.6812,-0.0167,-0.0058,9.8066,-0.0111,-0.2327,-0.0322,-15.94,-28,15.25,327.22,-86.25,-163.28
52.596283,-1.608857,147.72,0,6,114.12,22 / 22,7710,2020-01-08 17:32:21:303,0.0212,-1.0963,10.294,-0.0145,0.0021,9.8066,-0.007,-0.2577,0.0098,-15.19,-29.25,16.13,333.64,-86.32,-161
52.596283,-1.608857,147.72,0,6,114.12,22 / 22,7810,2020-01-08 17:32:21:403,-1.1752,-1.6592,9.6567,-0.0179,-0.0123,9.8066,0.0174,-0.229,-0.0162,-14.62,-29.44,16.19,335.07,-86.23,-159.63
52.596283,-1.608857,147.72,0,6,114.12,22 / 22,7910,2020-01-08 17:32:21:503,-1.009,-0.7733,9.795,-0.0044,-0.0029,9.8066,-0.0057,-0.2477,-0.0727,-14.56,-29.37,16.63,338.3,-86.21,-158.44
52.596283,-1.608857,147.72,0,6,114.12,22 / 22,8010,2020-01-08 17:32:21:603,-0.4341,-0.5903,10.3415,0.0266,0.0054,9.8065,-0.0445,-0.3921,0.0644,-14.12,-29.75,17.19,340.87,-86.23,-157.94
52.596283,-1.608857,147.72,0,6,114.12,22 / 22,8110,2020-01-08 17:32:21:703,0.0904,-0.2021,9.9636,0.008,-0.0105,9.8065,-0.0099,-0.3509,0.0056,-14.12,-29.37,16.94,337.48,-86.25,-161.11
52.596283,-1.608857,147.72,0,6,114.12,22 / 22,8210,2020-01-08 17:32:21:803,-0.2638,-0.2025,9.9843,0.0059,-0.0071,9.8066,0.0313,-0.3518,0.0654,-13.81,-30.12,18.56,339.48,-86.11,-162.36
52.596283,-1.608857,147.72,0,6,114.12,22 / 22,8312,2020-01-08 17:32:21:905,-0.6258,-0.5972,9.9557,-0.0422,-0.0099,9.8065,-0.0975,-0.5076,0.1589,-13.5,-29.56,18.38,342.89,-86,-159.64
52.596283,-1.608857,147.72,0,6,114.12,22 / 23,8410,2020-01-08 17:32:22:003,-1.0924,-0.12,9.8895,0.0121,0.009,9.8066,-0.0302,-0.4037,0.0411,-12.75,-29.12,18.94,343.46,-85.89,-160.65
52.596283,-1.608857,147.72,0,6,114.12,22 / 23,8510,2020-01-08 17:32:22:103,-0.964,-0.1124,9.9238,0.0018,-0.0071,9.8066,0.0136,-0.3254,0.0619,-12.94,-28.81,18.94,344.08,-85.91,-160.09
52.596283,-1.608857,147.72,0,6,114.12,22 / 23,8611,2020-01-08 17:32:22:204,0.0223,-0.1145,9.8363,-0.0015,-0.005,9.8066,0.0162,-0.3184,-0.0304,-12.12,-28.44,19.81,346.1,-85.85,-161.7
52.596283,-1.608857,147.72,0,6,114.12,22 / 23,8710,2020-01-08 17:32:22:303,-0.7311,0.3521,9.5585,0.0016,-0.0104,9.8065,0.0279,-0.298,0.0225,-11.75,-28.19,20.44,345.8,-85.78,-161.96
52.596283,-1.608857,147.72,0,6,114.12,22 / 23,8810,2020-01-08 17:32:22:403,-0.4819,-0.0038,10.3234,0.0072,-0.0195,9.8065,0.0125,-0.2914,0.0414,-11.5,-28.5,20.63,350.37,-85.72,-161.11
52.596283,-1.608857,147.72,0,6,114.12,22 / 23,8910,2020-01-08 17:32:22:503,-1.2046,-0.3817,9.7662,0.0054,-0.015,9.8066,0.0335,-0.3183,-0.0317,-11.69,-29.06,21.25,348.34,-85.48,-160.78
52.596283,-1.608857,147.72,0,6,114.12,22 / 23,9010,2020-01-08 17:32:22:603,-0.7153,-0.2018,9.866,0.0008,-0.0039,9.8066,0.0276,-0.3479,-0.029,-11.12,-28.69,21.75,350.69,-85.54,-161.86
52.596283,-1.608857,147.72,0,6,114.12,22 / 23,9110,2020-01-08 17:32:22:703,-0.7078,0.4012,9.7865,0.0024,-0.0161,9.8066,0.0718,-0.3551,-0.0053,-10.56,-27.94,22.19,350.3,-85.47,-162.24
52.596283,-1.608857,147.72,0,6,114.12,22 / 23,9209,2020-01-08 17:32:22:802,-0.9368,0.3204,9.8062,0.0174,-0.0142,9.8066,0.0262,-0.4045,0.0301,-9.69,-28.5,22.06,349.1,-85.31,-165.4
52.596283,-1.608857,147.72,0,6,114.12,22 / 23,9311,2020-01-08 17:32:22:904,0.5598,-0.5011,9.8612,-0.0312,-0.0121,9.8065,0.0226,-0.3534,0.0632,-9.62,-28.12,22.5,352.49,-85.09,-163.27
52.596283,-1.608857,147.72,0,6,114.12,22 / 23,9411,2020-01-08 17:32:23:004,-0.5659,-0.4844,9.7784,-0.0077,-0.0367,9.8065,0.0907,-0.256,0.0457,-9.19,-28.37,22.63,358.92,-85.15,-159.6
52.596283,-1.608857,147.72,0,6,114.12,22 / 23,9510,2020-01-08 17:32:23:103,-0.0775,-0.0907,10.0875,0.0106,-0.0114,9.8066,-0.0488,-0.3817,0.0413,-8.37,-27.5,23.25,4.71,-84.96,-156.59
52.596283,-1.608857,147.72,0,6,114.12,22 / 23,9610,2020-01-08 17:32:23:203,0.7419,0.3275,10.2456,0.0331,-0.0091,9.8066,-0.0426,-0.4684,0.1031,-8.37,-28.56,24.19,3.92,-84.83,-158.06
52.596283,-1.608857,147.72,0,6,114.12,22 / 23,9710,2020-01-08 17:32:23:303,-0.3432,0.2415,9.8916,0.0259,-0.0134,9.8066,-0.0635,-0.4358,0.089,-8,-28.87,24.19,3.06,-84.78,-158.84
52.596283,-1.608857,147.72,0,6,114.12,22 / 23,9812,2020-01-08 17:32:23:405,1.1327,0.289,9.6281,0.0246,-0.0063,9.8066,0.0005,-0.3286,0.0791,-7.75,-28.69,24.56,1.64,-84.73,-160.79
52.596283,-1.608857,147.72,0,6,114.12,22 / 23,9910,2020-01-08 17:32:23:503,-0.3071,-0.3178,10.1545,-0.0088,-0.0053,9.8066,-0.0083,-0.3131,0.0747,-6.94,-28.25,24.81,4.59,-84.7,-160.24
52.596283,-1.608857,147.72,0,6,114.12,22 / 23,10010,2020-01-08 17:32:23:603,-0.4257,0.2476,9.8669,0.007,0.0079,9.8066,-0.0535,-0.1981,-0.0916,-6.69,-28.12,25.06,3.44,-84.56,-161.28
52.596283,-1.608857,147.72,0,6,114.12,22 / 23,10109,2020-01-08 17:32:23:702,-0.8701,0.241,10.1258,0.0045,0.0141,9.8066,-0.0205,-0.2981,0.0536,-5.87,-28.94,25.31,5.4,-84.7,-161.69
52.596283,-1.608857,147.72,0,6,114.12,22 / 23,10209,2020-01-08 17:32:23:802,0.2782,0.4408,9.4124,-0.0042,-0.0008,9.8066,-0.0292,-0.2199,-0.0129,-5.69,-28.44,25.69,5.26,-84.75,-162.27
52.596283,-1.608857,147.72,0,6,114.12,22 / 24,10309,2020-01-08 17:32:23:902,-0.3056,-0.022,9.4698,0.0067,0.0003,9.8066,0.026,-0.2912,0.024,-5.94,-28.75,25.88,5.42,-84.74,-162.14
52.596283,-1.608857,147.72,0,6,114.12,22 / 24,10410,2020-01-08 17:32:24:003,0.3276,-0.1371,10.0165,-0.0075,-0.0059,9.8066,0.0043,-0.1904,0.0247,-4.87,-29.75,25.88,8.92,-84.65,-161.17
52.596283,-1.608857,147.72,0,6,114.12,22 / 24,10510,2020-01-08 17:32:24:103,-0.8975,0.1514,9.603,0.0112,-0.01,9.8066,0.0228,-0.272,0.0292,-4.37,-29.06,25.5,10.71,-84.62,-161.69
52.596283,-1.608857,147.72,0,6,114.12,22 / 24,10610,2020-01-08 17:32:24:203,-0.0428,0.3004,10.1074,0.0038,-0.0063,9.8065,-0.0229,-0.3144,0.0519,-4.12,-29.75,24.94,10.94,-84.59,-161.23
52.596283,-1.608857,147.72,0,6,114.12,22 / 24,10710,2020-01-08 17:32:24:303,-0.8517,0.4579,9.6573,0.0101,-0.0008,9.8066,-0.0206,-0.253,0.0797,-4.25,-29.25,25.5,10.28,-84.63,-162.07
52.596283,-1.608857,147.72,0,6,114.12,22 / 24,10810,2020-01-08 17:32:24:403,-0.0596,0.3729,9.5548,0.0055,0.0089,9.8066,-0.0431,-0.1803,-0.0588,-3.19,-29.19,24.75,12.29,-84.65,-162.23
52.596283,-1.608857,147.72,0,6,114.12,22 / 24,10910,2020-01-08 17:32:24:503,0.1409,-0.2364,9.8417,-0.0032,0.0055,9.8066,-0.0309,-0.1951,0.0287,-3.81,-29.25,25.44,9.88,-84.7,-162.11
52.596283,-1.608857,147.72,0,6,114.12,22 / 24,11009,2020-01-08 17:32:24:602,-0.1112,0.1591,9.7309,-0.009,0.0038,9.8066,-0.0324,-0.1594,0.0086,-3.31,-29.06,25.5,13.25,-84.69,-161.57
52.596283,-1.608857,147.72,0,6,114.12,22 / 24,11110,2020-01-08 17:32:24:703,-0.8099,-0.5916,10.2885,0.0043,0.0021,9.8066,-0.0324,-0.1878,-0.0241,-2.5,-29.62,24.94,16.55,-84.65,-160.77
52.596283,-1.608857,147.72,0,6,114.12,22 / 24,11210,2020-01-08 17:32:24:803,-0.2296,-0.486,9.9779,-0.0016,-0.0055,9.8066,0.0116,-0.1563,0.0299,-2.25,-29.56,25.25,17.27,-84.54,-160.17
52.596283,-1.608857,147.72,0,6,114.12,22 / 22,11311,2020-01-08 17:32:24:904,-0.5534,-0.929,9.7419,-0.0025,-0.0033,9.8066,0.0226,-0.1931,-0.0412,-2.25,-30.19,25.69,14.97,-84.51,-162.33
52.596283,-1.608857,147.72,0,6,114.12,22 / 22,11409,2020-01-08 17:32:25:002,0.0108,-1.5939,9.9274,0.0065,0.0015,9.8066,0.0065,-0.1164,0.0032,-1.31,-30.56,25.38,15.99,-84.49,-163.67
52.596283,-1.608857,147.72,0,6,114.12,22 / 22,11510,2020-01-08 17:32:25:103,-0.3826,-0.3911,9.6345,0.0029,0.0042,9.8065,-0.0484,-0.2218,0.0489,-1.37,-30.94,25.25,15.29,-84.49,-164.28
52.596283,-1.608857,147.72,0,6,114.12,22 / 22,11610,2020-01-08 17:32:25:203,-0.8634,0.0814,9.5219,-0.007,-0.0053,9.8066,-0.019,-0.1269,0.0058,-1,-30.75,24.56,16.06,-84.49,-163.61
52.596283,-1.608857,147.72,0,6,114.12,22 / 22,11709,2020-01-08 17:32:25:302,0.4371,0.5377,9.8999,0.0059,0.0208,9.8066,-0.0296,-0.1786,0.0589,-0.75,-31,24.38,15.58,-84.6,-163.97
52.596283,-1.608857,147.72,0,6,114.12,22 / 22,11810,2020-01-08 17:32:25:403,0.0581,-1.493,9.9554,0.0016,0.0009,9.8066,-0.0014,-0.1742,0.001,-1.31,-30.75,24.75,15.81,-84.76,-163.73
52.596283,-1.608857,147.72,0,6,114.12,22 / 22,11910,2020-01-08 17:32:25:503,0.8554,-0.8488,9.7326,0.0069,0.0123,9.8066,-0.0639,-0.1884,0.0558,-1.06,-30.94,24.06,16.23,-84.8,-163.32
52.596283,-1.608857,147.72,0,6,114.12,22 / 22,12009,2020-01-08 17:32:25:602,-1.0267,1.019,10.1368,0.0036,0.0229,9.8065,-0.0659,-0.1906,0.0314,-0.56,-31.62,23.81,18.04,-85.13,-161.65
52.596283,-1.608857,147.72,0,6,114.12,22 / 22,12110,2020-01-08 17:32:25:703,0.3358,0.6216,9.8637,0.0051,0.0207,9.8066,-0.0208,-0.046,0.0058,-0.75,-32.12,24.81,18.09,-85.5,-161.46
52.596283,-1.608857,147.72,0,6,114.12,22 / 22,12209,2020-01-08 17:32:25:802,1.4877,-0.0906,9.8916,-0.0022,0.0237,9.8065,-0.0064,0.0877,-0.0297,-0.81,-32,23.94,19.06,-85.63,-160.5
52.596283,-1.608857,147.72,0,6,114.12,22 / 22,12310,2020-01-08 17:32:25:903,0.5336,-0.0405,10.5003,0.0113,-0.0114,9.8065,-0.0155,-0.1006,0.0302,-0.12,-32.56,23.19,22.02,-85.7,-160.35
52.596283,-1.608857,147.72,0,6,114.12,22 / 22,12409,2020-01-08 17:32:26:002,1.4799,-0.4444,9.5085,-0.0012,-0.0174,9.8066,-0.0023,0.0536,0.0201,-0.75,-32.94,23.81,16.96,-85.66,-162.44
52.596283,-1.608857,147.72,0,6,114.12,22 / 22,12510,2020-01-08 17:32:26:103,0.5376,-0.073,9.3518,0.0234,0.0024,9.8065,0.0801,-0.1048,0.0557,-0.69,-31.75,23.94,16.41,-85.49,-162.95
52.596283,-1.608857,147.72,0,6,114.12,22 / 22,12609,2020-01-08 17:32:26:202,0.1071,0.4292,10.185,-0.0063,0.0047,9.8066,0.0061,0.0215,0.0154,-0.44,-32.31,24.25,17.11,-85.45,-164.73
52.596283,-1.608857,147.72,0,6,114.12,22 / 22,12709,2020-01-08 17:32:26:302,-0.3126,1.3455,8.9448,0.0306,0.0072,9.8066,-0.0868,0.0393,-0.1222,-0.12,-32.81,23.88,16.84,-85.72,-164.9
52.596283,-1.608857,147.72,0,6,114.12,22 / 22,12810,2020-01-08 17:32:26:403,0.0316,-1.1978,9.7792,0.0476,0.0386,9.8064,-0.0153,0.0032,0.0818,-0.19,-32.62,23.5,10.04,-86.13,-170.91
52.596283,-1.608857,147.72,0,6,114.12,22 / 22,12910,2020-01-08 17:32:26:503,2.025,0.8708,9.7299,0.0756,0.0216,9.8063,0.0015,-0.0566,0.0857,-0.12,-32.81,22.75,8.88,-86.26,-171.97
52.596283,-1.608857,147.72,0,6,114.12,22 / 22,13010,2020-01-08 17:32:26:603,6.4552,0.3058,11.4632,-0.0305,0.0542,9.8064,0.2157,0.4105,-0.1631,-0.37,-33.06,22,1.65,-86.67,-178.5
52.596283,-1.608857,147.72,0,6,114.12,22 / 22,13110,2020-01-08 17:32:26:703,-1.3709,1.1292,9.7537,0.0141,-0.004,9.8066,0.088,-0.2455,0.1783,-0.25,-33.12,22.81,0.69,-86.45,-179.38
52.596283,-1.608857,147.72,0,6,114.12,22 / 22,13209,2020-01-08 17:32:26:802,-0.1848,0.2318,10.1884,-0.0681,-0.006,9.8064,0.1124,0.3123,0.0622,-0.44,-33.25,22.56,4.9,-86.15,-175.58
52.596283,-1.608857,147.72,0,6,114.12,22 / 23,13310,2020-01-08 17:32:26:903,-4.1561,0.414,9.7235,-0.0082,0.0131,9.8066,0.1649,-0.0016,0.2012,-0.19,-33.81,23.13,13.49,-85.85,-167.97
52.596283,-1.608857,147.72,0,6,114.12,22 / 23,13410,2020-01-08 17:32:27:003,-2.5324,0.0046,9.1918,-0.0905,-0.0034,9.8061,0.067,0.2854,-0.2192,-1.31,-33.5,22.69,15.21,-85.53,-164.03
52.596283,-1.608857,147.72,0,6,114.12,22 / 23,13510,2020-01-08 17:32:27:103,-2.8401,0.146,9.068,0.0285,0.0114,9.8065,0.103,-0.1193,0.0605,-1,-33.94,23.81,15.3,-85.51,-164.04
52.596283,-1.608857,147.72,0,6,114.12,22 / 23,13610,2020-01-08 17:32:27:203,1.836,-0.1286,9.0962,0.0336,0.0006,9.8066,0.004,0.2196,-0.2135,-1.12,-33.75,23.44,8.36,-85.55,-170.13
52.596283,-1.608857,147.72,0,6,114.12,22 / 23,13710,2020-01-08 17:32:27:303,2.9556,-0.4643,9.0079,0.0497,0.0292,9.8064,0.0658,-0.1282,0.1858,-1.75,-33.19,23.06,357.95,-85.65,-176.85
52.596283,-1.608857,147.72,0,6,114.12,22 / 23,13810,2020-01-08 17:32:27:403,5.8715,-0.5073,10.9006,-0.056,0.0679,9.8062,0.06,0.3197,-0.117,-0.94,-33.69,23.94,0.01,-86.09,-177.61
52.596283,-1.608857,147.72,0,6,114.12,22 / 23,13910,2020-01-08 17:32:27:503,-0.3947,0.943,8.9637,0.01,0.0618,9.8064,-0.1591,-0.3416,0.2514,-1.69,-33.81,22.25,358.84,-86.94,-175.87
52.596283,-1.608857,147.72,0,6,114.12,22 / 23,14010,2020-01-08 17:32:27:603,-2.4325,1.0304,10.3574,-0.0298,0.0765,9.8062,-0.0628,0.1246,0.0496,-1.62,-34.75,22.13,7.45,-87.57,-167.86
52.596283,-1.608857,147.72,0,6,114.12,22 / 23,14110,2020-01-08 17:32:27:703,-0.2986,1.9111,9.22,0.0331,0.0538,9.8063,-0.1577,-0.0791,0.1244,-1.62,-34.44,21.31,13.56,-88.09,-161.73
52.596283,-1.608857,147.72,0,6,114.12,22 / 23,14210,2020-01-08 17:32:27:803,-2.2224,3.9583,11.049,-0.0351,0.0495,9.8064,-0.032,-0.0793,0.1363,-2.62,-35.19,20.5,26.81,-88.83,-145.94
52.596283,-1.608857,147.72,0,6,114.12,23 / 24,14310,2020-01-08 17:32:27:903,-0.7612,4.2714,11.4976,-0.0262,-0.0211,9.8066,-0.0188,0.1885,0.0739,-3.25,-34.44,20.56,41.46,-88.9,-131.58
52.596283,-1.608857,147.72,0,6,114.12,23 / 24,14410,2020-01-08 17:32:28:003,-3.6692,1.9303,9.7454,0.0075,-0.0388,9.8065,0.0553,-0.0085,0.0664,-2.81,-35.06,21,42.24,-88.52,-131.28
52.596283,-1.608857,147.72,0,6,114.12,23 / 24,14509,2020-01-08 17:32:28:102,0.3948,0.7823,8.7778,0.0441,-0.0129,9.8064,0.1605,0.2908,-0.0383,-2.37,-34.81,22.25,23.22,-88.31,-152.65
52.596283,-1.608857,147.72,0,6,114.12,23 / 24,14610,2020-01-08 17:32:28:203,2.1038,0.1452,9.247,0.0444,-0.0122,9.8065,0.0692,0.0371,-0.185,-1.69,-34.31,22.31,5.17,-88.09,-169.9
52.596283,-1.608857,147.72,0,6,114.12,23 / 24,14710,2020-01-08 17:32:28:303,2.9948,0.336,9.4666,-0.0153,-0.0096,9.8066,-0.0015,0.2299,-0.1247,-1.75,-35.06,22.44,349.64,-87.96,175.42
52.596283,-1.608857,147.72,0,6,114.12,23 / 24,14810,2020-01-08 17:32:28:403,-0.6791,0.8905,9.4255,0.0303,-0.0058,9.8065,-0.0071,0.033,0.1174,-1.81,-34.94,22.44,350.17,-87.87,175.95
52.596283,-1.608857,147.72,0,6,114.12,23 / 24,14910,2020-01-08 17:32:28:503,-0.8507,0.0614,9.8458,-0.0221,-0.0113,9.8066,-0.0179,0.2228,-0.1164,-3.06,-34.19,22.31,352.21,-87.87,-179.58
52.596283,-1.608857,147.72,0,6,114.12,23 / 24,15009,2020-01-08 17:32:28:602,1.2442,0.6469,9.7368,0.0285,-0.0004,9.8066,0.0224,0.0702,0.083,-3.25,-34.31,22.13,353.3,-87.81,-178.54
52.596283,-1.608857,147.72,0,6,114.12,23 / 24,15110,2020-01-08 17:32:28:703,1.733,0.9772,10.2162,0.0041,0.0028,9.8066,0.0007,0.2862,-0.1311,-3.56,-33.81,22.75,348.46,-87.72,179
52.596283,-1.608857,147.72,0,6,114.12,23 / 24,15210,2020-01-08 17:32:28:803,0.9244,0.7225,10.0566,0.0137,0.008,9.8066,-0.0236,0.0804,0.0034,-2.69,-34.5,22.94,346.13,-87.73,174.37
52.596283,-1.608857,147.72,0,6,114.12,23 / 23,15310,2020-01-08 17:32:28:903,0.6428,0.6081,10.2782,-0.0359,-0.0115,9.8066,0.0099,0.3929,-0.0246,-3.69,-33.75,22.56,349.78,-87.97,-179.82
52.596283,-1.608857,147.72,0,6,114.12,23 / 23,15410,2020-01-08 17:32:29:003,2.457,0.9406,9.6341,-0.0426,-0.0117,9.8065,-0.0651,0.2197,-0.0501,-3.62,-33.81,22.88,6.28,-87.87,-164.2
52.596283,-1.608857,147.72,0,6,114.12,23 / 23,15510,2020-01-08 17:32:29:103,1.3499,0.3805,10.5538,-0.0826,-0.0018,9.8062,0.0156,0.3439,-0.1983,-3.69,-34.69,22.38,24.62,-87.87,-146.48
52.596283,-1.608857,147.72,0,6,114.12,23 / 23,15610,2020-01-08 17:32:29:203,0.1007,0.2848,10.0938,-0.0032,0.016,9.8066,-0.0425,0.1549,-0.0087,-4.69,-34.56,22.19,24.37,-88.01,-144.11
52.596283,-1.608857,147.72,0,6,114.12,23 / 23,15710,2020-01-08 17:32:29:303,-3.9424,0.8449,10.0115,-0.0646,-0.0027,9.8064,0.0395,0.57,-0.2663,-5.06,-34.37,21.56,27.11,-88.1,-141.41
52.596283,-1.608857,147.72,0,6,114.12,23 / 23,15810,2020-01-08 17:32:29:403,-1.2633,2.0593,9.7091,-0.0212,-0.0096,9.8065,-0.0064,0.3356,-0.1202,-6.37,-34.06,22.25,31.92,-87.99,-134.42
52.596283,-1.608857,147.72,0,6,114.12,23 / 23,15911,2020-01-08 17:32:29:504,-2.9853,2.1358,10.2334,-0.0453,-0.018,9.8065,0.0288,0.3666,-0.0658,-6.5,-33.69,22.06,32.12,-87.94,-134.28
52.596283,-1.608857,147.72,0,6,114.12,23 / 23,16010,2020-01-08 17:32:29:603,1.5494,2.0881,10.0759,-0.0525,-0.0238,9.8064,0.0598,0.3781,-0.1895,-6.81,-34.25,22.31,35.5,-87.52,-129
52.596283,-1.608857,147.72,0,6,114.12,23 / 23,16110,2020-01-08 17:32:29:703,-1.689,1.0407,9.8233,-0.0296,-0.0163,9.8065,0.0419,0.201,-0.115,-6.62,-34.19,22.88,34.55,-87.29,-130.73
52.596283,-1.608857,147.72,0,6,114.12,23 / 23,16209,2020-01-08 17:32:29:802,2.3218,1.2884,9.7329,-0.0269,-0.0167,9.8065,0.0537,0.3583,-0.1779,-6.75,-34.25,22.44,30.55,-87.26,-133.87
52.596283,-1.608857,147.72,0,6,114.12,23 / 23,16310,2020-01-08 17:32:29:903,-2.0631,-0.1587,10.0268,-0.0083,-0.0085,9.8066,0.0611,0.0574,-0.0453,-6.69,-34,22.56,25.78,-87.28,-138.99
52.596214,-1.608775,144.27,0.09,6,163.15,23 / 23,16410,2020-01-08 17:32:30:003,1.9067,0.5488,9.4672,0.0044,-0.0168,9.8066,0.0682,0.2812,-0.1073,-6.5,-34.19,23.75,26.27,-87.11,-141.48
52.596214,-1.608775,144.27,0.09,6,163.15,23 / 23,16509,2020-01-08 17:32:30:102,-1.7442,-0.0832,9.6611,0.007,0.0008,9.8066,0.1117,-0.0454,0.0789,-6.44,-34.06,23.31,22.27,-86.99,-144.77
52.596214,-1.608775,144.27,0.09,6,163.15,23 / 23,16610,2020-01-08 17:32:30:203,-0.1984,-0.4473,10.1579,-0.0276,-0.0209,9.8066,0.0575,0.1785,-0.1092,-6.69,-33.94,23.81,18.18,-86.78,-146.96
52.596214,-1.608775,144.27,0.09,6,163.15,23 / 23,16710,2020-01-08 17:32:30:303,-1.7241,-0.388,10.1718,0.0165,-0.0013,9.8066,0.0555,-0.0755,0.1282,-6.69,-33.25,23.69,13.58,-86.67,-151.21
52.596214,-1.608775,144.27,0.09,6,163.15,23 / 23,16810,2020-01-08 17:32:30:403,1.281,-0.0477,9.7113,-0.0225,-0.0201,9.8066,0.0452,0.1488,-0.0941,-7.06,-33.12,23.25,13.82,-86.43,-150.45
52.596214,-1.608775,144.27,0.09,6,163.15,23 / 23,16909,2020-01-08 17:32:30:502,0.8314,0.1741,9.3973,0.008,0.0015,9.8066,0.0794,-0.0463,0.0931,-6.69,-33.56,23.63,12.7,-86.31,-152.16
52.596214,-1.608775,144.27,0.09,6,163.15,23 / 23,17010,2020-01-08 17:32:30:603,1.2492,-0.0267,9.5494,-0.0081,-0.0169,9.8065,0.0495,0.1016,-0.0596,-6.94,-34,24.19,12.02,-86.11,-152.85
52.596214,-1.608775,144.27,0.09,6,163.15,23 / 23,17110,2020-01-08 17:32:30:703,0.3036,-0.1651,9.6804,0.0077,-0.0022,9.8066,0.0428,-0.05,0.053,-7.12,-32.94,23.19,10.04,-85.98,-154.02
52.596214,-1.608775,144.27,0.09,6,163.15,23 / 23,17210,2020-01-08 17:32:30:803,-0.8989,-0.2993,10.1205,0.001,-0.0071,9.8066,0.0613,0.0105,0.0325,-7.12,-33.5,23.81,10.03,-85.82,-154.7
52.596214,-1.608775,144.27,0.09,6,163.15,24 / 24,17310,2020-01-08 17:32:30:903,0.119,0.4334,9.8184,0.0114,-0.008,9.8066,0.0512,-0.0227,0.0142,-7.56,-33.75,23.75,5.73,-85.61,-156.44
52.596214,-1.608775,144.27,0.09,6,163.15,24 / 24,17410,2020-01-08 17:32:31:003,-0.9082,0.1524,9.8942,0.0221,-0.0081,9.8066,0.0547,-0.0292,0.0706,-8.37,-33.12,24.13,4.26,-85.43,-157.76
52.596214,-1.608775,144.27,0.09,6,163.15,24 / 24,17510,2020-01-08 17:32:31:103,0.8149,0.6099,10.003,0.007,-0.009,9.8066,-0.0199,-0.0023,0.0516,-8.75,-33.31,23.81,1.38,-85.22,-158.21
52.596214,-1.608775,144.27,0.09,6,163.15,24 / 24,17610,2020-01-08 17:32:31:203,-0.7089,1.3651,9.7623,-0.009,0.0019,9.8066,0.0089,0.0153,0.0441,-8.87,-33,24.13,2.71,-85.15,-157.04
52.596214,-1.608775,144.27,0.09,6,163.15,24 / 24,17709,2020-01-08 17:32:31:302,-0.7482,2.0025,9.8994,-0.02,0.0037,9.8066,-0.0017,0.0441,0.0364,-8.87,-33.5,23.88,6.75,-85.1,-153.46
52.596214,-1.608775,144.27,0.09,6,163.15,24 / 24,17810,2020-01-08 17:32:31:403,-1.3077,1.1173,10.2076,-0.0016,-0.0002,9.8066,0.0113,-0.0164,0.0411,-9.19,-33.12,24.25,8.31,-85.06,-152.08
52.596214,-1.608775,144.27,0.09,6,163.15,24 / 24,17910,2020-01-08 17:32:31:503,-0.3393,0.5366,10.0108,0.0023,-0.0101,9.8066,0.0165,0.0409,-0.0289,-8.94,-33.25,24.25,8.57,-84.99,-151.87
52.596214,-1.608775,144.27,0.09,6,163.15,24 / 24,18010,2020-01-08 17:32:31:603,-0.1349,0.1281,9.7673,0.0114,-0.005,9.8065,0.0272,0.0059,0.0316,-8.62,-33,24.44,7.32,-84.84,-153
52.596214,-1.608775,144.27,0.09,6,163.15,24 / 24,18110,2020-01-08 17:32:31:703,0.3314,-0.089,9.7013,0.001,-0.0129,9.8066,-0.0043,0.058,-0.005,-8.69,-32.69,24.69,7.59,-84.73,-153.51
52.596214,-1.608775,144.27,0.09,6,163.15,24 / 24,18210,2020-01-08 17:32:31:803,0.2706,-0.3223,9.7796,-0.0031,-0.0021,9.8066,0.0321,0.0342,0.038,-9,-33,24.81,7.63,-84.61,-153.49
52.596214,-1.608775,144.27,0.09,6,163.15,22 / 23,18312,2020-01-08 17:32:31:905,-0.0517,-0.1776,9.7175,-0.0002,-0.0062,9.8066,0.0093,0.0363,0.0221,-9.56,-32.44,23.88,5.21,-84.49,-152.81
52.596214,-1.608775,144.27,0.09,6,163.15,22 / 23,18410,2020-01-08 17:32:32:003,-0.1135,-0.2084,9.9859,-0.0048,-0.0074,9.8065,0.0342,0.0108,0.0055,-9,-32.81,24.75,8.68,-84.36,-152.62
52.596214,-1.608775,144.27,0.09,6,163.15,22 / 23,18510,2020-01-08 17:32:32:103,0.4036,-0.2007,9.9328,0.0025,-0.0036,9.8066,0.008,0.0452,0.0262,-9.37,-32.69,24.19,7.6,-84.23,-152.86
52.596214,-1.608775,144.27,0.09,6,163.15,22 / 23,18610,2020-01-08 17:32:32:203,0.146,-0.3015,9.9056,-0.0037,-0.004,9.8066,0.004,0.0007,0.0333,-9.37,-32.69,24.94,9.15,-84.17,-152.25
52.596214,-1.608775,144.27,0.09,6,163.15,22 / 23,18710,2020-01-08 17:32:32:303,0.5661,-0.3306,9.711,-0.0103,-0.0083,9.8066,0.0288,0.0175,0.052,-9.31,-33.12,24.63,10.14,-84.08,-151.4
52.596214,-1.608775,144.27,0.09,6,163.15,22 / 23,18811,2020-01-08 17:32:32:404,-0.1267,-0.7675,10.1201,-0.0074,-0.0128,9.8066,0.0222,0.0597,0.0153,-9.56,-33.25,25.44,9.61,-83.81,-149.91
52.596214,-1.608775,144.27,0.09,6,163.15,22 / 23,18910,2020-01-08 17:32:32:503,-0.2878,-0.3036,10.3403,-0.0157,0.0015,9.8066,-0.001,0.1259,-0.0747,-10.12,-32.5,24.88,9.89,-83.77,-149.63
52.596214,-1.608775,144.27,0.09,6,163.15,22 / 23,19009,2020-01-08 17:32:32:602,-0.147,0.5265,9.6224,0.0106,0.0106,9.8065,-0.0723,0.0997,-0.0492,-9.69,-33,24.5,10.13,-83.96,-149.42
52.596214,-1.608775,144.27,0.09,6,163.15,22 / 23,19110,2020-01-08 17:32:32:703,-1.0722,0.5039,9.911,-0.0011,0.0152,9.8065,-0.0305,0.1541,-0.1066,-9.62,-33.56,24.38,8.39,-84.26,-150.12
52.596214,-1.608775,144.27,0.09,6,163.15,22 / 23,19210,2020-01-08 17:32:32:803,-0.0156,1.0563,9.5973,0.0066,0.005,9.8066,-0.048,0.1234,-0.065,-9.56,-33.31,23.81,7.24,-84.57,-151.04
52.596214,-1.608775,144.27,0.09,6,163.15,22 / 23,19310,2020-01-08 17:32:32:903,-0.6085,0.3572,9.8773,-0.0042,-0.0073,9.8066,-0.0157,0.0557,0.0045,-9.12,-33.25,24.31,9.27,-84.68,-151.31
52.596214,-1.608775,144.27,0.09,6,163.15,22 / 23,19410,2020-01-08 17:32:33:003,0.0212,0.2908,9.8773,-0.0119,-0.0038,9.8066,0.0281,0.1068,-0.0445,-10.12,-33.5,23.63,7.81,-84.62,-150.53
52.596214,-1.608775,144.27,0.09,6,163.15,22 / 23,19510,2020-01-08 17:32:33:103,-1.1802,0.2836,9.5518,0.0015,0.0006,9.8066,-0.0144,-0.018,0.0363,-10.06,-33.31,23.69,7.54,-84.59,-150.77
52.596214,-1.608775,144.27,0.09,6,163.15,22 / 23,19610,2020-01-08 17:32:33:203,0.1476,0.598,10.0303,-0.0109,0.0041,9.8065,0.0218,0.0817,-0.0303,-9.94,-33.31,24.06,8.04,-84.6,-150.33
52.596214,-1.608775,144.27,0.09,6,163.15,22 / 23,19710,2020-01-08 17:32:33:303,0.1241,0.8123,9.7013,0.0057,0.0096,9.8066,0.0084,-0.0493,0.0416,-9.94,-33.44,23.75,7.88,-84.6,-150.47
52.596214,-1.608775,144.27,0.09,6,163.15,22 / 23,19810,2020-01-08 17:32:33:403,0.4458,0.5448,9.9684,-0.0082,0.0062,9.8066,0.0271,0.0177,-0.0128,-10.31,-32.75,23.56,8.03,-84.66,-150.33
52.596214,-1.608775,144.27,0.09,6,163.15,22 / 23,19910,2020-01-08 17:32:33:503,-0.4639,0.6141,9.5094,0.0042,0.0096,9.8066,0.0146,-0.0739,0.0519,-10.56,-33.5,24.38,5.59,-84.67,-150.46
52.596214,-1.608775,144.27,0.09,6,163.15,22 / 23,20010,2020-01-08 17:32:33:603,-0.2006,0.1175,10.2105,-0.0042,0.0082,9.8066,0.0353,-0.0041,0.0025,-10.87,-33.06,24.63,6.59,-84.72,-150.42
52.596214,-1.608775,144.27,0.09,6,163.15,22 / 23,20110,2020-01-08 17:32:33:703,0.3298,0.5117,9.6133,0.0065,0.0081,9.8066,0.0108,-0.0445,0.0487,-10.5,-33.56,24,7.33,-84.74,-150.96
52.596214,-1.608775,144.27,0.09,6,163.15,22 / 23,20210,2020-01-08 17:32:33:803,-0.5936,0.0222,9.9724,-0.0048,0.0061,9.8066,0.0264,-0.0081,0.0148,-10.94,-34.25,24.06,5.49,-84.72,-150.56
52.596214,-1.608775,144.27,0.09,6,163.15,22 / 22,20310,2020-01-08 17:32:33:903,-0.281,0.1223,9.8438,0.0055,0.0053,9.8066,0.0036,-0.0348,0.0213,-11,-33.56,23.63,5.58,-84.71,-150.48
52.596214,-1.608775,144.27,0.09,6,163.15,22 / 22,20409,2020-01-08 17:32:34:002,-0.2735,-0.1485,10.0401,0.0015,0.0051,9.8066,0.0219,-0.0199,0.0202,-11.81,-34.25,24.63,4.17,-84.74,-150.68
52.596214,-1.608775,144.27,0.09,6,163.15,22 / 22,20510,2020-01-08 17:32:34:103,0.129,0.2874,9.6809,0.0035,0.0068,9.8065,0.0032,-0.0183,0.0256,-11.75,-33.37,24,3.22,-84.73,-150.59
52.596214,-1.608775,144.27,0.09,6,163.15,22 / 22,20610,2020-01-08 17:32:34:203,-0.1963,0.3882,9.8371,-0.0025,0.0053,9.8066,0.0129,0.0131,0.0046,-11.62,-33.37,24.69,4.15,-84.79,-150.67
52.596214,-1.608775,144.27,0.09,6,163.15,22 / 22,20710,2020-01-08 17:32:34:303,-0.1438,0.2432,9.7746,0.0005,0.0076,9.8066,0.0137,-0.0109,0.025,-11.69,-33.37,23.88,3.17,-84.82,-150.63
52.596214,-1.608775,144.27,0.09,6,163.15,22 / 22,20809,2020-01-08 17:32:34:402,-0.1144,-0.0184,10.0285,-0.0025,0.0018,9.8066,0.0104,0.0141,-0.008,-11.44,-33.44,24.94,6.7,-84.81,-150.31
52.596214,-1.608775,144.27,0.09,6,163.15,22 / 22,20910,2020-01-08 17:32:34:503,-0.1774,0.3984,10.0064,-0.0014,0.0041,9.8066,0.0212,0.009,-0.0106,-11.62,-32.62,24,3.34,-84.83,-150.47
52.596214,-1.608775,144.27,0.09,6,163.15,22 / 22,21010,2020-01-08 17:32:34:603,-0.2685,0.3179,9.718,0.0039,-0.0007,9.8066,-0.0145,0.0108,-0.0027,-11.81,-33.31,24.81,4.08,-84.86,-150.73
52.596214,-1.608775,144.27,0.09,6,163.15,22 / 22,21110,2020-01-08 17:32:34:703,-0.3355,0.1395,9.819,-0.0043,0.004,9.8066,0.013,0.0134,-0.0166,-11.31,-32.56,23.88,5.49,-84.92,-150.51
52.596214,-1.608775,144.27,0.09,6,163.15,22 / 22,21209,2020-01-08 17:32:34:802,-0.5466,0.5421,9.6061,0.0014,0,9.8066,-0.0075,0.0068,-0.0061,-11.06,-32.56,24.13,5.45,-84.94,-150.55
52.596214,-1.608775,144.27,0.09,6,163.15,22 / 23,21310,2020-01-08 17:32:34:903,-0.2151,0.0291,10.0501,-0.0036,0.0007,9.8066,0.0084,0.0166,-0.0134,-11.62,-32.75,23.75,3.53,-84.98,-150.29
52.596214,-1.608775,144.27,0.09,6,163.15,22 / 23,21410,2020-01-08 17:32:35:003,0.3565,-0.264,9.8495,0.0007,-0.0021,9.8066,-0.0133,0.0367,-0.0152,-11.69,-32.75,24.38,3.74,-84.99,-150.11
52.596214,-1.608775,144.27,0.09,6,163.15,22 / 23,21510,2020-01-08 17:32:35:103,0.0415,-0.1848,9.9591,-0.0043,-0.0021,9.8066,0.0094,0.0198,-0.0146,-11.69,-32.31,24.13,3.51,-85.01,-150.3
52.596214,-1.608775,144.27,0.09,6,163.15,22 / 23,21609,2020-01-08 17:32:35:202,-0.0361,0.2854,9.7004,0,-0.0034,9.8066,-0.0111,0.0332,-0.0179,-11.62,-32.12,24.13,3.8,-85,-150.04
52.596214,-1.608775,144.27,0.09,6,163.15,22 / 23,21710,2020-01-08 17:32:35:303,-0.3521,-0.2123,9.9222,-0.0061,-0.0004,9.8066,0.0127,0.0322,-0.0258,-11.31,-32.87,24.75,7.25,-85.04,-149.78
52.596214,-1.608775,144.27,0.09,6,163.15,22 / 23,21810,2020-01-08 17:32:35:403,-0.0792,-0.0528,9.6013,-0.0026,-0.0039,9.8066,-0.0184,0.0482,-0.0145,-11.06,-32.56,24.06,6.26,-85.04,-149.81
52.596214,-1.608775,144.27,0.09,6,163.15,22 / 23,21909,2020-01-08 17:32:35:502,-0.1894,-0.1948,10.1361,-0.0054,-0.0007,9.8066,-0.0009,0.0448,-0.0147,-11.06,-31.56,23.5,6.14,-85.08,-149.9
52.596214,-1.608775,144.27,0.09,6,163.15,22 / 23,22010,2020-01-08 17:32:35:603,0.2111,-0.0204,9.8244,0.0011,-0.0037,9.8066,-0.0186,0.0254,-0.008,-11,-31.94,24.88,7.58,-85.09,-149.46
52.596214,-1.608775,144.27,0.09,6,163.15,22 / 23,22109,2020-01-08 17:32:35:702,0.2035,-0.1957,10.0592,-0.0045,-0.0012,9.8065,0.009,0.0346,-0.0306,-11.25,-32.25,24.06,6.74,-85.12,-149.35
52.596214,-1.608775,144.27,0.09,6,163.15,22 / 23,22210,2020-01-08 17:32:35:803,-0.0059,0.1516,9.6579,0.0005,-0.0036,9.8066,-0.022,0.0209,-0.0078,-11.81,-32.31,24.25,4.8,-85.13,-149.14
52.596214,-1.608775,144.27,0.09,6,163.15,23 / 23,22310,2020-01-08 17:32:35:903,-0.3841,-0.2474,9.9789,-0.0027,-0.0008,9.8066,-0.0037,0.0512,-0.0163,-10.75,-32.69,23.63,7.37,-85.16,-148.81
52.596214,-1.608775,144.27,0.09,6,163.15,23 / 23,22410,2020-01-08 17:32:36:003,-0.2228,-0.0792,9.7499,0.0001,-0.0036,9.8066,-0.0203,0.0299,-0.0154,-10.69,-32.56,23.75,7.16,-85.18,-148.99
52.596214,-1.608775,144.27,0.09,6,163.15,23 / 23,22510,2020-01-08 17:32:36:103,-0.1553,-0.1046,10.0452,-0.0029,-0.0033,9.8066,-0.0017,0.0428,-0.0168,-10.87,-33.31,23.75,7.12,-85.21,-149.02
52.596214,-1.608775,144.27,0.09,6,163.15,23 / 23,22610,2020-01-08 17:32:36:203,0.2041,0.1203,9.7861,-0.001,-0.0034,9.8066,-0.0153,0.0268,-0.0244,-11.12,-32.81,23.69,7.42,-85.2,-148.76
52.596214,-1.608775,144.27,0.09,6,163.15,23 / 23,22710,2020-01-08 17:32:36:303,0.1457,-0.2121,9.9906,-0.004,-0.0015,9.8066,0.0011,0.0568,-0.0221,-10.81,-32.94,24.56,8.19,-85.23,-148.91
52.596214,-1.608775,144.27,0.09,6,163.15,23 / 23,22810,2020-01-08 17:32:36:403,0.0334,0.2477,9.5819,0.0012,-0.003,9.8066,-0.0229,0.0257,-0.021,-10.69,-32.56,23.94,7.21,-85.23,-148.93
52.596214,-1.608775,144.27,0.09,6,163.15,23 / 23,22911,2020-01-08 17:32:36:504,-0.3002,-0.2922,10.0536,-0.0025,-0.0042,9.8066,-0.0112,0.0312,-0.0141,-11.37,-32.31,23.94,7.36,-85.24,-148.78
52.596214,-1.608775,144.27,0.09,6,163.15,23 / 23,23010,2020-01-08 17:32:36:603,-0.0776,-0.0959,9.7675,0.0016,-0.003,9.8065,-0.0064,0.022,-0.029,-11.44,-33.19,24.5,8.29,-85.27,-148.82
52.596214,-1.608775,144.27,0.09,6,163.15,23 / 23,23110,2020-01-08 17:32:36:703,-0.1839,-0.1533,10.0578,-0.0052,-0.0041,9.8066,-0.0078,0.0329,-0.0174,-11.25,-32.75,24,7.01,-85.28,-149.11
52.596214,-1.608775,144.27,0.09,6,163.15,23 / 23,23210,2020-01-08 17:32:36:803,0.2699,-0.1161,9.7732,0.0006,-0.0037,9.8066,-0.0145,0.0291,-0.0124,-10.94,-32.87,24.19,7.48,-85.27,-148.69
52.596214,-1.608775,144.27,0.09,6,163.15,21 / 22,23311,2020-01-08 17:32:36:904,0.0681,-0.0189,9.9376,-0.0038,-0.0033,9.8066,-0.0046,0.0204,-0.0302,-10.75,-33,23.94,7.69,-85.3,-148.5
52.596214,-1.608775,144.27,0.09,6,163.15,21 / 22,23410,2020-01-08 17:32:37:003,0.256,-0.045,9.7465,-0.0017,-0.0033,9.8066,-0.0129,0.0589,-0.0136,-11.19,-32.87,23.88,7.86,-85.29,-148.35
52.596214,-1.608775,144.27,0.09,6,163.15,21 / 22,23510,2020-01-08 17:32:37:103,-0.4113,-0.3198,9.8836,-0.0046,-0.0016,9.8066,0.0114,0.0185,-0.0222,-11.81,-32.25,23.5,6.09,-85.29,-147.96
52.596214,-1.608775,144.27,0.09,6,163.15,21 / 22,23609,2020-01-08 17:32:37:202,0.0787,0.0849,9.6911,-0.0038,-0.0052,9.8066,-0.0112,0.0488,-0.029,-11.62,-32.31,24,5.93,-85.29,-148.1
52.596214,-1.608775,144.27,0.09,6,163.15,21 / 22,23710,2020-01-08 17:32:37:303,-0.4878,-0.3805,9.9123,-0.0025,0.0001,9.8066,0.0106,0.0193,0.0096,-11.37,-32.25,24.56,9.09,-85.31,-148.06
52.596214,-1.608775,144.27,0.09,6,163.15,21 / 22,23810,2020-01-08 17:32:37:403,0.2178,-0.0788,9.9712,-0.0089,-0.003,9.8066,-0.0018,0.059,-0.0367,-11.25,-33.06,24.56,9.63,-85.3,-147.6
52.596214,-1.608775,144.27,0.09,6,163.15,21 / 22,23909,2020-01-08 17:32:37:502,-0.3327,-0.3152,10.0802,-0.0032,0.0033,9.8066,0.0231,-0.0037,0.0076,-10.94,-32.5,24.5,9.59,-85.3,-147.61
52.596214,-1.608775,144.27,0.09,6,163.15,21 / 22,24010,2020-01-08 17:32:37:603,0.4641,0.0714,9.866,-0.0066,-0.0032,9.8066,0.0058,0.0442,-0.0381,-11.19,-33.31,24.19,9.15,-85.3,-147.19
52.596214,-1.608775,144.27,0.09,6,163.15,21 / 22,24109,2020-01-08 17:32:37:702,-0.0936,-0.0553,9.692,-0.0031,0.0052,9.8066,0.0123,-0.0001,0.0145,-11.75,-32.75,24.44,6.9,-85.34,-147.25
52.596214,-1.608775,144.27,0.09,6,163.15,21 / 22,24210,2020-01-08 17:32:37:803,0.483,0.1391,9.7374,-0.0081,-0.0007,9.8066,0.0136,0.0314,-0.0336,-10.62,-33.25,24.5,10.37,-85.34,-146.93
52.596214,-1.608775,144.27,0.09,6,163.15,21 / 23,24309,2020-01-08 17:32:37:902,-0.3581,-0.0293,9.7592,0.0028,0.0034,9.8065,0.005,-0.048,0.0329,-11,-33.5,23.75,9.19,-85.34,-147.15
52.596214,-1.608775,144.27,0.09,6,163.15,21 / 23,24410,2020-01-08 17:32:38:003,-0.2449,-0.3867,10.0491,-0.0051,0.0002,9.8066,0.0169,0.034,-0.0087,-11,-33.31,24.56,10.2,-85.34,-147.08
52.596214,-1.608775,144.27,0.09,6,163.15,21 / 23,24510,2020-01-08 17:32:38:103,0.5055,-0.1317,9.7415,0.0047,0.0044,9.8066,0.0015,-0.0736,0.0311,-10.81,-32.87,23.88,9.19,-85.34,-147.15
52.596214,-1.608775,144.27,0.09,6,163.15,21 / 23,24609,2020-01-08 17:32:38:202,0.4479,0.1225,9.9265,-0.0052,0.0048,9.8066,0.0313,0.0073,0.0088,-11.19,-33.31,24.31,9.35,-85.35,-147
52.596214,-1.608775,144.27,0.09,6,163.15,21 / 23,24710,2020-01-08 17:32:38:303,0.1033,-0.0398,9.6656,0.0054,0.005,9.8066,-0.0043,-0.0795,0.031,-11.44,-33.37,24.63,10.05,-85.36,-147.21
52.596214,-1.608775,144.27,0.09,6,163.15,21 / 23,24810,2020-01-08 17:32:38:403,-0.585,-0.4644,10.0069,-0.0004,0.0067,9.8066,0.0173,-0.0216,0.0344,-11.31,-32.81,24.13,9.42,-85.36,-146.94
52.596214,-1.608775,144.27,0.09,6,163.15,21 / 23,24910,2020-01-08 17:32:38:503,-0.2117,-0.0266,9.7259,0.0055,0.0047,9.8066,0.0036,-0.0908,0.0171,-10.94,-33.12,23.94,9.72,-85.33,-146.67
52.596214,-1.608775,144.27,0.09,6,163.15,21 / 23,25010,2020-01-08 17:32:38:603,-0.5158,-0.5101,10.0382,0.0028,0.0054,9.8066,0.0043,-0.0562,0.0424,-11.12,-33.69,24.31,9.46,-85.36,-146.93
52.596214,-1.608775,144.27,0.09,6,163.15,21 / 23,25110,2020-01-08 17:32:38:703,0.638,0.0722,9.8591,0.0079,0.0036,9.8066,-0.0137,-0.0472,0.0427,-10.5,-32.62,23.94,12.12,-85.33,-146.54
52.596214,-1.608775,144.27,0.09,6,163.15,21 / 23,25210,2020-01-08 17:32:38:803,-0.2089,-0.3437,10.0481,0.0048,0.0071,9.8066,0.0102,-0.0934,0.0378,-11.19,-32.75,24,9.72,-85.37,-146.67
52.59614,-1.608762,143.41,0.03,4,155.05,21 / 23,25310,2020-01-08 17:32:38:903,0.6442,0.0747,9.7957,0.006,0.0009,9.8065,-0.0062,-0.0076,0.0121,-10.62,-33.12,23.56,9.65,-85.35,-146.73
52.59614,-1.608762,143.41,0.03,4,155.05,21 / 23,25410,2020-01-08 17:32:39:003,-0.7297,-0.1871,9.8663,0.0022,0.0012,9.8066,-0.0039,-0.0792,0.0423,-10.62,-32.81,23.5,9.69,-85.36,-146.69
52.59614,-1.608762,143.41,0.03,4,155.05,21 / 23,25510,2020-01-08 17:32:39:103,0.1343,-0.1517,9.9974,0.0022,-0.0021,9.8066,-0.0145,0.0152,-0.0192,-11.06,-32.44,23.94,10.01,-85.34,-146.38
52.59614,-1.608762,143.41,0.03,4,155.05,21 / 23,25609,2020-01-08 17:32:39:202,-0.5841,-0.2729,9.8853,0.0078,0.0043,9.8066,-0.0032,-0.0398,0.0309,-11.25,-33.06,23.06,8.9,-85.35,-146.5
52.59614,-1.608762,143.41,0.03,4,155.05,21 / 23,25709,2020-01-08 17:32:39:302,0.3501,-0.1092,9.9491,-0.0061,-0.0052,9.8066,-0.0044,0.046,-0.0418,-11.75,-33.12,23.81,7.83,-85.35,-146.41
52.59614,-1.608762,143.41,0.03,4,155.05,21 / 23,25809,2020-01-08 17:32:39:402,0.3827,0.0138,9.8396,0.0068,0.0006,9.8066,-0.0089,-0.0144,-0.0004,-11.69,-32.94,24.44,7.77,-85.32,-146.47
52.59614,-1.608762,143.41,0.03,4,155.05,21 / 23,25910,2020-01-08 17:32:39:503,0.4892,-0.006,9.9059,-0.0051,-0.0051,9.8066,0.0006,0.09,-0.0376,-11.75,-33.06,24.13,8.17,-85.3,-146.11
52.59614,-1.608762,143.41,0.03,4,155.05,21 / 23,26010,2020-01-08 17:32:39:603,0.176,-0.034,9.8261,0.0027,-0.0007,9.8066,-0.0091,0.0235,-0.0117,-11.69,-32.81,24.56,8.75,-85.31,-146.49
52.59614,-1.608762,143.41,0.03,4,155.05,21 / 23,26110,2020-01-08 17:32:39:703,-0.4961,-0.1054,9.8479,-0.0061,-0.0037,9.8066,0.0093,0.0589,-0.032,-11.94,-33.44,24.25,7.89,-85.3,-146.37
52.59614,-1.608762,143.41,0.03,4,155.05,21 / 23,26210,2020-01-08 17:32:39:803,0.4684,-0.0385,9.9154,-0.005,-0.003,9.8066,0.0043,0.0725,-0.0239,-12.06,-32.5,24.06,8.04,-85.27,-146.21
52.59614,-1.608762,143.41,0.03,4,155.05,21 / 21,26310,2020-01-08 17:32:39:903,-0.0262,-0.0098,9.8163,-0.0046,-0.0031,9.8066,-0.0022,0.0043,-0.0183,-11.12,-32.56,24.81,10.94,-85.27,-146.43
52.59614,-1.608762,143.41,0.03,4,155.05,21 / 21,26410,2020-01-08 17:32:40:003,0.234,-0.0325,9.8717,-0.0049,-0.0039,9.8066,-0.0049,0.043,-0.031,-10.69,-33.37,24.19,10.4,-85.24,-146.08
52.59614,-1.608762,143.41,0.03,4,155.05,21 / 21,26509,2020-01-08 17:32:40:102,-0.1741,-0.2847,9.9015,-0.0002,-0.0034,9.8066,-0.0107,0.003,0.0096,-11,-33.75,24.63,10.98,-85.25,-146.44
52.59614,-1.608762,143.41,0.03,4,155.05,21 / 21,26610,2020-01-08 17:32:40:203,-0.1034,-0.0816,9.805,-0.0047,-0.0023,9.8066,0.0015,0.0005,-0.0102,-11.31,-32.87,23.81,10.37,-85.24,-146.11
52.59614,-1.608762,143.41,0.03,4,155.05,21 / 21,26710,2020-01-08 17:32:40:303,-0.0364,-0.3162,9.9341,0.0014,0.001,9.8066,0.0017,-0.0055,0.0103,-11.19,-33.19,24.13,10.17,-85.22,-146.3
52.59614,-1.608762,143.41,0.03,4,155.05,21 / 21,26812,2020-01-08 17:32:40:405,-0.2421,0.0248,9.7481,0.0001,-0.0032,9.8066,-0.015,0.007,0.0138,-11.31,-33,24,10.07,-85.21,-146.39
52.59614,-1.608762,143.41,0.03,4,155.05,21 / 21,26909,2020-01-08 17:32:40:502,0.2153,-0.2179,9.9896,0.0041,-0.002,9.8066,-0.0087,-0.0161,-0.0019,-10.75,-33,23.56,10.53,-85.21,-145.97
52.59614,-1.608762,143.41,0.03,4,155.05,21 / 21,27010,2020-01-08 17:32:40:603,-0.1224,-0.0664,9.8121,0.0032,-0.0004,9.8066,-0.0054,-0.0073,0.0135,-11.87,-32.94,24.13,7.98,-85.21,-146.3
52.59614,-1.608762,143.41,0.03,4,155.05,21 / 21,27110,2020-01-08 17:32:40:703,0.1641,-0.1517,9.8769,-0.002,-0.0004,9.8066,0.0019,0.0103,-0.0037,-11.56,-32.69,23.5,8.27,-85.19,-146.04
52.59614,-1.608762,143.41,0.03,4,155.05,21 / 21,27209,2020-01-08 17:32:40:802,0.1383,-0.0541,9.9136,-0.0007,-0.0017,9.8066,0.0006,-0.016,-0.0148,-10.94,-33.5,24.19,10.64,-85.17,-145.89
52.59614,-1.608762,143.41,0.03,4,155.05,21 / 21,27310,2020-01-08 17:32:40:903,0.1821,-0.2,9.9182,-0.0031,-0.0018,9.8066,0.0045,0.0343,-0.0023,-10.69,-33.31,24.31,10.49,-85.18,-146.02
52.59614,-1.608762,143.41,0.03,4,155.05,21 / 21,27410,2020-01-08 17:32:41:003,0.1575,0.019,9.8655,-0.002,-0.0006,9.8066,0.0052,0.0137,-0.0117,-11.06,-33.81,24.38,10.93,-85.16,-145.67
52.59614,-1.608762,143.41,0.03,4,155.05,21 / 21,27509,2020-01-08 17:32:41:102,-0.1599,-0.2539,9.8328,-0.003,0.0007,9.8066,-0.0042,0.0132,-0.0109,-10.75,-32.81,24.56,11.79,-85.15,-145.69
52.59614,-1.608762,143.41,0.03,4,155.05,21 / 21,27610,2020-01-08 17:32:41:203,0.1573,0.0134,9.8339,-0.0037,0.0019,9.8066,0.0122,0.0478,0.0004,-10.94,-32.75,24.25,11.09,-85.15,-145.49
52.59614,-1.608762,143.41,0.03,4,155.05,21 / 21,27709,2020-01-08 17:32:41:302,-0.0931,-0.2743,9.8606,-0.0016,0.0024,9.8066,0.0082,-0.0261,-0.0082,-11.56,-32.56,23.69,9.02,-85.16,-145.38
52.59614,-1.608762,143.41,0.03,4,155.05,21 / 21,27809,2020-01-08 17:32:41:402,-0.1778,-0.0144,9.8318,0.0017,0.0006,9.8065,-0.0178,0.021,0.0034,-11.31,-32.62,24.13,10.91,-85.17,-145.65
52.59614,-1.608762,143.41,0.03,4,155.05,21 / 21,27910,2020-01-08 17:32:41:503,-0.0925,-0.1379,9.877,0.0036,-0.0008,9.8066,-0.0147,-0.0158,0.0191,-11.37,-31.94,23.88,10.97,-85.17,-145.56
52.59614,-1.608762,143.41,0.03,4,155.05,21 / 21,28009,2020-01-08 17:32:41:602,-0.0777,-0.063,9.8193,0.0001,-0.0017,9.8066,0.0024,-0.0148,-0.0031,-10.81,-32.37,23,10.11,-85.17,-145.42
52.59614,-1.608762,143.41,0.03,4,155.05,21 / 21,28110,2020-01-08 17:32:41:703,0.1555,-0.2054,9.9072,0.0002,-0.0005,9.8066,-0.0145,0.0013,0.0112,-10.87,-32.94,23.44,10.18,-85.17,-145.4
52.59614,-1.608762,143.41,0.03,4,155.05,21 / 21,28210,2020-01-08 17:32:41:803,-0.0677,-0.2359,9.7407,0.0027,-0.0025,9.8066,0.0024,-0.0257,-0.0163,-10.75,-33.06,24.31,11.22,-85.15,-145.37
52.59614,-1.608762,143.41,0.03,4,155.05,21 / 22,28310,2020-01-08 17:32:41:903,0.2266,-0.4064,9.8573,0.0007,0.001,9.8066,0.0136,0.043,0.0049,-11.06,-33.37,24.56,11.79,-85.14,-145.7
52.59614,-1.608762,143.41,0.03,4,155.05,21 / 22,28410,2020-01-08 17:32:42:003,0.3375,-0.1831,9.9305,-0.0015,-0.0019,9.8066,0.0032,0.0024,-0.0139,-10.69,-33.12,23.81,10.77,-85.12,-145.79
52.59614,-1.608762,143.41,0.03,4,155.05,21 / 22,28510,2020-01-08 17:32:42:103,0.3374,-0.6467,9.884,-0.0021,-0.0018,9.8066,0.003,0.0325,-0.0048,-11.12,-32.62,24.13,10.62,-85.11,-145.92
52.59614,-1.608762,143.41,0.03,4,155.05,21 / 22,28610,2020-01-08 17:32:42:203,0.4161,-0.2498,9.8712,-0.0019,-0.0011,9.8066,0.0036,0.0361,-0.0163,-10.81,-32.44,24.19,10.73,-85.08,-145.79
52.59614,-1.608762,143.41,0.03,4,155.05,21 / 22,28710,2020-01-08 17:32:42:303,-0.105,-0.3601,9.8202,-0.0032,-0.0009,9.8066,0.0079,0.0236,-0.017,-10.69,-33,24.19,10.38,-85.07,-146.15
52.59614,-1.608762,143.41,0.03,4,155.05,21 / 22,28809,2020-01-08 17:32:42:402,0.4222,-0.4844,9.861,0.0012,-0.0014,9.8066,-0.0027,0.0257,-0.0051,-11.25,-33.06,24.44,10.28,-85.05,-146.24
52.59614,-1.608762,143.41,0.03,4,155.05,21 / 22,28910,2020-01-08 17:32:42:503,0.0075,-0.4333,9.8011,0.0024,-0.0009,9.8066,0.0013,0.0124,-0.0052,-10.81,-33.31,23.69,10.19,-85.03,-146.32
52.59614,-1.608762,143.41,0.03,4,155.05,21 / 22,29010,2020-01-08 17:32:42:603,0.035,-0.3009,9.7913,0.0003,-0.0024,9.8065,-0.008,0.026,-0.009,-10.75,-33,24,9.68,-85.02,-146.78
52.59614,-1.608762,143.41,0.03,4,155.05,21 / 22,29110,2020-01-08 17:32:42:703,-0.1057,-0.408,9.8719,0.0048,0.0009,9.8066,-0.0068,0.0005,0.0335,-10.87,-33.56,23.94,9.82,-85.01,-146.68
52.59614,-1.608762,143.41,0.03,4,155.05,21 / 22,29210,2020-01-08 17:32:42:803,0.4725,-0.3881,9.83,-0.0047,-0.0005,9.8066,0.0145,0.0126,-0.025,-11.31,-33.25,24.13,9.75,-85,-146.72
52.59614,-1.608762,143.41,0.03,4,155.05,22 / 22,29310,2020-01-08 17:32:42:903,0.1794,-0.3882,9.8103,0.0009,0.0029,9.8066,0.0039,0.0051,0.0138,-11.06,-33.12,23.94,9.55,-84.99,-146.9
52.59614,-1.608762,143.41,0.03,4,155.05,22 / 22,29410,2020-01-08 17:32:43:003,0.0773,-0.3253,9.949,-0.0007,-0.0001,9.8066,0.0097,-0.0003,0.0034,-11.06,-33.56,23.94,9.54,-84.98,-146.94
52.59614,-1.608762,143.41,0.03,4,155.05,22 / 22,29510,2020-01-08 17:32:43:103,0.0922,0.056,9.6918,0.0013,0.0041,9.8066,-0.0035,0.0132,0.0166,-11.5,-33.06,23.88,9.64,-84.98,-146.82
52.59614,-1.608762,143.41,0.03,4,155.05,22 / 22,29610,2020-01-08 17:32:43:203,-0.0138,0.1022,9.817,-0.0003,0.002,9.8066,0.001,0.0234,0.002,-10.81,-33.19,23,8.72,-85.01,-146.73
52.59614,-1.608762,143.41,0.03,4,155.05,22 / 22,29709,2020-01-08 17:32:43:302,-0.0799,0.0709,9.8866,0.0006,0.0021,9.8066,0.0051,0.0107,-0.0103,-10.81,-33.31,23.75,9.85,-85.01,-146.63
52.59614,-1.608762,143.41,0.03,4,155.05,22 / 22,29810,2020-01-08 17:32:43:403,-0.1721,0.1952,9.8872,-0.0019,-0.0009,9.8066,-0.0091,0.0137,-0.0049,-10.81,-33.25,23.69,9.88,-85.01,-146.6
52.59614,-1.608762,143.41,0.03,4,155.05,22 / 22,29910,2020-01-08 17:32:43:503,-0.2186,0.3942,10.0071,-0.0007,0.0024,9.8066,0.0046,0.0278,0.0094,-10.87,-33.25,22.94,9.01,-85.04,-146.47
52.59614,-1.608762,143.41,0.03,4,155.05,22 / 22,30010,2020-01-08 17:32:43:603,-0.4421,0.6603,9.815,-0.0001,-0.0005,9.8066,-0.014,0.0055,0.0055,-11.5,-33.12,23.63,10.3,-85.03,-146.22
52.59614,-1.608762,143.41,0.03,4,155.05,22 / 22,30110,2020-01-08 17:32:43:703,-0.6175,0.9631,9.8221,0.0008,0.003,9.8066,-0.0037,0.0081,0.0094,-11.69,-33.19,23.31,7.43,-85.04,-145.86
52.59614,-1.608762,143.41,0.03,4,155.05,22 / 22,30210,2020-01-08 17:32:43:803,-0.3015,0.5963,9.918,-0.0042,0.0009,9.8066,0.0017,0.01,-0.0096,-11.19,-33.19,23.5,11.02,-85.07,-145.58
52.59614,-1.608762,143.41,0.03,4,155.05,22 / 22,30309,2020-01-08 17:32:43:902,-0.5048,0.6955,9.8329,-0.0002,0.0037,9.8066,0.0072,-0.0013,0.0125,-11,-33.12,23.56,10.88,-85.08,-145.69
52.59614,-1.608762,143.41,0.03,4,155.05,22 / 22,30410,2020-01-08 17:32:44:003,0.1922,-0.3023,10.0958,-0.0025,0.0014,9.8066,0.0218,0.0108,-0.0186,-10.62,-33.56,23.44,10,-85.07,-145.62
52.59614,-1.608762,143.41,0.03,4,155.05,22 / 22,30509,2020-01-08 17:32:44:102,-0.2233,-0.3443,9.6273,0.0012,0.0001,9.8066,0.0121,-0.0196,0.0189,-11.06,-33.56,23.88,10.59,-85.05,-146
52.59614,-1.608762,143.41,0.03,4,155.05,22 / 22,30610,2020-01-08 17:32:44:203,0.1044,-0.0413,9.8537,-0.0086,0.0004,9.8066,0.026,0.0112,-0.0119,-10.75,-33.69,24,10.66,-84.99,-145.94
52.59614,-1.608762,143.41,0.03,4,155.05,22 / 22,30710,2020-01-08 17:32:44:303,0.1667,0.037,9.9616,0.0022,0.0026,9.8066,0.0051,-0.0407,0.0128,-11.19,-32.62,23.56,10.43,-84.97,-146.12
52.59614,-1.608762,143.41,0.03,4,155.05,22 / 22,30810,2020-01-08 17:32:44:403,0.1815,-0.108,9.8834,-0.003,-0.0004,9.8066,-0.0029,-0.019,0.0055,-11.12,-32.5,24.06,10.48,-84.96,-146.04
52.59614,-1.608762,143.41,0.03,4,155.05,22 / 22,30910,2020-01-08 17:32:44:503,0.2024,0.1513,9.7675,0.0049,0.0004,9.8066,-0.0088,-0.0296,0.0148,-11.06,-32.56,23.75,10.07,-84.96,-146.44
52.59614,-1.608762,143.41,0.03,4,155.05,22 / 22,31011,2020-01-08 17:32:44:604,-0.25,-0.1564,9.8893,0.0006,0.0028,9.8066,0.0067,-0.0321,0.0158,-11.37,-32.87,24.25,10.44,-84.95,-146.12
52.59614,-1.608762,143.41,0.03,4,155.05,22 / 22,31110,2020-01-08 17:32:44:703,0.0428,0.0572,9.8342,0.0016,0.0003,9.8066,-0.0022,-0.0095,0.0045,-11.12,-32.12,23.44,9.36,-84.95,-146.15
52.59614,-1.608762,143.41,0.03,4,155.05,22 / 22,31209,2020-01-08 17:32:44:802,-0.3325,-0.1008,9.6799,0.0006,0.0001,9.8066,-0.0071,-0.0253,0.0008,-11.25,-32.56,23.25,9.22,-84.94,-146.3
52.59614,-1.608762,143.41,0.03,4,155.05,22 / 23,31310,2020-01-08 17:32:44:903,0.2022,-0.0532,9.9415,-0.0018,0.0017,9.8065,0.0089,0.0401,-0.0031,-10.69,-32.87,24.31,10.48,-84.94,-146.08
52.59614,-1.608762,143.41,0.03,4,155.05,22 / 23,31410,2020-01-08 17:32:45:003,0.1213,-0.0501,9.8144,0.0013,-0.0016,9.8066,-0.0007,-0.0161,0.0005,-11.31,-33.12,23.88,10.53,-84.93,-146.05
52.59614,-1.608762,143.41,0.03,4,155.05,22 / 23,31510,2020-01-08 17:32:45:103,-0.0768,0.0689,9.7659,-0.0007,-0.0005,9.8066,-0.0122,0.0226,0.001,-10.87,-33,23.75,10.7,-84.93,-145.89
52.59614,-1.608762,143.41,0.03,4,155.05,22 / 23,31610,2020-01-08 17:32:45:203,0.2123,-0.0027,9.9828,-0.0018,0.0018,9.8066,0.0216,0.0289,-0.0139,-11.31,-32.87,23.81,10.74,-84.93,-145.86
52.59614,-1.608762,143.41,0.03,4,155.05,22 / 23,31709,2020-01-08 17:32:45:302,-0.1158,-0.0696,9.7957,-0.0049,0.0006,9.8066,0.0044,-0.0062,-0.0171,-11.31,-33.25,23.94,10.39,-84.93,-146.17
52.59614,-1.608762,143.41,0.03,4,155.05,22 / 23,31810,2020-01-08 17:32:45:403,0.124,-0.0249,9.941,-0.0003,-0.0003,9.8065,-0.003,-0.0007,-0.0004,-10.62,-33.06,23.25,9.61,-84.92,-145.96
52.59614,-1.608762,143.41,0.03,4,155.05,22 / 23,31910,2020-01-08 17:32:45:503,-0.0011,-0.0459,9.8731,0.0013,-0.0022,9.8066,-0.0105,0.0008,-0.0057,-10.81,-33.25,23.75,10.47,-84.9,-146.11
52.59614,-1.608762,143.41,0.03,4,155.05,22 / 23,32010,2020-01-08 17:32:45:603,-0.1444,0.0065,9.6988,0.0006,0.0005,9.8066,-0.0037,-0.0194,0.0002,-11,-33.19,23.5,10.48,-84.91,-146.09
52.59614,-1.608762,143.41,0.03,4,155.05,22 / 23,32110,2020-01-08 17:32:45:703,-0.0023,0.0315,9.8081,0.0043,-0.0011,9.8066,-0.018,-0.0003,0.0177,-11.06,-32.69,23.56,10.63,-84.9,-145.96
52.59614,-1.608762,143.41,0.03,4,155.05,22 / 23,32210,2020-01-08 17:32:45:803,-0.2826,0.0455,9.7951,0.001,0.0008,9.8066,0.0042,-0.0114,0.007,-11,-33.37,23.56,10.45,-84.91,-146.12
52.59614,-1.608762,143.41,0.03,4,155.05,22 / 23,32310,2020-01-08 17:32:45:903,0.2183,-0.0712,9.9665,0.0008,-0.0002,9.8066,0,0.0054,-0.0077,-10.87,-33.44,23.31,9.28,-84.91,-146.26
