GPS LATITUDE (degrees), GPS LONGITUDE (degrees), GPS ALTITUDE (m), GPS SPEED (Kmh), GPS ACCURACY (m), GPS ORIENTATION (Â°),GPS SATELLITES IN RANGE, TIME SINCE START (ms), DATE (YYYY-MO-DD HH-MI-SS_SSS), ACCELEROMETER X (m/s²) , ACCELEROMETER Y (m/s²), ACCELEROMETER Z (m/s²), GRAVITY X (m/s²), GRAVITY Y (m/s²), GRAVITY Z (m/s²), GYROSCOPE Yaw (rad/s), GYROSCOPE Pitch (rad/s), GYROSCOPE Roll (rad/s), MAGNETIC FIELD X (Î¼T), MAGNETIC FIELD Y (Î¼T), MAGNETIC FIELD Z (Î¼T), ORIENTATION (Yaw) (Â°), ORIENTATION (Pitch) (Â°), ORIENTATION (Roll ) (Â°)
52.203262,-2.196303,120.64,11.03,2,279.36,23 / 23,13185410,2020-01-08 15:55:09:004,-1.0469,0.3122,10.0764,-0.034,-0.04,9.8065,0.0822,0.2519,-0.0383,12.69,-34.94,4.81,112.27,-84.06,-150.58
52.203262,-2.196303,120.64,11.03,2,279.36,23 / 23,13185512,2020-01-08 15:55:09:106,1.0947,1.7582,10.0046,-0.0243,-0.0566,9.8064,0.0794,0.0109,-0.1969,11.94,-34.25,4.81,106.14,-83.96,-156.56
52.203262,-2.196303,120.64,11.03,2,279.36,23 / 23,13185609,2020-01-08 15:55:09:203,0.4703,1.1407,10.0021,-0.0182,-0.0318,9.8066,0.1821,0.2452,-0.2867,12.25,-33.69,4.94,105.46,-83.83,-157.65
52.203262,-2.196303,120.64,11.03,2,279.36,23 / 23,13185710,2020-01-08 15:55:09:304,-0.3821,-2.2663,10.959,-0.0314,-0.0421,9.8065,0.0791,0.1872,-0.0599,12.06,-34.56,4.81,104.28,-83.66,-159.87
52.203262,-2.196303,120.64,11.03,2,279.36,23 / 23,13185810,2020-01-08 15:55:09:404,-1.1233,-0.3191,10.5762,-0.0088,-0.0435,9.8065,0.1129,0.0737,-0.0861,12.81,-33.75,5,99.94,-83.49,-164.89
52.203262,-2.196303,120.64,11.03,2,279.36,23 / 23,13185910,2020-01-08 15:55:09:504,1.3287,-1.5753,9.6608,-0.0068,-0.0331,9.8065,-0.0148,0.1202,-0.0861,13.31,-34.12,5.56,95.74,-83.24,-165.72
52.203262,-2.196303,120.64,11.03,2,279.36,23 / 23,13186010,2020-01-08 15:55:09:604,0.4936,-0.6197,10.7913,0.0083,-0.0107,9.8066,0.0893,0.1843,0.0034,13.19,-34.31,6,93.5,-83.09,-168.39
52.203262,-2.196303,120.64,11.03,2,279.36,23 / 23,13186110,2020-01-08 15:55:09:704,2.1376,-1.02,8.2024,-0.0367,-0.0341,9.8065,0.0031,0.2055,-0.1509,13.69,-33.37,6.75,88.64,-82.54,-170.83
52.203262,-2.196303,120.64,11.03,2,279.36,23 / 23,13186209,2020-01-08 15:55:09:803,0.9962,0.3181,10.5637,0.0011,-0.0212,9.8065,0.2834,0.109,-0.0969,13.94,-31.94,6.31,92.16,-82.32,-171.05
52.203262,-2.196303,120.64,11.03,2,279.36,23 / 24,13186311,2020-01-08 15:55:09:905,-0.9923,-1.6522,10.8848,-0.0394,-0.0325,9.8064,0.0475,0.1809,-0.0916,12.69,-32.19,5.94,93.23,-81.99,-170.25
52.203262,-2.196303,120.64,11.03,2,279.36,23 / 24,13186410,2020-01-08 15:55:10:004,1.7342,0.8681,9.3307,-0.0056,-0.0114,9.8066,0.0089,-0.0284,0.0603,10.63,-32,7.38,86.47,-81.93,-171.42
52.203262,-2.196303,120.64,11.03,2,279.36,23 / 24,13186510,2020-01-08 15:55:10:104,1.3965,-0.4998,10.8112,-0.0141,-0.0176,9.8066,0.161,0.0325,-0.0506,11.31,-32.94,7.5,83.02,-82.07,-170.61
52.203262,-2.196303,120.64,11.03,2,279.36,23 / 24,13186610,2020-01-08 15:55:10:204,1.3961,-1.9492,10.6013,-0.036,-0.0105,9.8065,-0.2184,-0.0295,0.0552,11.44,-32.75,7.94,82.32,-81.94,-171.62
52.203262,-2.196303,120.64,11.03,2,279.36,23 / 24,13186710,2020-01-08 15:55:10:304,1.2733,2.0512,10.8782,0.0496,0.0134,9.8065,-0.1348,-0.2718,0.1161,11.5,-33.31,6.94,86.57,-82.42,-171.6
52.203262,-2.196303,120.64,11.03,2,279.36,23 / 24,13186809,2020-01-08 15:55:10:403,0.8069,-4.3011,10.7942,0.0143,0.0608,9.8063,-0.1445,0.1251,-0.0713,11.56,-33.19,7.88,84.31,-82.2,-170.23
52.203262,-2.196303,120.64,11.03,2,279.36,23 / 24,13186910,2020-01-08 15:55:10:504,1.5121,-0.6983,8.7602,0.022,0.0089,9.8066,-0.1692,-0.1569,0.2414,12.31,-32.19,8.19,82.4,-82.09,-171.78
52.203262,-2.196303,120.64,11.03,2,279.36,23 / 24,13187009,2020-01-08 15:55:10:603,1.8314,-2.8726,11.3636,0.0513,0.0329,9.8064,0.0802,0.4974,-0.221,13.88,-31.81,8.13,83.9,-82.29,-171.9
52.203262,-2.196303,120.64,11.03,2,279.36,23 / 24,13187110,2020-01-08 15:55:10:704,2.0253,-2.2986,8.7352,-0.0064,-0.0675,9.8063,-0.1084,0.2879,-0.2082,14.44,-32.62,7.63,84.64,-82.31,-171.64
52.203262,-2.196303,120.64,11.03,2,279.36,23 / 24,13187209,2020-01-08 15:55:10:803,1.058,1.0938,9.5515,0.013,-0.0347,9.8065,0.0531,0.2694,-0.2591,13.5,-32.69,6.44,89.76,-82.29,-174.1
52.203262,-2.196303,120.64,11.03,2,279.36,23 / 24,13187310,2020-01-08 15:55:10:904,3.0167,-2.3835,10.0585,0.0028,-0.0404,9.8065,0.0579,0.1746,-0.0898,13.38,-33.87,6.5,84.36,-82.37,-175.26
52.203262,-2.196303,120.64,11.03,2,279.36,23 / 24,13187410,2020-01-08 15:55:11:004,1.5711,-1.0599,9.4103,-0.023,-0.0268,9.8065,-0.0033,0.3019,-0.0944,12.56,-33.5,7.19,83.69,-82.35,-175.43
52.203262,-2.196303,120.64,11.03,2,279.36,23 / 24,13187510,2020-01-08 15:55:11:104,3.8434,-1.9769,9.3512,-0.0074,-0.0295,9.8065,0.0387,0.2482,-0.1604,12.81,-34.12,6.75,85.71,-81.95,-174.98
52.203262,-2.196303,120.64,11.03,2,279.36,23 / 24,13187610,2020-01-08 15:55:11:204,2.6239,0.6572,9.3372,0.0149,-0.0127,9.8065,-0.0486,-0.0295,0.0253,13,-33.25,7.63,80.29,-81.76,-176.16
52.203262,-2.196303,120.64,11.03,2,279.36,23 / 24,13187709,2020-01-08 15:55:11:303,-0.7797,-5.7168,11.0794,-0.0398,0.0327,9.8065,0.2828,0.4476,-0.0985,12.94,-33.44,7.38,83.15,-81.88,-177.06
52.203262,-2.196303,120.64,11.03,2,279.36,23 / 24,13187810,2020-01-08 15:55:11:404,1.476,2.8762,8.7302,-0.0401,-0.0803,9.8062,-0.0658,-0.2273,0.3123,13.13,-34.06,8.19,78.72,-81.46,-178.95
52.203262,-2.196303,120.64,11.03,2,279.36,23 / 24,13187910,2020-01-08 15:55:11:504,-0.5615,-1.8591,10.0217,-0.0121,-0.026,9.8065,0.1051,0.2007,-0.3807,13,-33.37,7.56,78.36,-81.61,-178.35
52.203262,-2.196303,120.64,11.03,2,279.36,23 / 24,13188009,2020-01-08 15:55:11:603,2.0838,-0.5927,11.432,0.0462,-0.0431,9.8064,0.0676,0.1403,-0.165,13.19,-33,8.69,73.45,-81.75,-178.86
52.203262,-2.196303,120.64,11.03,2,279.36,23 / 24,13188110,2020-01-08 15:55:11:704,3.852,-6.8022,8.6614,0.0002,-0.0246,9.8065,-0.0433,0.8106,-0.233,13.44,-32.56,8.5,72.95,-82.01,-178.76
52.203262,-2.196303,120.64,11.03,2,279.36,23 / 24,13188210,2020-01-08 15:55:11:804,1.0733,-4.9927,11.2958,-0.0176,-0.0885,9.8062,-0.3213,-0.4619,0.265,13.38,-32.5,7.88,73.86,-81.59,177.99
52.203262,-2.196303,120.64,11.03,2,279.36,22 / 24,13188310,2020-01-08 15:55:11:904,3.7738,-5.8473,12.5658,0.0317,0.0862,9.8061,0.1303,0.0952,0.0917,13.75,-31.62,7.81,73.81,-81.57,176.99
52.203262,-2.196303,120.64,11.03,2,279.36,22 / 24,13188410,2020-01-08 15:55:12:004,0.053,1.2381,11.4066,-0.0206,0.0003,9.8066,-0.0583,-0.6481,0.6578,12,-31.37,9.69,64.57,-81.56,178.74
52.203262,-2.196303,120.64,11.03,2,279.36,22 / 24,13188509,2020-01-08 15:55:12:103,1.3898,9.3569,6.6458,0.0283,0.1241,9.8058,-0.3708,-0.3126,0.2934,11.81,-31.12,9.94,68.32,-81.35,-178.36
52.203262,-2.196303,120.64,11.03,2,279.36,22 / 24,13188610,2020-01-08 15:55:12:204,1.0904,-0.2756,10.6422,0.0249,0.1247,9.8058,-0.0333,-0.8709,0.7778,12.56,-31.44,11.81,62.49,-81.26,-178.87
52.203262,-2.196303,120.64,11.03,2,279.36,22 / 24,13188710,2020-01-08 15:55:12:304,1.3066,9.2577,9.0378,-0.071,0.1346,9.8054,-0.1819,-0.944,0.6857,12.88,-31.81,11.13,61.49,-81.29,176.84
52.203262,-2.196303,120.64,11.03,2,279.36,22 / 24,13188810,2020-01-08 15:55:12:404,4.3262,-7.332,10.2887,-0.023,0.1458,9.8055,-0.0613,-0.1233,-0.0078,12.63,-32.81,11.44,69.62,-81.49,-176.11
52.203262,-2.196303,120.64,11.03,2,279.36,22 / 24,13188910,2020-01-08 15:55:12:504,-1.0112,9.162,9.0252,0.0104,0.0477,9.8064,-0.1519,-0.9414,0.8063,12.13,-33.5,11.25,67.98,-81.31,-176.41
52.203262,-2.196303,120.64,11.03,2,279.36,22 / 24,13189009,2020-01-08 15:55:12:603,4.9611,-7.864,10.1207,-0.0468,0.1489,9.8054,-0.0937,0.7757,-0.382,12.94,-32.12,12.25,70.11,-81.31,-172.44
52.203262,-2.196303,120.64,11.03,2,279.36,22 / 24,13189110,2020-01-08 15:55:12:704,4.0781,-4.4665,9.0399,0.054,-0.0223,9.8064,-0.1434,-0.248,0.329,12.38,-33.56,12,67.25,-81.62,-173.73
52.203262,-2.196303,120.64,11.03,2,279.36,22 / 24,13189210,2020-01-08 15:55:12:804,5.1697,-7.3139,9.8472,-0.009,0.0861,9.8062,-0.0542,0.9298,-0.4823,12.69,-33.5,12.69,69.12,-81.65,-170.31
52.203262,-2.196303,120.64,11.03,2,279.36,22 / 22,13189310,2020-01-08 15:55:12:904,2.381,-1.0337,7.954,0.0399,-0.0418,9.8065,-0.1196,0.2294,0.0256,12.44,-33.37,13.38,68.31,-81.5,-169.61
52.203262,-2.196303,120.64,11.03,2,279.36,22 / 22,13189410,2020-01-08 15:55:13:004,-1.2472,4.4546,9.4951,0.0071,0.0357,9.8065,0.1438,0.7215,-0.4021,12,-33,14.13,66.4,-81.53,-168.54
52.203262,-2.196303,120.64,11.03,2,279.36,22 / 22,13189510,2020-01-08 15:55:13:104,2.2819,0.0032,8.8508,0.0107,-0.037,9.8065,-0.0196,0.5315,-0.1415,12,-33.75,14,69.06,-81.39,-166.86
52.203262,-2.196303,120.64,11.03,2,279.36,22 / 22,13189610,2020-01-08 15:55:13:204,0.4944,3.8399,8.8982,0.0149,-0.008,9.8066,0.0367,0.3379,-0.1167,11.63,-33.56,13.25,72.7,-81.58,-165.94
52.203262,-2.196303,120.64,11.03,2,279.36,22 / 22,13189710,2020-01-08 15:55:13:304,3.0357,-1.0873,9.6322,0.0188,-0.0179,9.8065,-0.05,0.4414,-0.2364,11.25,-33.56,13.63,69.39,-81.86,-163.75
52.203262,-2.196303,120.64,11.03,2,279.36,22 / 22,13189809,2020-01-08 15:55:13:403,1.3444,2.7068,9.5408,0.0521,-0.0124,9.8065,-0.0049,0.0779,-0.0385,11.25,-33.87,13.31,73.1,-82.25,-162.35
52.203262,-2.196303,120.64,11.03,2,279.36,22 / 22,13189910,2020-01-08 15:55:13:504,2.1827,-1.5273,10.0817,0.0141,0.0111,9.8066,0.002,0.2733,-0.1412,10.94,-33.12,13.56,71.81,-82.5,-159.89
52.203262,-2.196303,120.64,11.03,2,279.36,22 / 22,13190010,2020-01-08 15:55:13:604,1.9604,2.2674,8.7266,0.017,-0.0154,9.8066,0.0235,-0.0389,0.0645,11.13,-34.56,13.25,76.82,-82.79,-158.17
52.203262,-2.196303,120.64,11.03,2,279.36,22 / 22,13190110,2020-01-08 15:55:13:704,2.131,-1.0607,9.2091,-0.0078,-0.005,9.8066,0.022,0.1191,-0.0937,10.5,-34.37,12.75,78.67,-82.9,-155.75
52.203262,-2.196303,120.64,11.03,2,279.36,22 / 22,13190211,2020-01-08 15:55:13:805,0.6647,0.9138,9.3013,0.0006,0.0118,9.8066,0.0194,-0.313,0.2276,10.63,-33.62,13.5,76.78,-82.97,-154.72
52.203262,-2.196303,120.64,11.03,2,279.36,22 / 22,13190310,2020-01-08 15:55:13:904,-0.6139,3.6921,9.8121,-0.0271,0.0454,9.8065,-0.0079,-0.0689,0.0924,10.5,-34.5,13.19,82.32,-82.88,-152.27
52.203262,-2.196303,120.64,11.03,2,279.36,22 / 22,13190410,2020-01-08 15:55:14:004,0.2464,2.3783,9.2683,0.0089,0.0017,9.8066,-0.0977,-0.2391,0.1842,10.06,-33.62,12.19,81.99,-82.95,-153.32
52.203262,-2.196303,120.64,11.03,2,279.36,22 / 22,13190510,2020-01-08 15:55:14:104,0.6379,1.3701,8.8027,0.0274,0.0223,9.8065,-0.126,-0.1504,-0.034,10.44,-33.87,12.13,81.17,-82.99,-154.02
52.203262,-2.196303,120.64,11.03,2,279.36,22 / 22,13190610,2020-01-08 15:55:14:204,-0.3028,-1.3071,10.4859,0.0156,0.0247,9.8065,-0.101,-0.2025,-0.0599,10.63,-34.44,12.38,83.99,-83.17,-152.97
52.203262,-2.196303,120.64,11.03,2,279.36,22 / 22,13190710,2020-01-08 15:55:14:304,-0.8504,2.6231,10.2283,0.0132,0.0236,9.8066,-0.063,-0.3485,0.3002,10.94,-33.37,12,83.86,-83.26,-152.46
52.203262,-2.196303,120.64,11.03,2,279.36,22 / 22,13190810,2020-01-08 15:55:14:404,1.8594,-1.2512,9.8437,0.0002,0.0262,9.8065,-0.0396,-0.0875,0.0668,11.31,-34.31,11.75,82.35,-83.43,-154
52.203262,-2.196303,120.64,11.03,2,279.36,22 / 22,13190909,2020-01-08 15:55:14:503,0.5543,0.0136,9.2754,0.0262,0.0077,9.8065,-0.1,-0.2575,0.0726,11.13,-34.19,11,83.54,-83.54,-155.73
52.203262,-2.196303,120.64,11.03,2,279.36,22 / 22,13191009,2020-01-08 15:55:14:603,2.3861,-0.6306,8.8213,0.0008,0.0199,9.8066,-0.0592,0.0416,-0.0788,11.19,-33.44,10.56,83.41,-83.75,-154.97
52.203262,-2.196303,120.64,11.03,2,279.36,22 / 22,13191109,2020-01-08 15:55:14:703,0.4298,1.3177,10.2199,0.0047,-0.0155,9.8066,0.0602,-0.0698,0.0246,11.69,-34.06,10.81,86.27,-83.98,-153.95
52.203262,-2.196303,120.64,11.03,2,279.36,22 / 22,13191210,2020-01-08 15:55:14:804,-1.0092,2.3938,9.4115,0.0258,-0.0195,9.8065,0.0004,0.2044,-0.202,11.13,-34.56,9.94,85.79,-84.33,-155.44
52.203262,-2.196303,120.64,11.03,2,279.36,22 / 22,13191310,2020-01-08 15:55:14:904,0.1441,0.8865,10.2555,0.0398,-0.0462,9.8064,0.0209,0.0735,-0.1705,11.38,-34.06,9.75,82,-84.86,-157.51
52.203262,-2.196303,120.64,11.03,2,279.36,22 / 22,13191409,2020-01-08 15:55:15:003,0.8266,-0.3742,8.8797,0.0096,-0.0199,9.8066,0.0098,0.1993,-0.2202,11.69,-33.87,9.88,84.35,-85.02,-156.75
52.203262,-2.196303,120.64,11.03,2,279.36,22 / 22,13191510,2020-01-08 15:55:15:104,0.9761,-1.7376,9.2776,0.0234,-0.0145,9.8066,-0.0058,-0.0023,0.0223,12.06,-34.31,9.63,84.2,-85.06,-156.79
52.203262,-2.196303,120.64,11.03,2,279.36,22 / 22,13191610,2020-01-08 15:55:15:204,0.9877,-1.3518,10.2727,0.0123,-0.0001,9.8066,0.0071,0.1815,-0.1622,11.25,-33.25,9,83.84,-85.33,-157.76
52.203262,-2.196303,120.64,11.03,2,279.36,22 / 22,13191710,2020-01-08 15:55:15:304,0.5507,-0.4353,10.6283,0.0176,-0.0396,9.8065,0.0096,0.034,-0.0546,11.56,-33.94,9.75,81.35,-85.56,-158.5
52.203262,-2.196303,120.64,11.03,2,279.36,22 / 22,13191809,2020-01-08 15:55:15:403,0.5411,-0.8353,9.8384,0.0008,-0.0005,9.8066,0.0315,0.2472,-0.0957,12.19,-33.44,9.06,80.04,-85.79,-162.3
52.203262,-2.196303,120.64,11.03,2,279.36,22 / 22,13191909,2020-01-08 15:55:15:503,0.6763,-0.0926,9.7979,0.0104,-0.0125,9.8065,-0.0027,0.0774,0.004,11.5,-33.69,10.63,71.33,-85.86,-164.43
52.203262,-2.196303,120.64,11.03,2,279.36,22 / 22,13192009,2020-01-08 15:55:15:603,0.9031,-1.4819,9.72,0.0018,0.0114,9.8066,0.0284,0.1701,-0.0367,12.06,-33.56,10.5,71.72,-85.82,-164.15
52.203262,-2.196303,120.64,11.03,2,279.36,22 / 22,13192110,2020-01-08 15:55:15:704,1.0219,-0.0113,10.0439,-0.0003,0.0046,9.8066,0.0158,0.134,0.017,11.81,-33,10.25,72.12,-85.76,-166.7
52.203262,-2.196303,120.64,11.03,2,279.36,22 / 22,13192210,2020-01-08 15:55:15:804,1.8947,-1.4171,9.2546,-0.0184,-0.0034,9.8066,-0.0845,0.1011,0.0297,12.06,-32.31,10.5,67.74,-85.75,-167.57
52.203262,-2.196303,120.64,11.03,2,279.36,22 / 22,13192309,2020-01-08 15:55:15:903,0.1328,0.5577,9.9623,0.003,0.0313,9.8066,-0.0031,0.0037,0.1536,11.56,-32.19,10.19,71.57,-85.81,-166.85
52.203262,-2.196303,120.64,11.03,2,279.36,22 / 22,13192410,2020-01-08 15:55:16:004,1.1351,-2.6945,9.8795,-0.0164,0.0284,9.8066,-0.0432,0.0378,0.1539,11.38,-32.12,10.25,72.3,-85.87,-163.99
52.203262,-2.196303,120.64,11.03,2,279.36,22 / 22,13192510,2020-01-08 15:55:16:104,-0.0468,-1.1862,10.1803,-0.012,0.0338,9.8065,0.0319,0.0123,0.0999,9.81,-31.81,10.88,68.93,-85.88,-161.71
52.203262,-2.196303,120.64,11.03,2,279.36,22 / 22,13192610,2020-01-08 15:55:16:204,1.5621,-1.0067,9.6469,-0.0127,0.0118,9.8066,-0.1116,0.1033,0.0261,10.44,-32.31,11.75,65.55,-85.89,-162
52.203262,-2.196303,120.64,11.03,2,279.36,22 / 22,13192710,2020-01-08 15:55:16:304,1.0137,1.022,9.579,0.0216,0.0245,9.8066,-0.0408,0.0217,0.0825,9.81,-31.81,11.19,68.06,-86.04,-162.2
52.203262,-2.196303,120.64,11.03,2,279.36,22 / 22,13192810,2020-01-08 15:55:16:404,1.0576,0.9664,9.1439,-0.0085,0.0058,9.8066,-0.0797,0.0589,0.0897,9.94,-32.06,12.44,64.86,-86.27,-161.94
52.203262,-2.196303,120.64,11.03,2,279.36,22 / 22,13192910,2020-01-08 15:55:16:504,1.0242,-0.4625,9.6945,0.0023,0.0255,9.8066,0.001,0.1013,-0.0147,9.88,-32.5,12.56,62.09,-86.42,-161.71
52.203262,-2.196303,120.64,11.03,2,279.36,22 / 22,13193010,2020-01-08 15:55:16:604,0.5028,0.005,10.5833,0.0057,0.0042,9.8066,-0.0717,-0.0083,0.039,10,-32.94,13.25,65.47,-86.53,-158.5
52.203262,-2.196303,120.64,11.03,2,279.36,22 / 22,13193110,2020-01-08 15:55:16:704,0.6959,-0.8881,9.8701,-0.0022,0.0094,9.8066,-0.0285,0.0856,-0.0036,10.63,-32.31,13.69,65.66,-86.59,-158.14
52.203262,-2.196303,120.64,11.03,2,279.36,22 / 22,13193210,2020-01-08 15:55:16:804,0.4926,0.1083,10.5493,0.011,0.0015,9.8066,0.0257,-0.0731,0.0309,11.06,-32.75,13,66.52,-86.58,-159.84
52.203262,-2.196303,120.64,11.03,2,279.36,22 / 22,13193309,2020-01-08 15:55:16:903,0.9791,2.1679,9.2991,0.0115,-0.0033,9.8066,-0.0382,-0.1061,0.0097,10.69,-32.19,13.63,61.09,-86.53,-162.58
52.203262,-2.196303,120.64,11.03,2,279.36,22 / 22,13193409,2020-01-08 15:55:17:003,1.6486,0.2199,8.3742,-0.0266,0.0042,9.8065,-0.1404,-0.1476,0.0937,11.81,-32,13.31,63.52,-86.42,-165.05
52.203262,-2.196303,120.64,11.03,2,279.36,22 / 22,13193510,2020-01-08 15:55:17:104,0.0563,2.1068,9.7591,-0.0107,0.0633,9.8064,-0.0647,-0.1327,0.202,11.81,-32.06,13.88,54.97,-86.42,-170.77
52.203262,-2.196303,120.64,11.03,2,279.36,22 / 22,13193610,2020-01-08 15:55:17:204,1.7376,-1.9689,11.3959,0.006,0.0259,9.8066,-0.1319,-0.1245,0.0893,11.75,-31.56,13.69,56.55,-86.64,-168.98
52.203262,-2.196303,120.64,11.03,2,279.36,22 / 22,13193709,2020-01-08 15:55:17:303,0.3238,1.8336,9.3374,0.0187,0.023,9.8065,-0.1244,-0.2453,0.1507,12.13,-31.94,14.06,54.92,-86.84,-170.21
52.203262,-2.196303,120.64,11.03,2,279.36,22 / 22,13193810,2020-01-08 15:55:17:404,3.8119,-2.1953,9.9376,-0.0037,0.0499,9.8065,0.0307,0.1623,-0.0596,12.19,-33.06,13.56,53.12,-86.96,-171.89
52.203262,-2.196303,120.64,11.03,2,279.36,22 / 22,13193909,2020-01-08 15:55:17:503,3.3789,-0.229,9.8096,0.0144,-0.0145,9.8066,-0.0171,-0.0124,0.0367,12.13,-32.44,13.63,45.25,-86.98,-179.11
52.203262,-2.196303,120.64,11.03,2,279.36,22 / 22,13194009,2020-01-08 15:55:17:603,3.8002,-0.2515,9.6491,-0.002,-0.006,9.8066,-0.0743,0.2731,-0.0679,10.88,-32.56,13.88,38.01,-86.93,176.32
52.203262,-2.196303,120.64,11.03,2,279.36,22 / 22,13194109,2020-01-08 15:55:17:703,3.4751,0.1026,9.6871,0.0022,0.005,9.8066,-0.0059,0.3017,0.0107,11.38,-32.81,14.44,36.77,-86.98,175.22
52.203262,-2.196303,120.64,11.03,2,279.36,22 / 22,13194210,2020-01-08 15:55:17:804,1.6108,0.9842,10.0875,0.008,0.0156,9.8066,0.0206,0.3205,-0.0309,10.94,-33.25,14.31,38.98,-87.1,177.41
52.203213,-2.197382,120.67,5.11,2,244.26,21 / 22,13194310,2020-01-08 15:55:17:904,2.0511,-0.0181,9.9736,-0.0113,0.0267,9.8066,0.0128,0.2569,-0.0371,10.63,-33.31,14.06,41.38,-87.05,179.57
52.203213,-2.197382,120.67,5.11,2,244.26,21 / 22,13194410,2020-01-08 15:55:18:004,1.0382,1.5674,9.2403,-0.0316,0.0203,9.8065,-0.0673,0.079,0.0513,9.69,-33.87,15.25,42.96,-87.11,-174.48
52.203213,-2.197382,120.67,5.11,2,244.26,21 / 22,13194509,2020-01-08 15:55:18:103,1.4374,0.9357,9.9767,-0.013,0.0077,9.8065,-0.0084,0.1033,0.0747,9.69,-33.56,15.94,44.42,-87.15,-171.22
52.203213,-2.197382,120.67,5.11,2,244.26,21 / 22,13194610,2020-01-08 15:55:18:204,0.4606,2.1676,9.776,-0.0078,0.0043,9.8066,-0.0123,0.0703,0.1106,9.38,-33.94,15.44,51.61,-87.12,-163.78
52.203213,-2.197382,120.67,5.11,2,244.26,21 / 22,13194710,2020-01-08 15:55:18:304,0.6202,2.2911,10.1742,-0.0069,0.0023,9.8066,0.0246,0.0193,0.0319,7.94,-34.31,16.31,52.88,-87.13,-158.08
52.203213,-2.197382,120.67,5.11,2,244.26,21 / 22,13194810,2020-01-08 15:55:18:404,0.7048,2.3924,9.7898,0.008,0.0049,9.8066,-0.0092,0.0114,0.0471,8.56,-33.25,15.5,57.51,-87.15,-156.2
52.203213,-2.197382,120.67,5.11,2,244.26,21 / 22,13194910,2020-01-08 15:55:18:504,0.2965,1.9441,10.027,0.0082,0.0043,9.8066,0.0191,0.0224,-0.0202,8.44,-33.69,16.5,53.96,-87.22,-155.36
52.203213,-2.197382,120.67,5.11,2,244.26,21 / 22,13195010,2020-01-08 15:55:18:604,0.1609,2.3142,9.9013,0.0033,-0.0047,9.8066,-0.0269,-0.0682,0.0132,9.44,-34.19,16.19,56.64,-87.26,-156.99
52.203213,-2.197382,120.67,5.11,2,244.26,21 / 22,13195110,2020-01-08 15:55:18:704,0.6415,1.0407,9.6789,-0.0029,0.0005,9.8066,0.0034,-0.0855,-0.0034,9.75,-34.19,16.06,59.15,-87.31,-157.06
52.203213,-2.197382,120.67,5.11,2,244.26,21 / 22,13195210,2020-01-08 15:55:18:804,-0.4252,1.0457,9.8457,0.0078,-0.0101,9.8066,0.0023,-0.1107,0.0726,8.69,-33.44,15.63,56.49,-87.31,-156.94
52.203213,-2.197382,120.67,5.11,2,244.26,23 / 23,13195310,2020-01-08 15:55:18:904,0.6384,0.7311,10.0556,0.0021,0.0071,9.8066,0.0291,-0.0534,0.019,8.69,-33.87,15.81,57.88,-87.39,-155.6
52.203213,-2.197382,120.67,5.11,2,244.26,23 / 23,13195410,2020-01-08 15:55:19:004,0.5529,1.1141,9.8883,-0.0012,0.0111,9.8066,-0.0038,-0.0788,-0.0129,9.44,-33.87,15.25,62.26,-87.44,-153.14
52.203213,-2.197382,120.67,5.11,2,244.26,23 / 23,13195509,2020-01-08 15:55:19:103,0.1275,2.3931,10.0214,-0.0033,0.017,9.8066,0.0117,-0.043,-0.049,9.56,-34.31,15.38,66.73,-87.49,-151.34
52.203213,-2.197382,120.67,5.11,2,244.26,23 / 23,13195610,2020-01-08 15:55:19:204,0.5588,1.7426,9.9477,0.0001,-0.0045,9.8066,0.0075,-0.0835,-0.0124,9.38,-34.31,15.38,62.05,-87.54,-153.17
52.203213,-2.197382,120.67,5.11,2,244.26,23 / 23,13195710,2020-01-08 15:55:19:304,0.6997,1.7271,9.9707,-0.0007,-0.0045,9.8066,0.0154,-0.0558,-0.0215,9.56,-34.44,14.63,62.66,-87.58,-155.11
52.203213,-2.197382,120.67,5.11,2,244.26,23 / 23,13195810,2020-01-08 15:55:19:404,0.9516,0.8961,9.8552,0.0056,0.0033,9.8066,0.014,-0.0468,-0.0083,9.38,-34.25,15.13,58.02,-87.66,-156.83
52.203213,-2.197382,120.67,5.11,2,244.26,23 / 23,13195910,2020-01-08 15:55:19:504,0.5672,1.634,9.9748,0.0036,0.0091,9.8066,0.0094,-0.0877,0.0171,9.13,-34.31,14.63,58.25,-87.74,-156.48
52.203213,-2.197382,120.67,5.11,2,244.26,23 / 23,13196010,2020-01-08 15:55:19:604,1.1019,0.9665,9.8629,0.0046,0.013,9.8066,0.0101,-0.0358,-0.0174,8.75,-34.12,14.81,60.03,-87.86,-154.57
52.203213,-2.197382,120.67,5.11,2,244.26,23 / 23,13196110,2020-01-08 15:55:19:704,1.0795,1.9078,9.9006,0.0101,0.007,9.8066,0.0088,-0.0815,-0.0043,9.69,-34.25,14.25,64,-87.94,-155.21
52.203213,-2.197382,120.67,5.11,2,244.26,23 / 23,13196210,2020-01-08 15:55:19:804,0.7326,0.8477,9.9302,0.0024,0.0086,9.8066,0.0224,-0.0796,-0.0113,9.56,-34.06,14.81,60.92,-88,-156.09
52.203213,-2.197382,120.67,5.11,2,244.26,22 / 22,13196311,2020-01-08 15:55:19:905,0.9343,1.2448,9.6477,0.0045,-0.0019,9.8066,0.013,-0.0817,0.0551,9.56,-34.19,14,62.73,-87.99,-156.35
52.203213,-2.197382,120.67,5.11,2,244.26,22 / 22,13196410,2020-01-08 15:55:20:004,0.4455,1.2225,10.134,0.0007,0.0134,9.8066,0.0062,-0.0722,-0.0095,9.75,-34.19,14.44,64.96,-88.05,-154.09
52.203213,-2.197382,120.67,5.11,2,244.26,22 / 22,13196510,2020-01-08 15:55:20:104,0.5081,1.0385,9.9583,0.0019,0.0082,9.8066,0.0134,-0.0749,-0.0239,9.63,-34.37,13.81,65.39,-88.14,-153.52
52.203213,-2.197382,120.67,5.11,2,244.26,22 / 22,13196609,2020-01-08 15:55:20:203,0.4201,0.9458,9.9707,0.007,-0.0006,9.8066,0.0111,-0.0445,0.0231,9.38,-34.56,14.19,62.49,-88.23,-153.55
52.203213,-2.197382,120.67,5.11,2,244.26,22 / 22,13196710,2020-01-08 15:55:20:304,0.6649,0.8081,9.7024,0.0114,0.0061,9.8066,0.0156,-0.0481,0.0233,9.56,-34.06,14.31,65.55,-88.36,-152.94
52.203213,-2.197382,120.67,5.11,2,244.26,22 / 22,13196810,2020-01-08 15:55:20:404,0.4642,0.6502,9.7353,-0.0048,0.0131,9.8066,0.0092,-0.0314,-0.045,9.56,-34.44,13.56,68.25,-88.4,-150.24
52.203213,-2.197382,120.67,5.11,2,244.26,22 / 22,13196910,2020-01-08 15:55:20:504,0.3084,0.9014,9.8723,-0.0022,0.0142,9.8066,0.0202,-0.0146,-0.0247,9.5,-34.19,13.69,67.56,-88.46,-150.8
52.203213,-2.197382,120.67,5.11,2,244.26,22 / 22,13197010,2020-01-08 15:55:20:604,0.2886,0.281,10.1325,0.0018,0.0062,9.8066,0.0041,-0.0349,0.0006,9.31,-33.94,14.13,68.81,-88.53,-146.74
52.203213,-2.197382,120.67,5.11,2,244.26,22 / 22,13197110,2020-01-08 15:55:20:704,-0.0062,-0.3981,9.9292,-0.0016,0.0074,9.8066,0.0315,-0.0282,-0.0323,8.63,-33.62,13.56,70.06,-88.55,-145.46
52.203213,-2.197382,120.67,5.11,2,244.26,22 / 22,13197210,2020-01-08 15:55:20:804,-0.3398,-0.0698,9.9183,0.0016,0.0003,9.8066,0.0158,-0.0417,0.0146,9,-33.62,14.44,71.04,-88.57,-144.46
52.203213,-2.197382,120.67,5.11,2,244.26,23 / 23,13197312,2020-01-08 15:55:20:906,-0.3499,0.0144,9.7394,-0.0017,0.007,9.8066,0.0099,0.0026,-0.012,8.94,-33.12,14,72.22,-88.57,-143.23
52.203213,-2.197382,120.67,5.11,2,244.26,23 / 23,13197410,2020-01-08 15:55:21:004,-0.0841,-0.2869,9.7322,0.0014,0.0008,9.8066,-0.0098,-0.0399,0.0031,8.75,-31.81,14.44,74.56,-88.58,-140.81
52.203213,-2.197382,120.67,5.11,2,244.26,23 / 23,13197509,2020-01-08 15:55:21:103,-0.22,-0.7416,9.8213,-0.0038,0.0038,9.8066,-0.005,0.0037,-0.0184,7.88,-30.25,13.5,73.92,-88.61,-138.31
52.203213,-2.197382,120.67,5.11,2,244.26,23 / 23,13197610,2020-01-08 15:55:21:204,-0.6576,-0.5086,9.7602,0.0011,0.0018,9.8066,-0.0031,-0.0433,-0.0007,10.19,-28.62,11.13,88.17,-88.64,-136.76
52.203213,-2.197382,120.67,5.11,2,244.26,23 / 23,13197710,2020-01-08 15:55:21:304,-1.0159,-0.3434,9.9111,-0.0039,0.007,9.8066,-0.0081,0.0042,-0.0366,12.56,-27.75,11.88,94.2,-88.68,-135.18
52.203213,-2.197382,120.67,5.11,2,244.26,23 / 23,13197810,2020-01-08 15:55:21:404,-0.8623,-0.1819,9.9172,0.0003,0.0035,9.8066,-0.0062,-0.0469,0.0096,11.5,-27.37,14.63,88.52,-88.69,-131.99
52.203213,-2.197382,120.67,5.11,2,244.26,23 / 23,13197910,2020-01-08 15:55:21:504,-0.6615,-0.4861,9.7208,-0.0022,0.0029,9.8066,-0.0095,-0.0002,0.0017,8.94,-27.5,13.25,87.52,-88.69,-129.41
52.203213,-2.197382,120.67,5.11,2,244.26,23 / 23,13198010,2020-01-08 15:55:21:604,-0.526,-0.0393,9.684,-0.0006,0.0016,9.8066,-0.0104,-0.0585,0.0208,10.19,-26.75,12.19,95.73,-88.66,-126.37
52.203213,-2.197382,120.67,5.11,2,244.26,23 / 23,13198111,2020-01-08 15:55:21:705,-1.0881,0.0131,9.8583,-0.0023,0.0038,9.8066,-0.0138,-0.0759,0.0158,12.56,-26.12,12.31,106.41,-88.61,-122.83
52.203213,-2.197382,120.67,5.11,2,244.26,23 / 23,13198210,2020-01-08 15:55:21:804,-1.1624,-0.0991,9.8595,-0.002,0.0054,9.8066,0.0052,-0.0878,0.0226,12.63,-27.87,15.38,102.54,-88.58,-120.32
52.203213,-2.197382,120.67,5.11,2,244.26,22 / 22,13198310,2020-01-08 15:55:21:904,-1.0108,-0.3346,9.6489,-0.0003,0.0038,9.8066,-0.0027,-0.1296,0.0032,11.5,-30.5,16.38,100.33,-88.54,-118.7
52.203213,-2.197382,120.67,5.11,2,244.26,22 / 22,13198410,2020-01-08 15:55:22:004,-1.2722,-0.2542,9.707,-0.006,0.0011,9.8066,-0.0121,-0.1536,0.0037,10.25,-32.37,14.69,100.1,-88.49,-116.23
52.203213,-2.197382,120.67,5.11,2,244.26,22 / 22,13198510,2020-01-08 15:55:22:104,-1.1492,0.0341,9.7851,-0.0055,0.0079,9.8066,-0.008,-0.1826,0.0331,10.19,-32.69,14.44,102.7,-88.45,-115.74
52.203213,-2.197382,120.67,5.11,2,244.26,22 / 22,13198610,2020-01-08 15:55:22:204,-1.2448,0.3751,9.8973,-0.0142,-0.0057,9.8066,0.0479,-0.2224,0.0188,10,-32.5,14.31,102.91,-88.3,-115.71
52.203213,-2.197382,120.67,5.11,2,244.26,22 / 22,13198709,2020-01-08 15:55:22:303,-2.0101,-0.5464,9.8573,-0.0087,0.0071,9.8066,-0.0269,-0.2968,0.0398,9.25,-33.19,13.81,98.3,-88.11,-118.14
52.203213,-2.197382,120.67,5.11,2,244.26,22 / 22,13198810,2020-01-08 15:55:22:404,-1.7463,0.4779,9.5269,-0.0124,0.0194,9.8066,-0.0335,-0.3622,0.055,9.56,-33.56,12.56,110.5,-87.9,-111.13
52.203213,-2.197382,120.67,5.11,2,244.26,22 / 22,13198909,2020-01-08 15:55:22:503,-2.8912,-0.3809,9.7108,-0.0183,0.0109,9.8066,0.0128,-0.3542,0.0464,9.75,-34.37,10.5,118.66,-87.56,-108.5
52.203213,-2.197382,120.67,5.11,2,244.26,22 / 22,13199009,2020-01-08 15:55:22:603,-3.8926,-1.283,9.8888,-0.0247,0.0037,9.8066,0.032,-0.3582,0.0033,10.25,-34.06,10.06,120.54,-87.43,-109.77
52.203213,-2.197382,120.67,5.11,2,244.26,22 / 22,13199110,2020-01-08 15:55:22:704,-2.6926,-1.162,9.8299,0.0012,-0.0165,9.8066,0.0067,-0.3815,-0.0223,10.06,-34.12,9.63,116.98,-87.3,-113.79
52.203213,-2.197382,120.67,5.11,2,244.26,22 / 22,13199211,2020-01-08 15:55:22:805,-2.448,-1.5716,9.3968,0.0233,-0.0043,9.8066,-0.0648,-0.3426,-0.0295,10.31,-34.81,8.63,120.04,-87.58,-113.41
52.203213,-2.197382,120.67,5.11,2,244.26,23 / 24,13199310,2020-01-08 15:55:22:904,-0.6756,-1.262,9.7294,0.0107,-0.011,9.8066,-0.0082,-0.2834,-0.0614,10.88,-33.44,7.38,131.62,-87.92,-109.84
52.203213,-2.197382,120.67,5.11,2,244.26,23 / 24,13199409,2020-01-08 15:55:23:003,-0.3324,-1.247,9.5979,0.005,-0.0057,9.8066,-0.013,-0.2065,-0.0559,11.19,-33.87,6.81,132.44,-87.97,-108.97
52.203213,-2.197382,120.67,5.11,2,244.26,23 / 24,13199510,2020-01-08 15:55:23:104,0.2542,-0.5941,10.0584,-0.0004,-0.0056,9.8066,0.012,-0.1748,0.0046,10.75,-33.62,6,137.43,-87.95,-107.7
52.203213,-2.197382,120.67,5.11,2,244.26,23 / 24,13199609,2020-01-08 15:55:23:203,-0.7248,-0.3057,9.9586,-0.0067,-0.0107,9.8066,-0.0137,-0.1328,0.0086,10.75,-33.94,5.81,133.61,-87.96,-111.78
52.203213,-2.197382,120.67,5.11,2,244.26,23 / 24,13199710,2020-01-08 15:55:23:304,-0.2983,-0.5395,10.0675,0.0066,-0.0018,9.8066,-0.0159,-0.1228,-0.0389,11.5,-34,5.88,133.73,-87.95,-113.44
52.203213,-2.197382,120.67,5.11,2,244.26,23 / 24,13199810,2020-01-08 15:55:23:404,-0.522,-0.5139,9.8387,0.0099,-0.0065,9.8066,0.0049,-0.0675,-0.0209,11.69,-34.44,5.13,138,-88.1,-112.7
52.203213,-2.197382,120.67,5.11,2,244.26,23 / 24,13199910,2020-01-08 15:55:23:504,-0.5818,-1.0912,10.004,0.004,-0.0154,9.8066,-0.0182,-0.0448,-0.0471,11.63,-33.62,5.63,131.28,-88.28,-115.42
52.203213,-2.197382,120.67,5.11,2,244.26,23 / 24,13200010,2020-01-08 15:55:23:604,0.078,-1.5019,9.6099,0.0153,-0.0141,9.8065,0.0168,-0.0028,-0.0493,11.63,-33.62,5.56,131.29,-88.5,-114.99
52.203213,-2.197382,120.67,5.11,2,244.26,23 / 24,13200109,2020-01-08 15:55:23:703,-0.4196,-2.3985,9.9987,-0.0089,-0.0158,9.8066,0.0456,0.0743,-0.0397,11.25,-33.44,5.63,124.06,-88.75,-120.06
52.203213,-2.197382,120.67,5.11,2,244.26,23 / 24,13200209,2020-01-08 15:55:23:803,-0.1685,-1.5871,9.3869,-0.012,-0.0215,9.8066,-0.0042,0.0887,0.027,11.75,-33.75,6.19,115.16,-88.84,-130.92
52.203213,-2.197382,120.67,5.11,2,244.26,23 / 23,13200310,2020-01-08 15:55:23:904,-1.7993,-1.6023,9.609,-0.0051,0.002,9.8066,0.0389,0.1472,-0.0072,11.63,-33.37,6.56,109.03,-88.81,-133.39
52.203213,-2.197382,120.67,5.11,2,244.26,23 / 23,13200410,2020-01-08 15:55:24:004,-0.0737,-0.9323,9.68,-0.0037,-0.0035,9.8066,-0.0115,0.1465,0.0209,11.81,-33.81,5.88,106.67,-88.73,-139.86
52.203213,-2.197382,120.67,5.11,2,244.26,23 / 23,13200510,2020-01-08 15:55:24:104,0.2293,-1.347,9.7874,-0.0051,-0.0228,9.8066,0.06,0.2216,-0.0768,11.5,-33.62,6.88,94.58,-88.81,-148.07
52.203213,-2.197382,120.67,5.11,2,244.26,23 / 23,13200609,2020-01-08 15:55:24:203,-1.1195,-3.2063,9.8646,-0.0028,-0.0172,9.8066,-0.05,0.1896,-0.0375,12,-33.31,7.44,74.95,-88.7,-167.77
52.203213,-2.197382,120.67,5.11,2,244.26,23 / 23,13200710,2020-01-08 15:55:24:304,-0.6479,-1.8629,9.5727,0.0139,0.0061,9.8066,-0.0477,0.2384,0.0012,11.75,-33.19,8.31,63.12,-88.83,-175.57
52.203213,-2.197382,120.67,5.11,2,244.26,23 / 23,13200809,2020-01-08 15:55:24:403,-0.6484,-2.3472,10.1734,0.009,0.0133,9.8066,-0.0311,0.2657,-0.121,11.13,-33.19,9.38,60.83,-89.04,-171.83
52.203213,-2.197382,120.67,5.11,2,244.26,23 / 23,13200910,2020-01-08 15:55:24:504,-1.0613,-2.3836,9.6611,0.0024,-0.0027,9.8066,0.0365,0.2248,0.0668,11.5,-32.56,9.81,57.91,-89.07,-173.95
52.203213,-2.197382,120.67,5.11,2,244.26,23 / 23,13201010,2020-01-08 15:55:24:604,-0.0301,-2.309,9.4202,-0.0051,-0.0022,9.8066,-0.0195,0.3622,-0.0308,11.56,-31.87,11.19,51.97,-89.05,-176.99
52.203213,-2.197382,120.67,5.11,2,244.26,23 / 23,13201110,2020-01-08 15:55:24:704,-0.3608,-1.5963,10.1321,0.0202,-0.021,9.8066,-0.0063,0.2077,-0.0892,12.94,-31.19,11.56,42.63,-89.11,174.28
52.203213,-2.197382,120.67,5.11,2,244.26,23 / 23,13201209,2020-01-08 15:55:24:803,-0.1297,-2.5922,10.2924,0.004,0.0118,9.8066,-0.0758,0.2366,-0.1047,13.56,-32.12,11.75,27.86,-89.1,157.73
52.203213,-2.197382,120.67,5.11,2,244.26,23 / 25,13201310,2020-01-08 15:55:24:904,-0.7269,-3.3327,10.4407,-0.0055,0.0212,9.8066,0.0044,0.2301,0.1631,13.63,-31.25,11.38,20.83,-89.14,148.45
52.203213,-2.197382,120.67,5.11,2,244.26,23 / 25,13201410,2020-01-08 15:55:25:004,0.0067,-2.0037,9.1826,-0.0181,0.0003,9.8066,-0.0829,0.0577,0.2388,13.75,-31.81,11.63,15.51,-88.99,145.64
52.203213,-2.197382,120.67,5.11,2,244.26,23 / 25,13201510,2020-01-08 15:55:25:104,-1.2773,0.25,9.2609,-0.0229,0.0381,9.8065,0.022,0.1525,0.0462,13.56,-31.87,11.81,18.35,-88.95,148.38
52.203213,-2.197382,120.67,5.11,2,244.26,23 / 25,13201610,2020-01-08 15:55:25:204,-0.3358,-1.0362,9.7323,-0.0124,0.0055,9.8066,-0.0654,0.0689,0.0919,12.44,-32.75,11.94,27.85,-88.98,161.92
52.203213,-2.197382,120.67,5.11,2,244.26,23 / 25,13201709,2020-01-08 15:55:25:303,-1.4788,-0.5584,9.8197,-0.0106,0.0074,9.8066,0.0175,0.0157,0.0818,12.56,-33,12.81,21.47,-88.86,155.72
52.203213,-2.197382,120.67,5.11,2,244.26,23 / 25,13201810,2020-01-08 15:55:25:404,0.5125,-2.4551,9.4275,-0.0377,0.0072,9.8065,0.08,0.1858,0.0456,12.63,-32.19,12.81,26.29,-88.74,160.31
52.203213,-2.197382,120.67,5.11,2,244.26,23 / 25,13201909,2020-01-08 15:55:25:503,-0.2417,-1.8041,9.7827,-0.041,-0.0115,9.8065,0.156,0.1003,0.0778,11.69,-33.19,13.75,26.96,-88.54,165.17
52.203213,-2.197382,120.67,5.11,2,244.26,23 / 25,13202010,2020-01-08 15:55:25:604,-0.2482,-0.2011,8.2991,-0.0411,-0.0281,9.8065,0.1502,0.1173,0.1164,11.81,-33.62,14.13,33.56,-88.42,171.34
52.203213,-2.197382,120.67,5.11,2,244.26,23 / 25,13202110,2020-01-08 15:55:25:704,-1.4979,-1.1935,10.531,-0.0286,-0.0134,9.8065,0.1234,0.0976,-0.0694,11.88,-33.06,14.63,43.61,-88.41,-176.95
52.203213,-2.197382,120.67,5.11,2,244.26,23 / 25,13202212,2020-01-08 15:55:25:806,-1.2418,-0.7473,9.4926,-0.0149,-0.016,9.8066,0.0391,0.0937,-0.0162,11.75,-33.37,14.94,53.02,-88.38,-167.87
52.203213,-2.197382,120.67,5.11,2,244.26,21 / 22,13202311,2020-01-08 15:55:25:905,-0.713,-0.8542,10.0073,0.0096,0.0069,9.8066,-0.0158,0.0542,-0.0197,11.44,-33.06,14.88,54.91,-88.37,-163.72
52.203213,-2.197382,120.67,5.11,2,244.26,21 / 22,13202410,2020-01-08 15:55:26:004,-0.8814,0.6075,9.6877,-0.0003,0.0078,9.8066,0.0273,0.0606,0.0837,11.63,-32.44,15.31,59.46,-88.47,-161.41
52.203213,-2.197382,120.67,5.11,2,244.26,21 / 22,13202510,2020-01-08 15:55:26:104,-0.4905,-1.5823,10.7395,-0.0112,-0.0092,9.8066,0.0338,0.058,-0.1051,11.38,-33.5,14.63,62.51,-88.56,-156.01
52.203213,-2.197382,120.67,5.11,2,244.26,21 / 22,13202610,2020-01-08 15:55:26:204,-1.3358,-1.2433,9.8245,-0.0053,-0.0029,9.8066,0.0676,-0.0989,-0.0394,11,-32.56,14.56,73.29,-88.4,-145.69
52.203213,-2.197382,120.67,5.11,2,244.26,21 / 22,13202711,2020-01-08 15:55:26:305,-1.2186,-0.1353,10.3824,-0.0377,0.007,9.8065,0.0242,0.0083,0.1458,10.75,-33.44,15,81.2,-88.2,-138.22
52.203213,-2.197382,120.67,5.11,2,244.26,21 / 22,13202809,2020-01-08 15:55:26:403,-0.6401,-0.7222,9.7173,-0.0218,-0.0016,9.8065,0.0667,-0.1638,0.1037,10.5,-33.25,14.69,83.96,-87.84,-136.11
52.203213,-2.197382,120.67,5.11,2,244.26,21 / 22,13202909,2020-01-08 15:55:26:503,-3.2689,0.6777,9.8331,-0.0301,-0.0077,9.8065,0.0347,-0.2798,0.121,9.94,-33.12,14.88,83.98,-87.3,-134.64
52.203213,-2.197382,120.67,5.11,2,244.26,21 / 22,13203010,2020-01-08 15:55:26:604,-1.0087,-0.4559,9.6072,-0.0482,-0.0023,9.8065,0.0522,-0.167,0.0535,10.31,-33.44,14.75,84.05,-86.96,-135.19
52.203213,-2.197382,120.67,5.11,2,244.26,21 / 22,13203111,2020-01-08 15:55:26:705,-1.7555,0.2323,9.6595,-0.0105,0.0068,9.8066,0.0028,-0.1875,0.0572,9.81,-33.25,14.19,83.42,-86.81,-138.23
52.203213,-2.197382,120.67,5.11,2,244.26,21 / 22,13203210,2020-01-08 15:55:26:804,-2.5519,1.1608,9.49,-0.0133,-0.0047,9.8066,-0.1224,-0.1042,0.0805,10.38,-32.81,13.44,86.85,-86.74,-137.31
52.203125,-2.197779,120.92,6.39,2,252.18,22 / 22,13203310,2020-01-08 15:55:26:904,-1.5686,-0.8681,10.0728,0.0271,0.0343,9.8065,-0.1237,0.0495,-0.1044,9.69,-33.19,13.81,90.75,-86.55,-131.43
52.203125,-2.197779,120.92,6.39,2,252.18,22 / 22,13203410,2020-01-08 15:55:27:004,-3.5611,3.1665,9.8337,0.0289,0.013,9.8065,-0.1885,-0.3477,0.1184,10.19,-33.12,12.56,95.53,-86.39,-129.29
52.203125,-2.197779,120.92,6.39,2,252.18,22 / 22,13203510,2020-01-08 15:55:27:104,-0.2528,0.8135,8.7006,-0.0081,0.0489,9.8065,-0.1588,-0.0662,0.0054,10,-33.56,12,101.03,-86.3,-126.69
52.203125,-2.197779,120.92,6.39,2,252.18,22 / 22,13203610,2020-01-08 15:55:27:204,-1.5632,0.9292,9.8988,0.0435,0.0098,9.8065,0.0545,-0.5441,0.1937,10.31,-32.62,10.31,110.85,-86.16,-122.51
52.203125,-2.197779,120.92,6.39,2,252.18,22 / 22,13203709,2020-01-08 15:55:27:303,-1.1042,0.0939,9.0879,-0.038,-0.0009,9.8065,-0.0198,-0.3139,-0.0607,11.75,-33,10.19,113.54,-86.02,-124.34
52.203125,-2.197779,120.92,6.39,2,252.18,22 / 22,13203810,2020-01-08 15:55:27:404,-1.0166,1.3213,9.9525,-0.0022,-0.0251,9.8065,0.1,-0.37,0.0823,12.31,-32.75,9.25,112.6,-85.89,-128.85
52.203125,-2.197779,120.92,6.39,2,252.18,22 / 22,13203911,2020-01-08 15:55:27:505,-1.5565,0.712,9.8129,-0.002,-0.03,9.8065,-0.0087,-0.2089,-0.1197,13.19,-32.12,10.88,100.96,-85.96,-136.26
52.203125,-2.197779,120.92,6.39,2,252.18,22 / 22,13204009,2020-01-08 15:55:27:603,-0.5893,-1.72,10.5821,0.0281,-0.0337,9.8065,-0.0616,-0.3333,-0.0161,13.31,-32.69,10.56,95.29,-86.16,-141.91
52.203125,-2.197779,120.92,6.39,2,252.18,22 / 22,13204110,2020-01-08 15:55:27:704,-0.4719,-2.0449,9.0675,0.0219,0.0048,9.8066,-0.1629,-0.2028,0.0452,12.81,-32.94,10.56,86.81,-86.35,-150.04
52.203125,-2.197779,120.92,6.39,2,252.18,22 / 22,13204209,2020-01-08 15:55:27:803,-0.1208,-3.4693,10.5179,0.0352,0.0125,9.8065,-0.1504,-0.1301,-0.0028,12.75,-33.19,10.13,83.74,-86.79,-155.14
52.203125,-2.197779,120.92,6.39,2,252.18,22 / 23,13204310,2020-01-08 15:55:27:904,0.0608,0.9361,8.2959,0.057,0.0365,9.8064,-0.2091,-0.2625,0.118,13.56,-33.44,10.44,74.45,-86.92,-165.75
52.203125,-2.197779,120.92,6.39,2,252.18,22 / 23,13204410,2020-01-08 15:55:28:004,1.0321,-4.3967,11.6536,0.0245,0.0263,9.8065,0.0214,0.0605,-0.0733,13.56,-32.69,10.38,66.58,-87.19,-172.86
52.203125,-2.197779,120.92,6.39,2,252.18,22 / 23,13204510,2020-01-08 15:55:28:104,-0.6703,0.0435,9.0636,0.0035,-0.0383,9.8065,-0.0865,-0.1628,0.094,13.13,-32.81,10.94,54.9,-86.64,179.74
52.203125,-2.197779,120.92,6.39,2,252.18,22 / 23,13204610,2020-01-08 15:55:28:204,-1.7467,-0.8583,10.9318,-0.009,0.0169,9.8065,0.035,0.4516,-0.379,12.81,-32.56,11.81,52.78,-86.23,179.81
52.203125,-2.197779,120.92,6.39,2,252.18,22 / 23,13204710,2020-01-08 15:55:28:304,-3.2492,-2.4471,10.822,0.0192,-0.0382,9.8065,0.0225,0.296,0.1479,12.81,-33.12,11.56,53.28,-85.6,179.31
52.203125,-2.197779,120.92,6.39,2,252.18,22 / 23,13204810,2020-01-08 15:55:28:404,0.7852,-0.1055,11.2242,0.0137,0.0325,9.8065,0.0494,0.3246,0.0213,12.81,-31.37,12.63,48.15,-85.45,177.33
52.203125,-2.197779,120.92,6.39,2,252.18,22 / 23,13204910,2020-01-08 15:55:28:504,0.0334,-3.4839,8.7976,0.0101,-0.0003,9.8066,-0.0718,0.2683,-0.0517,12.25,-31.56,12.31,53.02,-85.19,-179.35
52.203125,-2.197779,120.92,6.39,2,252.18,22 / 23,13205010,2020-01-08 15:55:28:604,1.3137,1.8667,9.7454,0.0145,0.0458,9.8065,-0.0087,-0.0732,0.1425,10.94,-31.37,12,54.5,-85.33,-175.38
52.203125,-2.197779,120.92,6.39,2,252.18,22 / 23,13205110,2020-01-08 15:55:28:704,1.9101,-1.6839,9.2072,-0.044,0.0112,9.8065,0.0057,0.3379,-0.0623,11.06,-31.31,13.94,51.2,-85.01,-173.86
52.203125,-2.197779,120.92,6.39,2,252.18,22 / 23,13205210,2020-01-08 15:55:28:804,-0.8056,0.8633,11.4032,0.0576,-0.0185,9.8064,-0.1121,0.1743,-0.2082,10.69,-31.44,13.88,49.57,-84.99,-175.36
52.203125,-2.197779,120.92,6.39,2,252.18,22 / 23,13205310,2020-01-08 15:55:28:904,-0.6918,-1.0842,10.6159,0.051,-0.0088,9.8065,-0.1166,0.173,-0.0113,11.25,-31.56,13.94,54.04,-84.79,-171.85
52.203125,-2.197779,120.92,6.39,2,252.18,22 / 23,13205410,2020-01-08 15:55:29:004,1.2624,0.1135,8.9486,-0.0434,0.0052,9.8065,-0.4336,-0.3884,0.5098,11.06,-31.81,14.13,52.97,-84.46,-173.29
52.203125,-2.197779,120.92,6.39,2,252.18,22 / 23,13205510,2020-01-08 15:55:29:104,-3.4995,5.8397,8.5338,-0.0529,0.1645,9.8051,-0.021,0.2212,0.2189,11.63,-31.94,14.06,51.51,-84.18,-177.18
52.203125,-2.197779,120.92,6.39,2,252.18,22 / 23,13205610,2020-01-08 15:55:29:204,-4.4505,3.3091,10.9794,0.0502,-0.017,9.8065,-0.1422,-0.616,0.3856,10.94,-32.31,14.56,49.74,-84.26,-174.23
52.203125,-2.197779,120.92,6.39,2,252.18,22 / 23,13205709,2020-01-08 15:55:29:303,-1.2785,1.0277,9.8274,-0.0129,-0.0085,9.8066,-0.0788,-0.2215,0.1222,10.81,-32,15.63,49.68,-83.59,-173.1
52.203125,-2.197779,120.92,6.39,2,252.18,22 / 23,13205810,2020-01-08 15:55:29:404,3.486,-8.8529,10.2665,-0.0772,0.0754,9.806,0.0067,-0.5499,0.63,11.06,-31.56,14.69,54.76,-83.2,-171.3
52.203125,-2.197779,120.92,6.39,2,252.18,22 / 23,13205910,2020-01-08 15:55:29:504,-1.6774,2.7672,10.0762,-0.0621,0.0792,9.8061,-0.0514,-0.7355,0.209,11.56,-31.94,15.31,50.81,-83.14,-176.97
52.203125,-2.197779,120.92,6.39,2,252.18,22 / 23,13206009,2020-01-08 15:55:29:603,0.5133,-7.5867,11.4823,0.022,0.0366,9.8065,-0.0943,0.182,-0.5651,12.06,-32.62,15.13,55.67,-83.44,-172.53
52.203125,-2.197779,120.92,6.39,2,252.18,22 / 23,13206110,2020-01-08 15:55:29:704,1.4692,-1.099,8.3101,0.0613,-0.0296,9.8064,-0.1567,-0.4779,0.6275,12.06,-32.5,15.19,59.02,-83.23,-169.56
52.203125,-2.197779,120.92,6.39,2,252.18,22 / 23,13206210,2020-01-08 15:55:29:804,1.6679,-8.5444,11.2556,-0.0661,0.1137,9.8057,0.0513,0.8478,-0.3482,12.56,-33.06,14.44,63.87,-83.27,-169.7
52.203125,-2.197779,120.92,6.39,2,252.18,23 / 23,13206310,2020-01-08 15:55:29:904,-0.0578,-0.4574,7.9689,0.0798,-0.0753,9.806,-0.2632,-0.189,-0.1384,11.81,-33.44,14.25,52.98,-83.54,-177.09
52.203125,-2.197779,120.92,6.39,2,252.18,23 / 23,13206410,2020-01-08 15:55:30:004,-4.0206,6.4024,10.4225,0.0254,0.0316,9.8066,0.0542,0.7955,-0.8011,12.13,-33.75,14.38,58.27,-83.61,-172.59
52.203125,-2.197779,120.92,6.39,2,252.18,23 / 23,13206509,2020-01-08 15:55:30:103,-2.8939,2.7305,9.8598,0.0568,-0.0587,9.8063,-0.0835,0.273,0.0332,12.31,-33.44,14.5,57.88,-83.29,-170.79
52.203125,-2.197779,120.92,6.39,2,252.18,23 / 23,13206610,2020-01-08 15:55:30:204,-3.2144,3.0995,11.074,0.0184,0.0274,9.8065,0.0064,0.5467,-0.1795,12.31,-33.25,13.94,57.23,-83.35,-173.62
52.203125,-2.197779,120.92,6.39,2,252.18,23 / 23,13206710,2020-01-08 15:55:30:304,3.5171,-4.4221,9.308,0.0472,-0.0388,9.8064,-0.1186,0.5382,-0.4118,12.81,-33,14.44,61.12,-83.29,-172.16
52.203125,-2.197779,120.92,6.39,2,252.18,23 / 23,13206810,2020-01-08 15:55:30:404,-1.5744,-1.9242,11.0993,0.0553,-0.0225,9.8064,0.088,0.1392,-0.3992,12.31,-34,14.25,59.21,-83.5,-171.94
52.203125,-2.197779,120.92,6.39,2,252.18,23 / 23,13206910,2020-01-08 15:55:30:504,2.4553,0.8067,8.7718,0.0235,-0.0175,9.8065,-0.1502,0.2599,0.0467,12.31,-33.56,14.13,60.21,-83.27,-171.43
52.203125,-2.197779,120.92,6.39,2,252.18,23 / 23,13207010,2020-01-08 15:55:30:604,0.9094,2.6543,8.5509,0.0569,0.0493,9.8063,0.2547,0.1696,0.0366,12.88,-34.06,14,62.2,-83.49,-171.17
52.203125,-2.197779,120.92,6.39,2,252.18,23 / 23,13207110,2020-01-08 15:55:30:704,0.9076,-0.3985,8.0845,-0.0073,-0.0721,9.8063,0.0099,0.1536,-0.2889,12.31,-33.06,14.94,58.06,-83.4,-170.46
52.203125,-2.197779,120.92,6.39,2,252.18,23 / 23,13207210,2020-01-08 15:55:30:804,-0.9299,2.5686,9.9385,-0.0123,-0.0369,9.8065,0.0373,-0.2314,0.0623,11.56,-33.62,14.44,59.87,-83,-172.19
52.203125,-2.197779,120.92,6.39,2,252.18,23 / 23,13207309,2020-01-08 15:55:30:903,0.9756,-0.41,10.5231,0.0369,0.0519,9.8064,-0.0269,0.3161,-0.2589,11.94,-33.06,14.88,57.27,-83.43,-171.13
52.203125,-2.197779,120.92,6.39,2,252.18,23 / 23,13207410,2020-01-08 15:55:31:004,1.4745,-1.8924,9.2818,0.0367,-0.0231,9.8065,-0.0637,0.0264,0.0484,11.75,-33.37,13.81,59.82,-83.36,-171.31
52.203125,-2.197779,120.92,6.39,2,252.18,23 / 23,13207510,2020-01-08 15:55:31:104,-0.5646,0.5958,9.6836,0.0115,0.0029,9.8066,-0.0494,0.1944,0.0064,12.13,-33.06,13.81,56.88,-83.38,-173.89
52.203125,-2.197779,120.92,6.39,2,252.18,23 / 23,13207609,2020-01-08 15:55:31:203,2.7398,-1.0808,8.9541,0.014,-0.0022,9.8066,-0.0705,0.2216,-0.2154,11.94,-33.31,14,55.58,-83.2,-175.33
52.203125,-2.197779,120.92,6.39,2,252.18,23 / 23,13207710,2020-01-08 15:55:31:304,1.5105,0.854,9.8091,0.0249,-0.0071,9.8066,-0.0083,-0.1639,0.0424,12,-33.19,13.81,56.17,-83.19,-174.83
52.203125,-2.197779,120.92,6.39,2,252.18,23 / 23,13207810,2020-01-08 15:55:31:404,0.8907,-0.4748,9.4724,-0.0093,0.0083,9.8066,0.0162,0.0582,-0.031,12.63,-33.5,14.06,58.14,-83.23,-174.92
52.203125,-2.197779,120.92,6.39,2,252.18,23 / 23,13207910,2020-01-08 15:55:31:504,-0.3217,1.1642,10.2687,0.0254,-0.0192,9.8065,0.0512,0.0651,-0.0564,12.31,-33.31,14,55.07,-83.26,-175.69
52.203125,-2.197779,120.92,6.39,2,252.18,23 / 23,13208011,2020-01-08 15:55:31:605,1.7842,-1.3361,10.6138,0.0068,-0.0307,9.8066,-0.0344,0.1938,-0.1578,12.25,-33.25,13.69,56.35,-83.25,-174.57
52.203125,-2.197779,120.92,6.39,2,252.18,23 / 23,13208110,2020-01-08 15:55:31:704,-0.2877,0.245,11.1374,0.0187,-0.0217,9.8065,0.1792,0.0296,-0.1082,12.31,-33.12,12.88,58.08,-83.31,-175.49
52.203125,-2.197779,120.92,6.39,2,252.18,23 / 23,13208210,2020-01-08 15:55:31:804,-0.2793,-1.2396,10.5461,-0.0237,-0.0572,9.8064,0.1323,0.0444,-0.0999,12.88,-32.75,14.06,57.12,-83.12,-176.01
52.203125,-2.197779,120.92,6.39,2,252.18,23 / 23,13208310,2020-01-08 15:55:31:904,-0.0398,-0.2061,8.8263,-0.0251,-0.0404,9.8064,0.0458,0.0535,-0.0887,13.5,-33,13.38,61.81,-83.08,-176.11
52.203125,-2.197779,120.92,6.39,2,252.18,23 / 23,13208410,2020-01-08 15:55:32:004,0.4309,-0.4484,10.6868,0.0192,0.0033,9.8065,0.0304,-0.0388,0.0768,13.31,-32.31,13.06,59.6,-83.15,-175.95
52.203125,-2.197779,120.92,6.39,2,252.18,23 / 23,13208510,2020-01-08 15:55:32:104,1.4937,-0.4255,10.1135,-0.0311,0.0195,9.8065,-0.0435,-0.0519,0.1574,12.44,-32.69,12.88,58.33,-83.17,-175.51
52.203125,-2.197779,120.92,6.39,2,252.18,23 / 23,13208610,2020-01-08 15:55:32:204,0.9958,1.1242,9.8015,-0.0018,0.0219,9.8065,-0.0056,-0.0486,0.0384,12.63,-32.37,13.19,60.19,-83.26,-175.25
52.203125,-2.197779,120.92,6.39,2,252.18,23 / 23,13208709,2020-01-08 15:55:32:303,-0.6174,0.1102,9.6249,-0.0301,-0.0136,9.8066,0.051,0.0503,0.088,12.56,-32.69,13.25,62.26,-83.15,-173.9
52.203125,-2.197779,120.92,6.39,2,252.18,23 / 23,13208810,2020-01-08 15:55:32:404,-0.4158,-2.2474,10.1717,0.0003,-0.0105,9.8066,0.0246,0.1567,-0.1742,12.06,-32.5,13.19,60.24,-83.21,-173.39
52.203125,-2.197779,120.92,6.39,2,252.18,23 / 23,13208910,2020-01-08 15:55:32:504,0.1313,0.2394,9.5642,0.0155,-0.0372,9.8065,0.0599,-0.016,-0.0086,11.63,-32.75,14.25,56.4,-83.34,-174.39
52.203125,-2.197779,120.92,6.39,2,252.18,23 / 23,13209010,2020-01-08 15:55:32:604,0.5994,-1.649,9.3847,-0.0115,-0.0205,9.8065,0.0711,0.1603,-0.1193,11.63,-32.87,13.88,56.86,-83.32,-174
52.203125,-2.197779,120.92,6.39,2,252.18,23 / 23,13209110,2020-01-08 15:55:32:704,-1.2484,0.5249,10.3068,0.0057,-0.01,9.8066,0.1492,-0.0244,-0.0006,11.56,-32.62,13.88,56.72,-83.17,-174.38
52.203125,-2.197779,120.92,6.39,2,252.18,23 / 23,13209209,2020-01-08 15:55:32:803,-0.009,-0.5207,10.1541,-0.013,-0.0274,9.8065,-0.0362,0.0425,-0.1051,12.06,-33.25,14,57.39,-83.05,-173.96
52.203125,-2.197779,120.92,6.39,2,252.18,23 / 23,13209310,2020-01-08 15:55:32:904,-0.1822,-0.5153,10.4999,0.0238,0.0081,9.8066,0.0948,0.0635,-0.0522,12.56,-32.81,14.19,59.14,-83.04,-174.33
52.203125,-2.197779,120.92,6.39,2,252.18,23 / 23,13209410,2020-01-08 15:55:33:004,0.4293,-1.0642,9.8383,-0.0093,-0.0266,9.8065,0.0431,0.1042,-0.1204,13.75,-32.62,14,60.03,-82.88,-175.54
52.203125,-2.197779,120.92,6.39,2,252.18,23 / 23,13209510,2020-01-08 15:55:33:104,-1.1992,0.1291,10.177,0.0232,-0.0172,9.8066,-0.0607,0.055,-0.1255,12.94,-32.81,13.38,60.09,-83.06,-175.99
52.203125,-2.197779,120.92,6.39,2,252.18,23 / 23,13209610,2020-01-08 15:55:33:204,0.88,-0.4721,9.9149,0.021,0.0111,9.8066,-0.0859,0.0238,0.0631,13,-32.81,13.25,60.15,-82.96,-176.1
52.203125,-2.197779,120.92,6.39,2,252.18,23 / 23,13209710,2020-01-08 15:55:33:304,0.2995,-1.5715,11.1077,0.0029,0.0347,9.8065,-0.0175,-0.2344,0.1865,12,-32.87,13.19,57.95,-83.01,-176.1
52.203125,-2.197779,120.92,6.39,2,252.18,23 / 23,13209810,2020-01-08 15:55:33:404,-1.5454,1.1648,9.6619,-0.0225,0.0306,9.8065,-0.1302,-0.1766,0.1293,12,-32.87,13.44,57.17,-82.91,-176.97
52.203125,-2.197779,120.92,6.39,2,252.18,23 / 23,13209910,2020-01-08 15:55:33:504,-0.939,-1.2285,10.3369,0.0034,0.023,9.8066,0.074,-0.0783,0.0147,12.25,-31.94,13.88,55.91,-82.92,-175.16
52.203125,-2.197779,120.92,6.39,2,252.18,23 / 23,13210010,2020-01-08 15:55:33:604,-0.1252,0.7087,10.1503,-0.0234,0.0027,9.8065,0.0117,-0.1055,0.1103,13.19,-32.75,14.25,58.25,-82.76,-175.56
52.203125,-2.197779,120.92,6.39,2,252.18,23 / 23,13210110,2020-01-08 15:55:33:704,0.8271,-0.2252,9.3462,-0.0099,0.0012,9.8066,0.0747,-0.0447,0.0968,13,-32.56,14.31,58.03,-82.75,-175.77
52.203125,-2.197779,120.92,6.39,2,252.18,23 / 23,13210210,2020-01-08 15:55:33:804,0.1516,0.0823,9.0376,-0.0246,-0.0111,9.8066,0.0503,-0.0434,-0.0352,13.13,-32.06,12.94,60.94,-82.77,-175.37
52.203125,-2.197779,120.92,6.39,2,252.18,23 / 23,13210311,2020-01-08 15:55:33:905,-0.0365,0.3837,9.6424,-0.0019,-0.0022,9.8066,0.0168,-0.0209,-0.0323,13.63,-32.94,13.44,64.37,-82.66,-174.5
52.203125,-2.197779,120.92,6.39,2,252.18,23 / 23,13210410,2020-01-08 15:55:34:004,-0.0038,-0.2092,9.7851,0.0092,-0.0145,9.8066,-0.0462,-0.1436,0.0249,12.44,-33.25,13.5,57.67,-82.72,-174.26
52.203125,-2.197779,120.92,6.39,2,252.18,23 / 23,13210509,2020-01-08 15:55:34:103,0.9747,-1.8534,10.3237,0.0052,0.0303,9.8066,0.0416,0.0976,-0.1038,13.19,-33.56,13.31,63.02,-82.78,-174.2
52.203125,-2.197779,120.92,6.39,2,252.18,23 / 23,13210610,2020-01-08 15:55:34:204,0.4123,1.4068,9.7151,0.0003,-0.0092,9.8065,-0.0469,-0.0969,0.0881,12.44,-33.31,12.69,60.56,-82.8,-174.17
52.203125,-2.197779,120.92,6.39,2,252.18,23 / 23,13210709,2020-01-08 15:55:34:303,-0.1872,2.0946,10.4664,0.0024,0.0306,9.8065,-0.0698,0.0913,-0.0853,12.81,-33.56,13,64.82,-82.93,-172.3
52.203125,-2.197779,120.92,6.39,2,252.18,23 / 23,13210811,2020-01-08 15:55:34:405,-1.3335,1.1863,10.1405,0.0221,-0.0122,9.8066,0.1182,-0.0993,0.077,12.25,-33.81,12.38,66.45,-82.96,-171.79
52.203125,-2.197779,120.92,6.39,2,252.18,23 / 23,13210910,2020-01-08 15:55:34:504,0.2512,-0.7274,10.101,-0.0128,0.0154,9.8066,0.0373,-0.0262,-0.1175,11.69,-32.81,12.81,61.9,-82.86,-172.88
52.203125,-2.197779,120.92,6.39,2,252.18,23 / 23,13211010,2020-01-08 15:55:34:604,1.1303,-0.3857,9.2873,0.0107,-0.0079,9.8066,-0.0353,-0.0563,-0.0688,12.19,-34.06,12.19,64.7,-82.83,-173.63
52.203125,-2.197779,120.92,6.39,2,252.18,23 / 23,13211110,2020-01-08 15:55:34:704,0.9027,-0.9451,9.5783,0.01,0.0005,9.8066,-0.0559,0.1489,-0.1542,11.88,-33.12,12,64.24,-82.8,-173.7
52.203125,-2.197779,120.92,6.39,2,252.18,23 / 23,13211216,2020-01-08 15:55:34:810,0.7799,1.4981,9.691,0.0036,-0.0064,9.8066,-0.0069,-0.0607,0.048,12,-33.12,12.25,63.85,-82.83,-173.99
52.203125,-2.197779,120.92,6.39,2,252.18,24 / 24,13211310,2020-01-08 15:55:34:904,0.6229,-0.6241,10.6992,-0.0129,0.0051,9.8066,0.0092,-0.0324,-0.0735,10.94,-33.06,11.31,65.19,-82.91,-173.82
52.203125,-2.197779,120.92,6.39,2,252.18,24 / 24,13211410,2020-01-08 15:55:35:004,-0.0767,0.728,9.4816,0.0023,-0.0455,9.8065,-0.1073,-0.1512,0.1496,10.94,-32.81,12.94,57.78,-82.84,-174.51
52.203125,-2.197779,120.92,6.39,2,252.18,24 / 24,13211512,2020-01-08 15:55:35:106,0.1494,-0.9002,10.3443,-0.0016,-0.0099,9.8066,0.0123,-0.0534,-0.0701,11.06,-33,12,60.6,-82.92,-174.75
52.203125,-2.197779,120.92,6.39,2,252.18,24 / 24,13211610,2020-01-08 15:55:35:204,-1.1787,0.4419,9.8861,0.0222,-0.0269,9.8065,-0.0405,-0.1766,0.117,11.38,-32,12.63,54.71,-83.02,-176.53
52.203125,-2.197779,120.92,6.39,2,252.18,24 / 24,13211709,2020-01-08 15:55:35:303,-0.0344,-0.6255,10.5361,-0.013,-0.0135,9.8066,0.0008,0.0474,0.0096,12.63,-32.06,14,56.94,-82.96,-176.09
52.203125,-2.197779,120.92,6.39,2,252.18,24 / 24,13211810,2020-01-08 15:55:35:404,-0.6878,0.3709,10.1648,-0.0159,-0.0137,9.8066,-0.0551,-0.1323,0.0641,13.63,-31.25,13.5,59.07,-82.81,-175.86
52.203125,-2.197779,120.92,6.39,2,252.18,24 / 24,13211910,2020-01-08 15:55:35:504,1.218,-1.5277,9.3168,-0.0231,-0.0251,9.8065,-0.1043,-0.0932,0.1127,14.19,-31.62,13.06,63.81,-82.74,-174.52
52.203125,-2.197779,120.92,6.39,2,252.18,24 / 24,13212010,2020-01-08 15:55:35:604,0.3916,1.3097,8.7763,0.0316,-0.0103,9.8065,-0.0768,-0.2038,0.1047,13.81,-31.81,12.63,64.32,-82.74,-174.06
52.203125,-2.197779,120.92,6.39,2,252.18,24 / 24,13212110,2020-01-08 15:55:35:704,1.3099,-2.2762,9.5191,-0.0142,-0.0141,9.8065,-0.1029,-0.0164,-0.077,13.88,-32,12.19,66.37,-82.83,-174.72
52.203125,-2.197779,120.92,6.39,2,252.18,24 / 24,13212210,2020-01-08 15:55:35:804,-0.0313,2.349,10.1718,0.0116,-0.0384,9.8066,-0.0104,-0.1838,0.2845,14.31,-31.75,12.06,65.41,-82.91,-175.46
52.20298,-2.198836,121.15,7.15,2,261.22,23 / 23,13212310,2020-01-08 15:55:35:904,0.8653,-0.8848,9.8557,0.0054,-0.0156,9.8066,-0.0857,-0.0368,0.131,13.75,-31.81,11.69,68.89,-82.89,-172.31
52.20298,-2.198836,121.15,7.15,2,261.22,23 / 23,13212410,2020-01-08 15:55:36:004,-2.6429,1.0064,10.1855,0.0047,-0.0069,9.8066,0.0404,-0.2337,0.1163,13.13,-32.25,10.81,70.97,-82.92,-171.66
52.20298,-2.198836,121.15,7.15,2,261.22,23 / 23,13212510,2020-01-08 15:55:36:104,0.1107,-2.0119,9.61,0.0091,0.003,9.8066,0.01,0.0818,-0.079,12.38,-32.37,10.25,73.56,-82.68,-171.37
52.20298,-2.198836,121.15,7.15,2,261.22,23 / 23,13212609,2020-01-08 15:55:36:203,1.796,0.0878,9.5171,0.0368,-0.017,9.8065,-0.016,-0.3033,0.1038,11.88,-32.25,10.5,68.35,-82.92,-172.4
52.20298,-2.198836,121.15,7.15,2,261.22,23 / 23,13212710,2020-01-08 15:55:36:304,-1.0917,-3.6238,9.9572,-0.0226,-0.0088,9.8066,0.0685,0.1322,-0.0785,11.81,-32.37,11.31,68.75,-82.72,-172.42
52.20298,-2.198836,121.15,7.15,2,261.22,23 / 23,13212810,2020-01-08 15:55:36:404,-0.5212,1.6078,10.1321,0.0009,-0.0488,9.8065,-0.0144,-0.1761,0.2048,11.19,-32.81,11.63,62.98,-82.51,-173.44
52.20298,-2.198836,121.15,7.15,2,261.22,23 / 23,13212910,2020-01-08 15:55:36:504,1.9258,-0.7974,9.3569,0.0463,-0.0003,9.8064,-0.0381,-0.1248,0.0979,11.69,-32.87,12.25,67.08,-82.59,-171.53
52.20298,-2.198836,121.15,7.15,2,261.22,23 / 23,13213010,2020-01-08 15:55:36:604,-1.3036,-0.6916,9.2404,0.0203,-0.0032,9.8066,0.0723,-0.0518,0.0679,12.5,-33.25,12.06,68.5,-83.02,-171.2
52.20298,-2.198836,121.15,7.15,2,261.22,23 / 23,13213110,2020-01-08 15:55:36:704,0.247,0.8714,9.3698,0.0069,0.0162,9.8066,0.0223,0.0681,-0.0582,12.19,-33,12.44,67.06,-82.77,-171.21
52.20298,-2.198836,121.15,7.15,2,261.22,23 / 23,13213211,2020-01-08 15:55:36:805,0.48,-1.3945,10.1697,0.0195,0.0276,9.8065,0.054,0.0624,-0.1149,11.63,-32.69,11.69,66.89,-83.04,-170.86
52.20298,-2.198836,121.15,7.15,2,261.22,23 / 23,13213310,2020-01-08 15:55:36:904,-1.2528,1.5969,8.9621,0.0051,0.0386,9.8065,0.0681,0.2247,-0.2154,11.44,-32.31,11.69,63.31,-82.87,-172.05
52.20298,-2.198836,121.15,7.15,2,261.22,23 / 23,13213410,2020-01-08 15:55:37:004,-4.0173,-0.0006,10.225,0.0129,0.0162,9.8065,0.0788,0.0247,-0.1319,12.44,-32.69,11.5,65.04,-83.09,-172.44
52.20298,-2.198836,121.15,7.15,2,261.22,23 / 23,13213509,2020-01-08 15:55:37:103,-1.6855,-0.775,9.9307,0.0096,0.0241,9.8065,0.0097,0.3467,-0.1958,11.88,-32.94,12.38,63.48,-83.17,-173.69
52.20298,-2.198836,121.15,7.15,2,261.22,23 / 23,13213610,2020-01-08 15:55:37:204,-1.0214,-4.2323,11.319,-0.021,0.0043,9.8066,0.1058,0.2806,-0.1322,12.44,-33.25,12.5,59.71,-83.02,-174.54
52.20298,-2.198836,121.15,7.15,2,261.22,23 / 23,13213710,2020-01-08 15:55:37:304,-3.0545,-0.8763,10.2692,0.0016,0.05,9.8065,0.1958,0.2133,-0.1039,11.75,-33.44,12.19,62.86,-82.97,-174.61
52.20298,-2.198836,121.15,7.15,2,261.22,23 / 23,13213810,2020-01-08 15:55:37:404,1.0358,0.297,8.9691,-0.0175,0.0419,9.8065,0.0378,0.1849,-0.2122,12.63,-33.5,13.06,63.96,-82.87,-172.84
52.20298,-2.198836,121.15,7.15,2,261.22,23 / 23,13213910,2020-01-08 15:55:37:504,1.0764,0.4841,9.1668,-0.0043,0.0184,9.8066,0.0164,0.0648,-0.1565,12.81,-33.06,12.25,64.7,-82.92,-174.83
52.20298,-2.198836,121.15,7.15,2,261.22,23 / 23,13214009,2020-01-08 15:55:37:603,0.7975,0.1203,10.5128,0.0441,0.0139,9.8065,0.039,-0.0021,0.0661,12.81,-32.87,11.88,63.6,-83.18,-175.37
52.20298,-2.198836,121.15,7.15,2,261.22,23 / 23,13214110,2020-01-08 15:55:37:704,-0.3453,0.2884,8.6557,0.0239,0.0068,9.8065,-0.0009,0.0689,0.0632,12.5,-33.25,11.81,64.03,-83.38,-174.62
52.20298,-2.198836,121.15,7.15,2,261.22,23 / 23,13214210,2020-01-08 15:55:37:804,-0.1699,-2.8206,10.5538,0.0399,0.065,9.8063,0.1265,0.1813,-0.166,12.25,-33.06,11.75,63.08,-83.59,-173.28
52.20298,-2.198836,121.15,7.15,2,261.22,23 / 23,13214310,2020-01-08 15:55:37:904,-2.3917,0.3026,9.4743,-0.01,0.0029,9.8066,0.0037,0.1295,-0.0162,12.75,-33.5,11.13,66.64,-83.32,-175.28
52.20298,-2.198836,121.15,7.15,2,261.22,23 / 23,13214410,2020-01-08 15:55:38:004,3.1998,-2.6637,9.8503,-0.004,-0.0203,9.8065,0.0997,0.3602,-0.3139,12.06,-33.19,11.69,59.49,-83.35,-176.93
52.20298,-2.198836,121.15,7.15,2,261.22,23 / 23,13214509,2020-01-08 15:55:38:103,0.8351,3.616,8.5567,-0.0286,-0.0746,9.8062,0.0766,-0.1763,0.1371,11.88,-33,10.63,63.21,-83.18,-176.92
52.20298,-2.198836,121.15,7.15,2,261.22,23 / 23,13214610,2020-01-08 15:55:38:204,-1.1955,-0.4646,10.6464,-0.0247,0.0443,9.8065,0.0769,0.369,-0.0739,11.75,-33.06,11.56,62.04,-83.05,-175.21
52.20298,-2.198836,121.15,7.15,2,261.22,23 / 23,13214711,2020-01-08 15:55:38:305,0.1377,1.7377,8.1441,-0.0002,-0.0516,9.8064,-0.0503,-0.259,0.0521,11.13,-33.87,11.94,62.71,-83.27,-172.6
52.20298,-2.198836,121.15,7.15,2,261.22,23 / 23,13214810,2020-01-08 15:55:38:404,-0.6554,2.6845,11.8066,0.0289,0.0083,9.8066,0.2439,-0.2776,0.1518,11.25,-33.81,12.13,66.19,-83.34,-169.34
52.20298,-2.198836,121.15,7.15,2,261.22,23 / 23,13214909,2020-01-08 15:55:38:503,2.9389,0.636,9.9709,-0.0502,0.0141,9.8064,-0.2135,0.1743,0.1193,11.81,-33.25,13,64.28,-83.42,-169.73
52.20298,-2.198836,121.15,7.15,2,261.22,23 / 23,13215009,2020-01-08 15:55:38:603,-3.1161,4.3018,10.4823,0.0492,0.0078,9.8064,-0.086,-0.454,-0.0559,12.69,-32.37,13.38,62.02,-83.76,-172.79
52.20298,-2.198836,121.15,7.15,2,261.22,23 / 23,13215109,2020-01-08 15:55:38:703,1.3709,-3.662,11.0735,-0.0005,0.0449,9.8065,-0.2361,0.6139,-0.5999,13.44,-32.5,13.56,62.02,-83.45,-170.78
52.20298,-2.198836,121.15,7.15,2,261.22,23 / 23,13215210,2020-01-08 15:55:38:804,2.8621,-3.4453,8.3376,0.078,-0.0196,9.8063,-0.2135,0.0108,0.2414,13.5,-31.94,13.19,65.1,-83.4,-172.28
52.20298,-2.198836,121.15,7.15,2,261.22,23 / 23,13215310,2020-01-08 15:55:38:904,1.9179,-4.4982,10.778,0.0327,0.0508,9.8064,-0.048,0.7671,-0.3959,13.38,-32.12,12.5,59.98,-83.8,-174.57
52.20298,-2.198836,121.15,7.15,2,261.22,23 / 23,13215410,2020-01-08 15:55:39:004,2.9134,-1.6285,7.772,0.0719,-0.059,9.8061,-0.2002,0.3148,-0.1794,12.88,-33.56,11.75,64.98,-83.65,-173.6
52.20298,-2.198836,121.15,7.15,2,261.22,23 / 23,13215509,2020-01-08 15:55:39:103,-1.1625,2.6567,10.7199,0.0503,0.0346,9.8064,0.0049,0.4672,-0.2599,12.69,-33.37,12.25,62.08,-83.88,-175.52
52.20298,-2.198836,121.15,7.15,2,261.22,23 / 23,13215610,2020-01-08 15:55:39:204,2.0997,1.5697,8.5163,0.0236,-0.0287,9.8065,-0.1591,0.2979,-0.1215,12.63,-33.31,12.5,58,-83.88,-176.54
52.20298,-2.198836,121.15,7.15,2,261.22,23 / 23,13215710,2020-01-08 15:55:39:304,-0.9501,1.605,10.8416,0.0311,-0.0057,9.8065,0.1721,0.4057,-0.2389,12.13,-33.94,12.5,57.6,-84.02,-175.02
52.20298,-2.198836,121.15,7.15,2,261.22,23 / 23,13215809,2020-01-08 15:55:39:403,2.1791,-2.3294,9.7672,0.0136,-0.0584,9.8064,-0.0486,0.2954,-0.2143,12.19,-34,12.19,62.13,-83.84,-174.01
52.20298,-2.198836,121.15,7.15,2,261.22,23 / 23,13215910,2020-01-08 15:55:39:504,1.3888,-1.2689,10.7611,0.0273,0.0138,9.8065,0.0593,0.2447,-0.1905,12.75,-33.44,12.63,59.39,-83.89,-175.26
52.20298,-2.198836,121.15,7.15,2,261.22,23 / 23,13216010,2020-01-08 15:55:39:604,2.8938,0.7952,8.4721,0.0231,-0.0264,9.8065,-0.1448,0.1116,-0.0501,12.69,-33.56,12.88,60.69,-83.79,-174.54
52.20298,-2.198836,121.15,7.15,2,261.22,23 / 23,13216110,2020-01-08 15:55:39:704,2.808,4.3769,8.9971,0.0377,0.0036,9.8065,0.1494,0.2541,-0.2772,12.5,-33.94,13.31,58.64,-84.06,-175.94
52.20298,-2.198836,121.15,7.15,2,261.22,23 / 23,13216210,2020-01-08 15:55:39:804,5.9109,3.159,9.3241,0.012,-0.088,9.8061,0.0626,0.222,-0.1718,12.5,-33.06,13.44,52.08,-83.98,178.36
52.20298,-2.198836,121.15,7.15,2,261.22,22 / 23,13216309,2020-01-08 15:55:39:903,5.2672,1.6377,10.1463,0.0205,-0.0401,9.8065,0.126,0.257,-0.1633,13.38,-32.62,13.88,45.02,-83.97,174.59
52.20298,-2.198836,121.15,7.15,2,261.22,22 / 23,13216410,2020-01-08 15:55:40:004,6.4294,0.127,9.8858,0.0069,-0.0304,9.8065,-0.0257,0.2289,-0.0874,13.19,-32.75,14.19,41.41,-83.85,171.32
52.20298,-2.198836,121.15,7.15,2,261.22,22 / 23,13216510,2020-01-08 15:55:40:104,5.4154,2.4615,9.6869,-0.0081,-0.0014,9.8065,0.023,0.1273,0.0241,12.88,-32.75,15.63,36.03,-83.74,170.87
52.20298,-2.198836,121.15,7.15,2,261.22,22 / 23,13216610,2020-01-08 15:55:40:204,4.3249,2.3978,10.0784,-0.0122,0.0079,9.8066,0.0411,0.1483,0.0538,12.81,-32.56,15.75,36.18,-83.8,171.06
52.20298,-2.198836,121.15,7.15,2,261.22,22 / 23,13216709,2020-01-08 15:55:40:303,5.7769,0.462,9.3645,-0.0069,-0.0002,9.8066,0.0066,0.3434,0.0022,12.13,-31.87,17.63,29.02,-83.73,170.68
52.20298,-2.198836,121.15,7.15,2,261.22,22 / 23,13216810,2020-01-08 15:55:40:404,3.3653,1.0108,10.4512,-0.0022,-0.0087,9.8066,0.0844,0.1952,0.0302,11.88,-32,17.25,30.79,-83.57,170.35
52.20298,-2.198836,121.15,7.15,2,261.22,22 / 23,13216910,2020-01-08 15:55:40:504,5.588,0.5875,9.2589,-0.0407,0.0158,9.8065,-0.0864,0.4803,0.0558,12.44,-33.06,18,31.41,-83.54,172.42
