GPS LATITUDE (degrees), GPS LONGITUDE (degrees), GPS ALTITUDE (m), GPS SPEED (Kmh), GPS ACCURACY (m), GPS ORIENTATION (Â°),GPS SATELLITES IN RANGE, TIME SINCE START (ms), DATE (YYYY-MO-DD HH-MI-SS_SSS), ACCELEROMETER X (m/s²) , ACCELEROMETER Y (m/s²), ACCELEROMETER Z (m/s²), GRAVITY X (m/s²), GRAVITY Y (m/s²), GRAVITY Z (m/s²), GYROSCOPE Yaw (rad/s), GYROSCOPE Pitch (rad/s), GYROSCOPE Roll (rad/s), MAGNETIC FIELD X (Î¼T), MAGNETIC FIELD Y (Î¼T), MAGNETIC FIELD Z (Î¼T), ORIENTATION (Yaw) (Â°), ORIENTATION (Pitch) (Â°), ORIENTATION (Roll ) (Â°)
52.554695,-1.463064,0,0,6,0,18 / 18,19,2020-01-08 09:37:55:816,1.5088,-0.76,9.3677,-0.0022,-0.0059,9.8066,0.0437,-0.0737,0.0456,4.75,-29.56,29.44,92.38,-80.48,-106.77
52.554695,-1.463064,0,0,6,0,18 / 18,119,2020-01-08 09:37:55:916,1.9285,-1.2943,9.7165,-0.0134,-0.0102,9.8066,0.0278,0.0192,-0.042,4.81,-29.94,29.56,92.31,-80.58,-106.53
52.554695,-1.463064,0,0,6,0,18 / 18,219,2020-01-08 09:37:56:016,1.329,-0.7095,9.585,-0.0021,0.0113,9.8065,0.0122,0.0617,0.0223,3.63,-29.75,29.44,91.18,-80.52,-106.51
52.554695,-1.463064,0,0,6,0,18 / 18,319,2020-01-08 09:37:56:116,2.118,-0.4063,9.1575,0.0031,0.0075,9.8065,-0.0602,0.0407,-0.0348,4.38,-30.19,30.13,90.22,-80.59,-106.82
52.554695,-1.463064,0,0,6,0,18 / 18,419,2020-01-08 09:37:56:216,1.3657,-0.4555,9.9112,0.0098,0.0065,9.8066,0.0011,0.0159,-0.007,4.56,-30.06,29.81,92.16,-80.63,-106.63
52.554695,-1.463064,0,0,6,0,18 / 18,519,2020-01-08 09:37:56:316,1.5728,-0.2986,9.5436,0.0023,0.0037,9.8066,-0.0417,0.0198,-0.0077,4.13,-29.56,29.19,90.78,-80.65,-106.77
52.554695,-1.463064,0,0,6,0,18 / 18,618,2020-01-08 09:37:56:415,1.732,-1.0419,9.6845,0.006,0.0039,9.8066,-0.0111,-0.003,0.0272,4.63,-30.06,29.69,91.99,-80.7,-106.74
52.554695,-1.463064,0,0,6,0,18 / 18,718,2020-01-08 09:37:56:515,1.7075,-0.6559,9.5573,-0.0022,0.0015,9.8066,-0.0123,-0.0001,-0.007,4.81,-29.81,28.81,92.48,-80.73,-106.84
52.554695,-1.463064,0,0,6,0,18 / 18,818,2020-01-08 09:37:56:615,1.6889,-0.4198,9.765,0.0075,0.0001,9.8066,-0.0033,-0.0193,-0.0074,3.94,-29.62,29.38,90.46,-80.79,-106.95
52.554695,-1.463064,0,0,6,0,18 / 18,919,2020-01-08 09:37:56:716,1.264,-0.6713,9.6836,-0.002,0.0015,9.8066,-0.0096,-0.0229,0.0329,4.63,-29.62,29.38,92.12,-80.82,-107.11
52.554695,-1.463064,0,0,6,0,18 / 18,1020,2020-01-08 09:37:56:817,1.4026,-0.898,9.7782,0.0044,-0.0009,9.8066,0.002,-0.0255,0.0302,4.56,-29.37,29.56,91.02,-80.9,-107.21
52.554695,-1.463064,0,0,6,0,18 / 18,1119,2020-01-08 09:37:56:916,1.3243,-0.7266,9.6959,0.0049,-0.0008,9.8066,-0.0102,-0.0281,0.0008,4.25,-30,29.19,90.02,-80.94,-107.24
52.554695,-1.463064,0,0,6,0,18 / 18,1219,2020-01-08 09:37:57:016,1.9925,-0.51,9.565,-0.0019,-0.0017,9.8066,0.0022,-0.0264,0.0454,4.5,-29.44,28.88,91.25,-81,-107.49
52.554695,-1.463064,0,0,6,0,18 / 18,1318,2020-01-08 09:37:57:115,1.3341,-0.2204,9.6792,0.0006,-0.0022,9.8065,-0.0053,-0.0411,-0.0128,4.44,-30.06,29.56,88.78,-81.12,-107.74
52.554695,-1.463064,0,0,6,0,18 / 18,1419,2020-01-08 09:37:57:216,1.7183,-0.9742,9.6222,0.0061,-0.0037,9.8066,-0.009,-0.0214,-0.0099,4.06,-29.81,29.31,88.93,-81.2,-108.07
52.554695,-1.463064,0,0,6,0,18 / 18,1518,2020-01-08 09:37:57:315,1.0838,-0.7371,9.783,-0.0002,-0.0007,9.8066,-0.0045,-0.0373,0.0441,4.44,-29.69,29.31,88.5,-81.31,-108.37
52.554695,-1.463064,0,0,6,0,18 / 18,1619,2020-01-08 09:37:57:416,1.7288,-0.398,9.7299,0.0081,-0.0051,9.8066,-0.0116,-0.0158,0.0091,4.38,-29.37,29.5,87.13,-81.44,-108.78
52.554695,-1.463064,0,0,6,0,18 / 18,1719,2020-01-08 09:37:57:516,1.3698,-0.2186,9.6733,0.0076,-0.0026,9.8066,0.006,0.0116,-0.0056,4.56,-29.5,29,89.13,-81.55,-109.08
52.554695,-1.463064,0,0,6,0,18 / 18,1820,2020-01-08 09:37:57:617,1.5617,-0.2987,9.7329,0.0055,-0.0046,9.8066,-0.0033,0.0156,-0.0148,4.06,-29.81,28.75,86.88,-81.69,-109.6
52.554695,-1.463064,0,0,6,0,18 / 18,1918,2020-01-08 09:37:57:715,1.4198,-0.4528,9.6247,0.0063,-0.0012,9.8066,0.0022,0.001,-0.0282,4.38,-30.12,29.69,85.65,-81.85,-110.12
52.554695,-1.463064,0,0,6,0,18 / 18,2019,2020-01-08 09:37:57:816,1.359,-0.4604,9.7385,0.0086,-0.0054,9.8066,0.0026,0.0064,0.0071,4.56,-29.56,29.38,87.8,-81.93,-110.31
52.554695,-1.463064,0,0,6,0,18 / 18,2119,2020-01-08 09:37:57:916,0.9786,-0.6094,9.7637,0.0093,-0.0021,9.8065,0.0193,0.0093,0.0114,4.69,-29.31,29.25,86.79,-82.06,-110.91
52.554695,-1.463064,0,0,6,0,18 / 18,2218,2020-01-08 09:37:58:015,1.5098,-0.8196,9.7261,0.0006,-0.0017,9.8066,-0.0011,0.0075,-0.0357,4.13,-29.31,29.13,84.24,-82.19,-111.43
52.554695,-1.463064,0,0,6,0,18 / 18,2319,2020-01-08 09:37:58:116,1.2134,-0.6936,9.6905,0.0076,-0.0011,9.8066,-0.0119,-0.0245,-0.0082,4.63,-30.12,29.81,85.25,-82.31,-111.89
52.554695,-1.463064,0,0,6,0,18 / 18,2419,2020-01-08 09:37:58:216,1.4021,-0.1718,9.8005,0.0052,-0.0027,9.8066,-0.009,0.009,0.0022,4.44,-29.75,29.19,83.38,-82.41,-112.32
52.554695,-1.463064,0,0,6,0,18 / 18,2519,2020-01-08 09:37:58:316,1.3103,-0.2519,9.6518,0.0048,-0.0004,9.8066,-0.0075,-0.039,0.0154,4.56,-29.31,29.63,83.79,-82.55,-112.84
52.554695,-1.463064,0,0,6,0,18 / 18,2619,2020-01-08 09:37:58:416,1.2941,-0.7721,9.8143,0.0066,-0.0034,9.8066,-0.0065,0.0106,0.0032,4.31,-29.44,29.5,81.32,-82.64,-113.37
52.554695,-1.463064,0,0,6,0,18 / 18,2719,2020-01-08 09:37:58:516,1.0586,-0.6387,9.705,0.0089,-0.0008,9.8066,-0.0157,-0.0198,0.0069,4.44,-30.06,29.06,81.67,-82.73,-113.68
52.554695,-1.463064,0,0,6,0,18 / 18,2819,2020-01-08 09:37:58:616,1.3792,-0.3897,9.8202,0.0025,0.0005,9.8065,-0.0224,-0.0019,0.0254,4.63,-29.81,30,82.39,-82.84,-114.19
52.554695,-1.463064,0,0,6,0,18 / 18,2919,2020-01-08 09:37:58:716,1.1053,-0.2299,9.6728,0.0043,-0.0007,9.8066,-0.0041,-0.0179,-0.0101,4.31,-29.19,29.81,79.6,-82.99,-114.73
52.554695,-1.463064,0,0,6,0,18 / 18,3019,2020-01-08 09:37:58:816,1.0983,-0.2095,9.87,0.0088,-0.0019,9.8066,-0.0219,-0.0058,-0.0135,4.56,-29.25,29.69,80.88,-83.07,-115.22
52.554695,-1.463064,0,0,6,0,18 / 18,3119,2020-01-08 09:37:58:916,0.9445,-0.5837,9.8209,0.0107,-0.0034,9.8066,0.0157,0.0029,-0.0317,4.13,-29.37,29.06,79.24,-83.12,-115.43
52.554695,-1.463064,0,0,6,0,18 / 18,3219,2020-01-08 09:37:59:016,1.2578,-0.3526,9.8083,0.0069,-0.0029,9.8066,-0.0096,0.0014,0.0056,4.44,-29.94,28.94,78.45,-83.27,-116.28
52.554695,-1.463064,0,0,6,0,18 / 18,3319,2020-01-08 09:37:59:116,1.1817,-0.1565,9.6786,0.008,-0.0017,9.8065,0.0065,0.009,0.0142,4.31,-29.81,29.75,77.62,-83.34,-116.55
52.554695,-1.463064,0,0,6,0,18 / 18,3419,2020-01-08 09:37:59:216,1.2149,-0.7924,9.8361,0.0036,-0.0016,9.8066,0.0114,0.0068,-0.0238,4.13,-29.62,29.25,77.41,-83.43,-117.14
52.554695,-1.463064,0,0,6,0,18 / 18,3519,2020-01-08 09:37:59:316,0.9529,-0.1596,9.7295,0.0023,-0.0013,9.8065,0.0037,-0.0009,-0.019,4.44,-29.62,29.06,76.69,-83.53,-117.74
52.554695,-1.463064,0,0,6,0,18 / 18,3620,2020-01-08 09:37:59:417,1.0889,-0.1345,9.8097,0.0068,-0.0026,9.8066,0.0071,0.001,-0.0096,4.25,-29.81,29.13,76,-83.61,-118.33
52.554695,-1.463064,0,0,6,0,18 / 18,3719,2020-01-08 09:37:59:516,1.0979,-0.1076,9.6549,0.0042,0.0025,9.8066,-0.0237,-0.0271,0.0221,4.25,-29.5,29.81,74.66,-83.69,-118.89
52.554695,-1.463064,0,0,6,0,18 / 18,3819,2020-01-08 09:37:59:616,1.1088,-0.2841,9.8385,0.0036,-0.0014,9.8066,-0.0186,-0.0045,0.023,4.75,-29.5,30,76.04,-83.77,-119.29
52.554695,-1.463064,0,0,6,0,18 / 18,3919,2020-01-08 09:37:59:716,1.0146,-0.1323,9.7236,0.006,-0.0006,9.8066,-0.0063,-0.0232,-0.0041,4.44,-29.44,29.38,73.85,-83.87,-119.95
52.554695,-1.463064,0,0,6,0,18 / 18,4019,2020-01-08 09:37:59:816,0.9276,-0.0902,9.8562,0.0036,0.0002,9.8066,-0.019,-0.0081,0.0018,4.38,-29.31,29.44,73.32,-83.96,-120.38
52.554695,-1.463064,0,0,6,0,18 / 18,4119,2020-01-08 09:37:59:916,0.692,-0.6043,9.8002,0.0012,0.0038,9.8066,-0.0154,-0.0286,0.0339,4.69,-29.62,29.25,74.69,-84.05,-121.05
52.554695,-1.463064,0,0,6,0,18 / 18,4218,2020-01-08 09:38:00:015,1.1175,-0.3329,9.8376,0.006,-0.0016,9.8066,-0.0119,-0.0188,0.0062,4.13,-29.56,29.75,71.82,-84.12,-121.43
52.554695,-1.463064,0,0,6,0,18 / 18,4319,2020-01-08 09:38:00:116,1.0803,-0.0397,9.6684,0.0072,-0.0012,9.8065,-0.0143,-0.0249,0.0101,5.06,-29.5,29.75,72.76,-84.21,-122.09
52.554695,-1.463064,0,0,6,0,18 / 18,4419,2020-01-08 09:38:00:216,1.0319,-0.0974,9.9448,-0.0026,0.0023,9.8066,-0.0502,-0.0124,0.0288,4.63,-30.19,29.31,72.76,-84.28,-122.7
52.554695,-1.463064,0,0,6,0,18 / 18,4519,2020-01-08 09:38:00:316,0.5652,0.1042,9.8779,-0.0082,0.0079,9.8066,-0.0327,-0.0328,-0.0015,4.25,-29.75,29.25,70.19,-84.42,-123.16
52.554695,-1.463064,0,0,6,0,18 / 18,4619,2020-01-08 09:38:00:416,1.0851,0.0537,9.8718,0.0024,-0.0114,9.8066,-0.0156,-0.0394,-0.0111,4.69,-29.94,29.88,72.26,-84.49,-122.49
52.554695,-1.463064,0,0,6,0,18 / 18,4719,2020-01-08 09:38:00:516,0.8602,-0.5256,9.9115,-0.0047,-0.0058,9.8066,0.0301,-0.0051,0.0131,4.06,-29.75,28.94,69.56,-84.55,-123.63
52.554695,-1.463064,0,0,6,0,18 / 18,4819,2020-01-08 09:38:00:616,1.1701,-0.5527,9.8592,0.0065,-0.01,9.8066,-0.0069,-0.0586,0.0431,4.56,-29.56,29.63,70.38,-84.54,-124.26
52.554695,-1.463064,0,0,6,0,18 / 18,4919,2020-01-08 09:38:00:716,0.6727,0.2078,9.688,0.0048,-0.0038,9.8066,0.0104,0.0254,-0.0261,4.38,-29.5,29.5,66.65,-84.58,-125.82
52.554695,-1.463064,0,0,6,0,18 / 18,5019,2020-01-08 09:38:00:816,0.9459,0.0097,9.9089,0.0092,-0.0091,9.8066,-0.0243,-0.0417,0.0137,4.06,-29.56,29.63,65.68,-84.6,-126.91
52.554695,-1.463064,0,0,6,0,18 / 18,5119,2020-01-08 09:38:00:916,0.6057,0.1923,9.768,-0.0052,0.0001,9.8066,0,-0.0108,0.0125,4.25,-30.37,29.44,65.57,-84.64,-127.4
52.554695,-1.463064,0,0,6,0,18 / 18,5218,2020-01-08 09:38:01:015,0.8412,-0.5488,9.8588,0.0062,-0.0074,9.8066,-0.0134,-0.031,-0.0205,4.25,-29.56,29.56,64.35,-84.66,-128.13
52.554695,-1.463064,0,0,6,0,18 / 18,5319,2020-01-08 09:38:01:116,0.6936,-0.3775,9.686,0.0097,-0.0027,9.8066,-0.0121,0.0151,0.0277,4.5,-29.06,29.38,65.85,-84.71,-128.8
52.554695,-1.463064,0,0,6,0,18 / 18,5419,2020-01-08 09:38:01:216,0.793,-0.6063,9.9545,0.0032,-0.0107,9.8065,-0.0294,-0.0103,-0.0095,4.25,-29.69,29.88,63.36,-84.72,-129.02
52.554695,-1.463064,0,0,6,0,18 / 18,5519,2020-01-08 09:38:01:316,0.8058,-0.5823,9.8431,0.0022,-0.0087,9.8066,0.0037,0.0023,0.0005,4.44,-30.19,30.06,62,-84.74,-130.32
52.554695,-1.463064,0,0,6,0,18 / 18,5618,2020-01-08 09:38:01:415,0.707,0.2095,9.7504,0.0092,-0.002,9.8066,-0.0138,-0.023,0.0206,4.06,-29.31,29.63,61.37,-84.79,-130.72
52.554695,-1.463064,0,0,6,0,18 / 18,5720,2020-01-08 09:38:01:517,0.7579,-0.2635,9.8185,0.0059,-0.004,9.8066,0.0073,0.0054,0.0101,4.38,-29.62,29.56,60.99,-84.85,-131.18
52.554695,-1.463064,0,0,6,0,18 / 18,5818,2020-01-08 09:38:01:615,0.7526,-0.557,9.889,0.0052,0.0069,9.8066,-0.029,-0.0198,-0.0173,4.44,-29.62,29.88,60.82,-84.9,-131.3
52.554695,-1.463064,0,0,6,0,18 / 18,5919,2020-01-08 09:38:01:716,1.1192,-0.0472,9.4644,0.0117,0.0131,9.8066,-0.0419,-0.0008,0.0154,4.56,-29.56,29.31,63.73,-85.09,-130.63
52.554695,-1.463064,0,0,6,0,18 / 18,6019,2020-01-08 09:38:01:816,0.7019,-0.2731,9.9778,0.0066,-0.0172,9.8066,-0.0857,0.0182,0.0475,4.5,-29.37,29.13,64.77,-85.19,-129.39
52.554695,-1.463064,0,0,6,0,18 / 18,6119,2020-01-08 09:38:01:916,0.9866,-0.4683,9.5303,-0.0017,0.0141,9.8065,-0.0123,0.0709,-0.0521,4.44,-29.81,29.44,63.36,-85.27,-128.92
52.554695,-1.463064,0,0,6,0,18 / 18,6219,2020-01-08 09:38:02:016,0.7176,-0.2081,10.1187,-0.0006,0.0025,9.8066,-0.0388,-0.022,-0.0241,4.88,-30.37,29.69,65.35,-85.43,-128.29
52.554695,-1.463064,0,0,6,0,18 / 18,6319,2020-01-08 09:38:02:116,0.9322,-0.3946,9.9163,0.0098,0.01,9.8066,0.0671,0.0503,0.0039,4.56,-29.31,28.81,66.14,-85.53,-127.74
52.554695,-1.463064,0,0,6,0,18 / 18,6418,2020-01-08 09:38:02:215,0.4249,0.4747,10.9666,-0.0002,-0.005,9.8066,-0.1244,0.0485,0.0159,4.38,-29.69,29.69,59.69,-85.25,-132.06
52.554695,-1.463064,0,0,6,0,18 / 18,6519,2020-01-08 09:38:02:316,1.4404,0.5742,9.1191,-0.0031,0.0283,9.8065,0.0177,-0.1039,0.0668,4.44,-29.62,29.88,59.69,-85.25,-132.06
52.554695,-1.463064,0,0,6,0,18 / 18,6619,2020-01-08 09:38:02:416,0.6321,0.0914,9.2266,-0.0152,0.0027,9.8065,-0.0664,0.0032,0.0269,4.56,-29.94,30,59.96,-85.28,-133.62
52.554695,-1.463064,0,0,6,0,18 / 18,6719,2020-01-08 09:38:02:516,1.4,-0.7889,9.9246,0.0004,0.0142,9.8066,-0.0054,-0.115,0.0261,4.13,-29.69,29.69,58.8,-85.25,-132.92
52.554695,-1.463064,0,0,6,0,18 / 18,6819,2020-01-08 09:38:02:616,-0.3716,-0.0596,9.8587,-0.0193,0.0053,9.8066,-0.0242,-0.0472,0.0848,4.5,-30.12,29.19,60.13,-85.28,-133.92
52.554695,-1.463064,0,0,6,0,18 / 18,6919,2020-01-08 09:38:02:716,1.3292,-0.0275,9.7083,-0.0007,0.0029,9.8066,-0.0258,-0.0887,0.0527,4.13,-29.62,29.38,58.37,-85.27,-133.71
52.554695,-1.463064,0,0,6,0,18 / 18,7020,2020-01-08 09:38:02:817,0.2058,-0.2549,9.9024,-0.0072,0.0011,9.8066,0.0118,-0.0481,0.0369,4.5,-29.56,29.63,59.75,-85.28,-133.83
52.554695,-1.463064,0,0,6,0,18 / 18,7118,2020-01-08 09:38:02:915,1.3056,-0.5832,9.81,-0.0078,-0.0005,9.8066,-0.0152,-0.0605,0.0366,4.19,-29.62,29.69,58.08,-85.26,-133.61
52.554695,-1.463064,0,0,6,0,18 / 18,7219,2020-01-08 09:38:03:016,0.7154,0.1495,9.6937,-0.0019,0.0027,9.8066,0.0141,-0.0572,0.0328,4.5,-29.62,29.13,60.14,-85.29,-133.89
52.554695,-1.463064,0,0,6,0,18 / 18,7318,2020-01-08 09:38:03:115,1.157,-0.2407,9.6811,0.0035,0,9.8066,-0.0104,-0.0213,-0.0061,3.75,-29.87,29.63,57.74,-85.29,-133.9
52.554695,-1.463064,0,0,6,0,18 / 18,7419,2020-01-08 09:38:03:216,0.5023,-0.4849,9.8523,0.0106,0.0012,9.8065,0.0114,-0.0283,0.0398,4.69,-29.25,28.94,59.42,-85.34,-134.4
52.554695,-1.463064,0,0,6,0,18 / 18,7519,2020-01-08 09:38:03:316,0.791,-0.4544,9.7671,0.0043,0.0004,9.8066,-0.0037,-0.0049,0.0051,4.44,-29.31,29.56,57.04,-85.34,-134.4
52.554695,-1.463064,0,0,6,0,18 / 18,7619,2020-01-08 09:38:03:416,0.8117,-0.5904,9.8723,0.0054,-0.0028,9.8066,-0.0088,-0.0414,0.0257,4.13,-29.31,30.31,56.26,-85.38,-135.11
52.554695,-1.463064,0,0,6,0,18 / 18,7719,2020-01-08 09:38:03:516,0.4038,-0.4519,9.8484,0,-0.0013,9.8066,0.0099,0.0318,-0.0124,4.44,-29.5,29.25,56.56,-85.39,-135.2
52.554695,-1.463064,0,0,6,0,18 / 18,7819,2020-01-08 09:38:03:616,0.8076,-0.6207,9.9215,0.0072,-0.0027,9.8065,-0.0145,-0.0588,0.0039,4.31,-29.75,29.69,55.46,-85.44,-135.96
52.554695,-1.463064,0,0,6,0,18 / 18,7919,2020-01-08 09:38:03:716,0.1999,-0.2561,9.8337,0.007,-0.0003,9.8066,0.0025,0.0151,0.0285,4.31,-29.94,29.56,54.4,-85.52,-136.89
52.554695,-1.463064,0,0,6,0,18 / 18,8019,2020-01-08 09:38:03:816,0.8755,-0.0733,9.9104,0.0139,-0.0025,9.8066,-0.0005,-0.0528,0.0487,4.19,-29.81,29.44,54.49,-85.53,-137.18
52.554695,-1.463064,0,0,6,0,18 / 18,8118,2020-01-08 09:38:03:915,0.7451,-0.0491,9.8595,-0.0001,0.0025,9.8066,0.0151,0.0083,-0.0217,4.06,-30,29.75,52.82,-85.62,-138.32
52.554695,-1.463064,0,0,6,0,18 / 18,8219,2020-01-08 09:38:04:016,0.9612,-0.6079,9.7329,0.0028,0,9.8066,-0.0011,-0.0544,0.0372,4.5,-29.69,29.63,54.06,-85.66,-138.95
52.554695,-1.463064,0,0,6,0,18 / 18,8319,2020-01-08 09:38:04:116,0.2143,-0.4173,9.95,0.0024,0.0035,9.8066,0.021,-0.0137,-0.013,4,-29.44,30.19,51.49,-85.71,-139.4
52.554695,-1.463064,0,0,6,0,18 / 18,8419,2020-01-08 09:38:04:216,0.7882,-0.2578,9.8705,0.0058,0.0011,9.8066,-0.0014,-0.0374,0.0064,4.38,-29.44,29.38,50.85,-85.74,-140.36
52.554695,-1.463064,0,0,6,0,18 / 18,8519,2020-01-08 09:38:04:316,0.4402,0.1462,9.94,0.0089,0.002,9.8066,0.0171,-0.0136,0.022,4.38,-29.37,29.13,49.81,-85.8,-141.3
52.554695,-1.463064,0,0,6,0,18 / 18,8619,2020-01-08 09:38:04:416,0.7698,-0.4225,9.7534,0.0084,0.0019,9.8065,0.0009,-0.0342,0.015,4.38,-29.44,29.31,49.15,-85.85,-141.89
52.554695,-1.463064,0,0,6,0,18 / 18,8718,2020-01-08 09:38:04:515,0.6121,0.1683,9.6495,0.0026,0.0043,9.8066,0.0159,-0.014,-0.0058,4.38,-29.56,28.69,48.91,-85.87,-142.21
52.554695,-1.463064,0,0,6,0,18 / 18,8819,2020-01-08 09:38:04:616,0.5514,0.1182,9.8975,0.0064,-0.001,9.8066,-0.0058,-0.0083,0.0142,4.19,-29.56,29.56,47.69,-85.9,-142.99
52.554695,-1.463064,0,0,6,0,18 / 18,8919,2020-01-08 09:38:04:716,0.653,0.1709,9.6474,0.0034,0.0031,9.8066,0.0231,-0.0065,0.0058,4.31,-29.56,29.56,47.17,-85.91,-143.48
52.554695,-1.463064,0,0,6,0,18 / 18,9019,2020-01-08 09:38:04:816,0.4645,-0.461,9.9547,0.003,0.0001,9.8066,-0.0027,-0.0092,-0.0059,5,-29.25,29.31,48.78,-85.93,-144.1
52.554695,-1.463064,0,0,6,0,18 / 18,9119,2020-01-08 09:38:04:916,0.5586,0.1889,9.8871,0.0072,0.0015,9.8066,0.0093,-0.0051,0.012,4.56,-29.81,29.5,47.59,-85.99,-144.87
52.554695,-1.463064,0,0,6,0,18 / 18,9219,2020-01-08 09:38:05:016,0.5677,0.2755,9.6581,0.0042,-0.0012,9.8066,0.0012,-0.0136,0.0071,4.44,-29.56,29.19,45.61,-86.01,-145.24
52.554695,-1.463064,0,0,6,0,18 / 18,9319,2020-01-08 09:38:05:116,0.4221,-0.1413,9.9341,0.0033,0.0027,9.8066,0.0166,0.0061,-0.0037,4.13,-29.56,29.63,44.23,-86.03,-146.18
52.554695,-1.463064,0,0,6,0,18 / 18,9418,2020-01-08 09:38:05:215,0.4657,-0.3581,9.9798,0.0047,0.0004,9.8066,-0.0077,0.0114,0.0017,4.19,-29.75,29.25,43.64,-86.07,-147.06
52.554695,-1.463064,0,0,6,0,18 / 18,9519,2020-01-08 09:38:05:316,0.467,0.0037,10.0492,0.0069,0.0028,9.8066,0.0108,0.0225,-0.0378,4.5,-29.62,29.5,44.85,-86.08,-147.41
52.554695,-1.463064,0,0,6,0,18 / 18,9619,2020-01-08 09:38:05:416,0.6386,0.1021,9.765,0.0064,0.0007,9.8066,-0.0189,-0.0049,0.0279,4.56,-29.69,29.31,43.65,-86.17,-148.9
52.554695,-1.463064,0,0,6,0,18 / 18,9719,2020-01-08 09:38:05:516,0.5555,-0.4042,9.7495,0.0012,0.002,9.8066,0.0052,0.01,0.0124,4.25,-29.87,29.38,40.52,-86.18,-149.94
52.554695,-1.463064,0,0,6,0,18 / 18,9819,2020-01-08 09:38:05:616,0.5373,-0.6064,9.847,0.0051,-0.0006,9.8066,-0.0177,-0.0172,-0.0029,5,-30,29.25,41.79,-86.2,-150.65
52.554695,-1.463064,0,0,6,0,18 / 18,9919,2020-01-08 09:38:05:716,0.6753,-0.0677,9.8164,-0.0028,0.0036,9.8066,-0.0032,0.0248,0.0184,5.06,-30.19,29.63,41.36,-86.18,-150.66
52.554695,-1.463064,0,0,6,0,18 / 18,10018,2020-01-08 09:38:05:815,0.4355,0.1531,9.7488,0.0004,0.0034,9.8066,-0.0166,-0.0188,0.0012,4.19,-30.19,29.5,38.27,-86.19,-151.73
52.554695,-1.463064,0,0,6,0,18 / 18,10119,2020-01-08 09:38:05:916,0.3231,-0.3663,9.8731,0.0008,-0.0016,9.8066,0.0017,0.0178,-0.0095,4.5,-29.37,29.56,39.69,-86.22,-152.14
52.554695,-1.463064,0,0,6,0,18 / 18,10219,2020-01-08 09:38:06:016,0.2929,0.0491,9.7614,0.0061,-0.0037,9.8066,-0.0221,-0.0268,0.0226,4.31,-29.44,29.88,37.61,-86.23,-152.25
52.554695,-1.463064,0,0,6,0,18 / 18,10318,2020-01-08 09:38:06:115,0.4894,0.1077,9.8574,0.0051,-0.0027,9.8066,0.0009,-0.0106,-0.0063,4.56,-30.19,29.5,39.05,-86.26,-152.8
52.554695,-1.463064,0,0,6,0,18 / 18,10419,2020-01-08 09:38:06:216,0.5359,-0.4,9.7742,0.0027,-0.0014,9.8066,0.0116,0.008,0.011,4.44,-29.5,29.88,35.96,-86.29,-153.78
52.554695,-1.463064,0,0,6,0,18 / 18,10518,2020-01-08 09:38:06:315,0.3818,-0.3534,9.91,0.0062,-0.0044,9.8066,0.0076,-0.0116,-0.0244,4.25,-29.31,29.5,35.61,-86.31,-154.1
52.554695,-1.463064,0,0,6,0,18 / 18,10619,2020-01-08 09:38:06:416,0.3563,-0.1696,9.7324,0.0033,-0.0019,9.8066,0.0258,0.0199,-0.0101,4.69,-30,29.25,37.13,-86.32,-154.98
52.554695,-1.463064,0,0,6,0,18 / 18,10718,2020-01-08 09:38:06:515,0.4356,-0.3914,9.9354,0.004,-0.0013,9.8066,-0.0124,-0.0127,0.003,4.44,-29.44,29.38,34.54,-86.33,-155.43
52.554695,-1.463064,0,0,6,0,18 / 18,10819,2020-01-08 09:38:06:616,0.3699,0.0343,9.7878,0.002,0.0013,9.8066,0.0045,0.0099,0.0102,4.44,-29.69,28.44,34.09,-86.36,-156.26
52.554695,-1.463064,0,0,6,0,18 / 18,10919,2020-01-08 09:38:06:716,0.4458,0.0495,9.8847,0.0033,-0.0036,9.8066,0.005,-0.0042,-0.0133,4.5,-29.44,29.5,34.73,-86.37,-156.75
52.554695,-1.463064,0,0,6,0,18 / 18,11021,2020-01-08 09:38:06:818,0.3622,-0.3878,9.855,0.0043,-0.0009,9.8066,0.0083,0.0087,-0.0033,4.31,-29.81,29.81,32.44,-86.37,-157.14
52.554695,-1.463064,0,0,6,0,18 / 18,11118,2020-01-08 09:38:06:915,0.2274,-0.2754,9.8215,-0.0002,0.0016,9.8066,-0.0012,-0.0043,0.0065,4.5,-29.5,29.56,32.84,-86.39,-158.53
52.554695,-1.463064,0,0,6,0,18 / 18,11219,2020-01-08 09:38:07:016,0.5066,-0.4702,9.8562,0.0068,-0.0035,9.8066,0.0086,0.0087,-0.0042,4.13,-29.56,29.44,30.17,-86.41,-159.58
52.554695,-1.463064,0,0,6,0,18 / 18,11319,2020-01-08 09:38:07:116,0.3772,-0.376,9.8838,0.0065,-0.0029,9.8066,-0.0005,0,-0.0064,4.31,-29.81,29,30.15,-86.43,-159.59
52.554695,-1.463064,0,0,6,0,18 / 18,11419,2020-01-08 09:38:07:216,0.3791,-0.1088,9.7725,0.002,-0.0022,9.8066,0.0033,0.0045,0.0258,5.31,-30.12,29.19,31.29,-86.44,-160.42
52.554695,-1.463064,0,0,6,0,18 / 18,11519,2020-01-08 09:38:07:316,0.3972,0.1758,9.8714,0.0025,-0.0028,9.8065,0.0031,-0.0003,-0.0341,4.69,-29.37,29.69,29.61,-86.45,-161.57
52.554695,-1.463064,0,0,6,0,18 / 18,11619,2020-01-08 09:38:07:416,0.3349,-0.0126,9.8089,-0.0017,0.0032,9.8066,0.0029,-0.0067,-0.0217,4.5,-29.81,28.81,29.17,-86.46,-162.42
52.554695,-1.463064,0,0,6,0,18 / 18,11719,2020-01-08 09:38:07:516,0.2104,0.1651,9.8196,0.0055,0.0016,9.8066,0.0143,0.0043,0.0116,4.38,-29.87,29.31,27.02,-86.47,-162.52
52.554695,-1.463064,0,0,6,0,18 / 18,11819,2020-01-08 09:38:07:616,0.6649,0.1566,9.7383,0.0026,0.0023,9.8066,0.0121,0.0026,-0.0015,4.63,-29.31,29.31,28.08,-86.5,-163.37
52.554695,-1.463064,0,0,6,0,18 / 18,11918,2020-01-08 09:38:07:715,0.4175,-0.4557,9.9627,-0.0049,0.0029,9.8065,0.015,0.013,-0.0246,4.19,-29.87,29.38,25.5,-86.49,-163.94
52.554695,-1.463064,0,0,6,0,18 / 18,12019,2020-01-08 09:38:07:816,0.2127,-0.2851,9.6986,0.0044,0.0026,9.8066,0.0117,-0.0093,0.0241,4.69,-29.62,29.06,27,-86.5,-164.44
52.554695,-1.463064,0,0,6,0,18 / 18,12118,2020-01-08 09:38:07:915,0.6594,-0.5962,9.8911,-0.0039,0.0043,9.8066,0.0188,0.0082,-0.0536,4.63,-29.87,29.38,26.93,-86.52,-164.5
52.554695,-1.463064,0,0,6,0,18 / 18,12219,2020-01-08 09:38:08:016,0.0206,-0.107,9.7125,-0.0074,0.0052,9.8066,0.0151,-0.0084,-0.0365,4.44,-30,29.38,23.4,-86.52,-165.9
52.554695,-1.463064,0,0,6,0,18 / 18,12319,2020-01-08 09:38:08:116,0.275,0.2261,10.0128,0.0053,0.0015,9.8066,0.0145,0.0313,0.0106,4,-29.81,29,23.59,-86.54,-165.72
52.554695,-1.463064,0,0,6,0,18 / 18,12419,2020-01-08 09:38:08:216,0.0567,-0.225,9.8195,-0.0022,0.0043,9.8066,0.0119,-0.0027,-0.036,4.19,-29.37,29,23.19,-86.54,-166.05
52.554695,-1.463064,0,0,6,0,18 / 18,12519,2020-01-08 09:38:08:316,0.2794,-0.3263,9.8623,0.0018,-0.0007,9.8065,0.0034,0.016,0.0014,4.63,-29.5,29.25,24.43,-86.56,-166.79
52.554695,-1.463064,0,0,6,0,18 / 18,12619,2020-01-08 09:38:08:416,0.3192,-0.2186,9.9231,0.0007,0.0018,9.8066,0.0053,-0.0095,0.0011,4.06,-29.5,29.44,22.36,-86.57,-166.82
52.554695,-1.463064,0,0,6,0,18 / 18,12719,2020-01-08 09:38:08:516,0.3813,-0.1371,9.7778,0.0019,-0.0029,9.8066,-0.0009,0.0283,-0.0049,4.63,-29.44,29.5,23.66,-86.56,-167.15
52.554695,-1.463064,0,0,6,0,18 / 18,12819,2020-01-08 09:38:08:616,0.3012,-0.1695,9.9333,-0.0025,0.0002,9.8066,0.0013,-0.0062,-0.0277,4.81,-29.69,29.19,23.5,-86.56,-167.71
52.554695,-1.463064,0,0,6,0,18 / 18,12919,2020-01-08 09:38:08:716,0.2516,-0.306,9.8212,0.005,-0.0032,9.8066,0.0013,-0.0054,-0.0036,4.38,-30.19,29.94,20.6,-86.57,-168.22
52.554695,-1.463064,0,0,6,0,18 / 18,13019,2020-01-08 09:38:08:816,0.3827,0.0042,9.7437,0.004,-0.0011,9.8066,0.0091,0.0213,0.0067,5,-29.62,29.44,23.23,-86.57,-167.97
52.554695,-1.463064,0,0,6,0,18 / 18,13118,2020-01-08 09:38:08:915,0.4555,0.2251,9.7102,0.0071,-0.0022,9.8066,-0.0047,-0.0165,0.031,4.38,-29.69,29.81,20.39,-86.58,-168.42
52.554695,-1.463064,0,0,6,0,18 / 18,13219,2020-01-08 09:38:09:016,0.2318,-0.352,9.8415,0.0006,0.0006,9.8066,0.0096,0.0033,-0.0245,4.56,-29.87,29.94,21.33,-86.57,-169.4
52.554695,-1.463064,0,0,6,0,18 / 18,13318,2020-01-08 09:38:09:115,0.175,-0.3162,9.9749,0.0025,-0.0013,9.8066,-0.008,-0.0106,-0.0029,4.75,-29.87,29.38,21.65,-86.58,-169.46
52.554695,-1.463064,0,0,6,0,18 / 18,13419,2020-01-08 09:38:09:216,0.3529,0.1759,9.8824,-0.0027,0.0015,9.8066,0.0105,0.0157,0.0114,4.31,-29.87,29.44,19.28,-86.59,-169.76
52.554695,-1.463064,0,0,6,0,18 / 18,13519,2020-01-08 09:38:09:316,0.2388,-0.0006,9.8537,0.0073,-0.0041,9.8066,0.0045,-0.0016,-0.0196,4.56,-29.62,29.44,20.34,-86.6,-170.68
52.554695,-1.463064,0,0,6,0,18 / 18,13619,2020-01-08 09:38:09:416,0.2171,-0.4034,9.7923,0.0023,-0.0001,9.8066,0.007,-0.006,0.0133,4.31,-29.62,29.63,18.1,-86.6,-170.57
52.554695,-1.463064,0,0,6,0,18 / 18,13719,2020-01-08 09:38:09:516,0.3029,-0.1483,9.9297,0.0015,-0.0043,9.8066,0.006,0.0029,-0.0259,4.38,-29.56,29.38,17.65,-86.6,-171.29
52.554695,-1.463064,0,0,6,0,18 / 18,13819,2020-01-08 09:38:09:616,0.5051,-0.0799,9.9007,-0.0034,0.0023,9.8066,-0.006,0.0084,0.022,4.44,-29.75,29.19,17.7,-86.61,-171.23
52.554695,-1.463064,0,0,6,0,18 / 18,13919,2020-01-08 09:38:09:716,0.2527,-0.1094,9.7808,-0.0014,0.0025,9.8066,-0.0163,-0.0294,-0.0072,4.44,-29.25,29,16.38,-86.62,-172.45
52.554695,-1.463064,0,0,6,0,18 / 18,14019,2020-01-08 09:38:09:816,0.1833,0.2769,9.8771,0.0023,0.0008,9.8066,-0.0062,0.014,-0.0171,4.56,-29.81,29.63,18.19,-86.61,-172.35
52.554695,-1.463064,0,0,6,0,18 / 18,14118,2020-01-08 09:38:09:915,0.245,0.233,9.7636,-0.0011,0.0016,9.8066,-0.0109,-0.0119,0.0343,4.75,-29.37,29.19,17.89,-86.61,-172.95
52.554695,-1.463064,0,0,6,0,18 / 18,14219,2020-01-08 09:38:10:016,0.1557,0.0134,9.8158,0.0002,0.0011,9.8066,-0.0067,-0.0083,0.0168,4.63,-29.56,29.13,17.54,-86.61,-173.31
52.554695,-1.463064,0,0,6,0,18 / 18,14319,2020-01-08 09:38:10:116,0.1504,-0.3198,9.8253,0.0028,0.0011,9.8066,-0.0134,-0.0165,-0.0054,3.94,-29.37,29.5,15.04,-86.61,-173.43
52.554695,-1.463064,0,0,6,0,18 / 18,14419,2020-01-08 09:38:10:216,0.4073,-0.1872,9.9026,-0.0022,0.0018,9.8066,-0.0161,-0.011,0.0258,4.63,-29.87,29.38,17.23,-86.62,-173.6
52.554695,-1.463064,0,0,6,0,18 / 18,14519,2020-01-08 09:38:10:316,0.0848,0.2213,9.8123,-0.0031,0.0016,9.8066,-0.004,0.0056,-0.0127,4.19,-29.81,29.13,14.27,-86.63,-174.46
52.554695,-1.463064,0,0,6,0,18 / 18,14619,2020-01-08 09:38:10:416,0.3119,-0.4336,9.9446,0.0012,0.0024,9.8066,-0.0285,-0.0296,-0.0177,4.5,-29.44,29.44,16.65,-86.63,-174.11
52.554695,-1.463064,0,0,6,0,18 / 18,14719,2020-01-08 09:38:10:516,-0.136,-0.2472,9.8083,0.0001,-0.0051,9.8066,-0.0033,0.0069,0.0481,4.69,-30.44,29.25,15.74,-86.61,-175.01
52.554695,-1.463064,0,0,6,0,18 / 18,14819,2020-01-08 09:38:10:616,0.4807,0.1291,9.8577,0.005,0.0017,9.8066,-0.0231,-0.0346,-0.0003,4.81,-29.56,29.63,14.81,-86.65,-175.52
52.554695,-1.463064,0,0,6,0,18 / 18,14919,2020-01-08 09:38:10:716,-0.0149,0.0367,9.8234,-0.0002,0.0047,9.8066,-0.0034,0.0034,0.0238,4.69,-29.25,29.75,15.29,-86.65,-175.04
52.554695,-1.463064,0,0,6,0,18 / 18,15019,2020-01-08 09:38:10:816,0.5258,-0.5653,9.9376,-0.0034,-0.0007,9.8066,-0.0277,-0.025,0.0525,4.63,-29.37,29.13,15.2,-86.62,-175.48
52.554695,-1.463064,0,0,6,0,18 / 18,15119,2020-01-08 09:38:10:916,0.0971,0.261,9.7115,-0.0018,0.0017,9.8066,0.018,0.0078,-0.0212,5.13,-29.81,29.44,14.29,-86.62,-176.36
52.554695,-1.463064,0,0,6,0,18 / 18,15219,2020-01-08 09:38:11:016,0.3608,0.0905,9.6841,0.0025,-0.0034,9.8066,-0.0167,-0.034,0.0025,4.31,-29.5,29.19,12.24,-86.61,-176.34
52.554695,-1.463064,0,0,6,0,18 / 18,15319,2020-01-08 09:38:11:116,-0.043,-0.2555,9.885,0.0021,0.0039,9.8066,0.0146,0.0033,0.0123,4.31,-29.62,29.44,12.25,-86.64,-176.35
52.554695,-1.463064,0,0,6,0,18 / 18,15419,2020-01-08 09:38:11:216,0.3341,-0.1301,9.8999,0.0033,-0.0004,9.8066,-0.0014,-0.016,0.0037,4.75,-29.5,29.06,13.86,-86.63,-176.74
52.554695,-1.463064,0,0,6,0,18 / 18,15519,2020-01-08 09:38:11:316,0.2352,0.2479,9.9238,-0.0004,0.0024,9.8066,0.0142,0.0107,-0.0028,4.38,-29.44,29.06,11.25,-86.61,-177.28
52.554695,-1.463064,0,0,6,0,18 / 18,15619,2020-01-08 09:38:11:416,0.3172,-0.4286,9.8235,0.0038,-0.0007,9.8066,-0.0077,0.0192,-0.0122,3.94,-29.56,29.13,11.28,-86.61,-177.27
52.554695,-1.463064,0,0,6,0,18 / 18,15720,2020-01-08 09:38:11:517,-0.0671,-0.222,9.876,-0.0012,-0.0007,9.8066,0.0198,0.0042,-0.0193,4.19,-29.87,29.69,10.44,-86.62,-177.78
52.554695,-1.463064,0,0,6,0,18 / 18,15819,2020-01-08 09:38:11:616,0.2433,0.2258,9.7736,0.0042,-0.0019,9.8066,0.0025,-0.0076,-0.0199,4.5,-29.62,29.31,12.89,-86.63,-177.68
52.554695,-1.463064,0,0,6,0,18 / 18,15919,2020-01-08 09:38:11:716,-0.0491,-0.0041,9.8798,-0.0031,0.0025,9.8066,0.0095,0.004,0.0361,4.69,-30.31,29.38,12.26,-86.62,-178.28
52.554695,-1.463064,0,0,6,0,18 / 18,16019,2020-01-08 09:38:11:816,0.2373,-0.0242,9.7515,0.0037,-0.0055,9.8066,0.0142,0.0034,0.0036,4.81,-29.56,29.75,11.19,-86.62,-178.94
52.554695,-1.463064,0,0,6,0,18 / 18,16119,2020-01-08 09:38:11:916,0.2814,-0.3587,9.809,0.008,-0.003,9.8066,0.0075,-0.0034,-0.0139,4.69,-29.62,29.13,12.14,-86.62,-178.38
52.554695,-1.463064,0,0,6,0,18 / 18,16219,2020-01-08 09:38:12:016,0.263,0.3378,9.6867,-0.0038,-0.0023,9.8066,0.0031,0.0125,0.0397,4.13,-29.75,28.63,8.96,-86.62,-179.45
52.554695,-1.463064,0,0,6,0,18 / 18,16319,2020-01-08 09:38:12:116,0.255,-0.037,9.9081,-0.0002,-0.0007,9.8066,0.013,0.0103,-0.0314,4.38,-29,29.44,8.71,-86.6,-179.66
52.554695,-1.463064,0,0,6,0,18 / 18,16419,2020-01-08 09:38:12:216,0.067,0.0595,9.767,0.0058,-0.0038,9.8066,0.0181,0.0068,-0.0264,4.56,-29.94,28.94,11.37,-86.62,-179.11
52.554695,-1.463064,0,0,6,0,18 / 18,16519,2020-01-08 09:38:12:316,0.0812,-0.0469,9.8674,-0.0005,-0.0018,9.8066,-0.0007,0.0039,0.0178,4.88,-29.81,29.38,10.53,-86.61,-179.9
52.554695,-1.463064,0,0,6,0,18 / 18,16619,2020-01-08 09:38:12:416,0.1002,0.4455,9.7007,0.0017,-0.0023,9.8066,-0.0047,0.0019,0.0109,4.13,-29.81,29.19,8.07,-86.6,179.71
52.554695,-1.463064,0,0,6,0,18 / 18,16719,2020-01-08 09:38:12:516,0.2641,-0.1332,9.9195,0.0026,-0.0012,9.8066,-0.0094,0.0082,0.015,4.63,-30.06,29.75,9.52,-86.58,179.48
52.554695,-1.463064,0,0,6,0,18 / 18,16819,2020-01-08 09:38:12:616,0.149,-0.3584,9.8505,0.0024,-0.001,9.8066,-0.0046,0.0063,-0.005,4.56,-29.87,29.94,9.46,-86.59,179.43
52.554695,-1.463064,0,0,6,0,18 / 18,16919,2020-01-08 09:38:12:716,-0.0092,-0.2723,9.8734,-0.0002,0.0007,9.8066,0.0031,0.0128,-0.0139,4.56,-29.56,29.5,8.79,-86.58,178.79
52.554695,-1.463064,0,0,6,0,18 / 18,17019,2020-01-08 09:38:12:816,-0.003,0.3724,9.7479,0.0058,-0.0039,9.8066,-0.0083,-0.0122,0.0299,4.13,-29.25,29.31,6.41,-86.58,178.17
52.554695,-1.463064,0,0,6,0,18 / 18,17119,2020-01-08 09:38:12:916,0.1764,0.3891,9.7978,0.0045,-0.002,9.8066,-0.0023,0.0056,0.0046,4.31,-30.12,29.5,6.57,-86.59,178.58
52.554695,-1.463064,0,0,6,0,18 / 18,17219,2020-01-08 09:38:13:016,0.2563,-0.492,9.8663,-0.0003,-0.0003,9.8066,-0.0088,-0.0161,-0.0085,4.44,-30.12,29.63,5.71,-86.58,177.77
52.554695,-1.463064,0,0,6,0,18 / 18,17319,2020-01-08 09:38:13:116,-0.0307,-0.3058,9.9476,0.0034,-0.0021,9.8066,0.0071,0.0021,-0.0368,4.38,-29.87,29.31,5.67,-86.59,177.47
52.554695,-1.463064,0,0,6,0,18 / 18,17419,2020-01-08 09:38:13:216,0.0133,-0.3546,9.8844,0.004,-0.0004,9.8066,0.0083,0.0071,-0.0246,4.38,-29.56,29.06,5.34,-86.59,177.16
52.554695,-1.463064,0,0,6,0,18 / 18,17519,2020-01-08 09:38:13:316,-0.0031,-0.3637,9.8901,-0.0028,0.0004,9.8066,-0.0032,-0.0012,0.0252,4.31,-29.25,28.94,4.82,-86.59,176.68
52.554695,-1.463064,0,0,6,0,18 / 18,17618,2020-01-08 09:38:13:415,0.3113,-0.5108,9.9821,0.0044,-0.0034,9.8066,0.0038,0.0137,-0.0029,4.38,-29.56,29.75,4.01,-86.57,176.17
52.554695,-1.463064,0,0,6,0,18 / 18,17720,2020-01-08 09:38:13:517,0.2552,0.254,9.81,0.0055,-0.0041,9.8065,0.0072,0.0007,-0.017,4.5,-30.06,29.06,6.71,-86.58,176.51
52.554695,-1.463064,0,0,6,0,18 / 18,17819,2020-01-08 09:38:13:616,0.2116,0.0224,9.8502,0.0001,-0.0009,9.8066,-0.0018,0.0062,0.0111,3.88,-29.25,28.94,4.02,-86.56,175.92
52.554695,-1.463064,0,0,6,0,18 / 18,17919,2020-01-08 09:38:13:716,-0.0965,-0.2354,9.8382,-0.004,0.0006,9.8066,0.0101,0.0068,0.0017,4.25,-29.56,29.38,3.44,-86.56,175.37
52.554695,-1.463064,0,0,6,0,18 / 18,18019,2020-01-08 09:38:13:816,-0.0126,0.3725,9.7668,0.0068,-0.0038,9.8066,0.0209,0.0048,-0.0165,4.69,-29.62,29.44,6.01,-86.58,175.85
52.554695,-1.463064,0,0,6,0,18 / 18,18119,2020-01-08 09:38:13:916,0.1805,0.3219,9.8633,0.0006,-0.0016,9.8066,-0.0051,-0.0002,0.0036,5.25,-29.69,29.56,4.93,-86.55,175.16
52.554695,-1.463064,0,0,6,0,18 / 18,18219,2020-01-08 09:38:14:016,0.0295,0.2501,9.7101,0.0054,0.0009,9.8066,0.0032,0.0143,0.0348,4.31,-29.56,29.38,3.26,-86.55,175.2
52.554695,-1.463064,0,0,6,0,18 / 18,18319,2020-01-08 09:38:14:116,0.2553,0.1416,9.8945,-0.0066,0.0026,9.8066,0.0021,-0.0035,-0.0413,4.81,-29.37,29.19,5.26,-86.56,175.16
52.554695,-1.463064,0,0,6,0,18 / 18,18419,2020-01-08 09:38:14:216,0.1071,0.2557,9.7734,-0.0021,0.003,9.8066,0.0169,0.0056,-0.004,4.63,-29.37,29.06,4.37,-86.55,174.32
52.554695,-1.463064,0,0,6,0,18 / 18,18519,2020-01-08 09:38:14:316,-0.1595,-0.3028,9.8909,0.0012,-0.0015,9.8066,0.0003,-0.0119,0.0028,4.69,-29.25,29.13,4.81,-86.54,174.73
52.554695,-1.463064,0,0,6,0,18 / 18,18618,2020-01-08 09:38:14:415,-0.1202,0.2278,9.7509,0.0014,0.0023,9.8066,0.015,0.0105,-0.0006,4.69,-30,29.31,4.62,-86.53,174.54
52.554695,-1.463064,0,0,6,0,18 / 18,18719,2020-01-08 09:38:14:516,0.1597,0.0936,9.8906,0.0055,-0.0032,9.8066,0.0031,-0.0013,-0.016,4.56,-29.19,29.06,4.36,-86.53,174.31
52.554695,-1.463064,0,0,6,0,18 / 18,18818,2020-01-08 09:38:14:615,0.1751,0.1646,9.7455,-0.001,-0.0023,9.8066,0.0145,0.0084,0.0306,4.44,-29.37,29.44,1.66,-86.51,173.7
52.554695,-1.463064,0,0,6,0,18 / 18,18919,2020-01-08 09:38:14:716,0.1553,0.2365,9.8442,0.0003,-0.0013,9.8066,0.0028,-0.0067,-0.0346,4.06,-30.12,30.06,1.02,-86.5,173.36
52.554695,-1.463064,0,0,6,0,18 / 18,19019,2020-01-08 09:38:14:816,-0.0193,-0.2109,9.8283,0.0025,-0.0022,9.8066,0.0165,0.0034,-0.0151,4.5,-29.25,29,3.62,-86.5,173.62
52.554695,-1.463064,0,0,6,0,18 / 18,19118,2020-01-08 09:38:14:915,-0.0197,-0.167,9.9145,-0.0007,-0.0005,9.8066,0.0005,0.0004,0.0116,4.44,-29.81,29.81,1.07,-86.5,173.41
52.554695,-1.463064,0,0,6,0,18 / 18,19219,2020-01-08 09:38:15:016,-0.0401,0.1418,9.7645,0.0035,-0.0031,9.8066,0.0127,0.0071,0.013,4.56,-30,29.56,2.46,-86.49,172.84
52.554695,-1.463064,0,0,6,0,18 / 18,19319,2020-01-08 09:38:15:116,0.2037,0.2017,9.8928,0.0053,-0.0046,9.8066,0.0118,-0.0167,-0.0243,4.19,-29.87,29.5,0.23,-86.49,172.62
52.554695,-1.463064,0,0,6,0,18 / 18,19419,2020-01-08 09:38:15:216,0.0604,0.2607,9.7318,-0.0001,-0.0005,9.8066,0.0164,0.0121,0.0035,4.63,-29.25,29.63,2.48,-86.5,172.87
52.554695,-1.463064,0,0,6,0,18 / 18,19519,2020-01-08 09:38:15:316,0.0514,-0.3057,9.9465,0.0002,-0.0019,9.8066,0.003,-0.0069,0.0004,4.75,-30.06,29.44,2.42,-86.5,172.48
52.554695,-1.463064,0,0,6,0,18 / 18,19619,2020-01-08 09:38:15:416,0.2078,-0.2381,9.8421,0.0012,-0.0017,9.8066,-0.0043,0.0101,-0.0068,4,-29.62,30.06,0.05,-86.48,172.45
52.554695,-1.463064,0,0,6,0,18 / 18,19719,2020-01-08 09:38:15:516,0.0598,0.1653,9.7834,0.0055,-0.0013,9.8066,-0.0139,-0.0155,-0.0116,4.94,-29.62,29.63,2.24,-86.51,172.64
52.554695,-1.463064,0,0,6,0,18 / 18,19819,2020-01-08 09:38:15:616,0.0127,-0.1043,9.9217,-0.0019,0.0004,9.8066,0.005,0.0113,0.0054,4.5,-29.69,28.81,2.09,-86.5,172.17
52.554695,-1.463064,0,0,6,0,18 / 18,19919,2020-01-08 09:38:15:716,0.3569,-0.0574,9.8293,-0.0028,-0.0014,9.8066,-0.0026,-0.0046,-0.0285,4.25,-29.56,28.69,359.23,-86.5,171.43
52.554695,-1.463064,0,0,6,0,18 / 18,20019,2020-01-08 09:38:15:816,-0.0019,-0.0704,9.8233,0.004,-0.0005,9.8066,0.0051,0.0074,-0.0324,4.38,-29.5,29.38,0.22,-86.5,172.35
52.554695,-1.463064,0,0,6,0,23 / 23,20119,2020-01-08 09:38:15:916,0.0487,-0.2031,9.9716,-0.0031,-0.0018,9.8066,0.0058,0.0073,0.0236,4.56,-29.37,28.63,1.92,-86.5,172.02
52.554695,-1.463064,0,0,6,0,23 / 23,20218,2020-01-08 09:38:16:015,0.026,0.3988,9.7635,0.0059,-0.0004,9.8066,0.0105,0.0033,-0.0265,4.75,-29.62,29.25,1.29,-86.5,171.42
52.554695,-1.463064,0,0,6,0,23 / 23,20318,2020-01-08 09:38:16:115,0.2302,-0.0518,9.7941,0.0045,-0.0029,9.8066,0.0008,-0.0149,0.013,4.5,-29.69,29.13,1.67,-86.49,171.78
52.554695,-1.463064,0,0,6,0,23 / 23,20419,2020-01-08 09:38:16:216,-0.0117,-0.2294,9.8567,-0.0019,-0.001,9.8066,0.0058,0.0168,0.0268,4.25,-29.56,29.06,359.53,-86.49,171.7
52.554695,-1.463064,0,0,6,0,23 / 23,20519,2020-01-08 09:38:16:316,0.3426,0.1803,9.8357,0.0044,-0.004,9.8066,-0.0084,0.0092,0.0295,4.88,-29.75,29.19,1.32,-86.5,171.46
52.554695,-1.463064,0,0,6,0,23 / 23,20619,2020-01-08 09:38:16:416,-0.0648,0.4101,9.727,0.001,-0.0005,9.8066,-0.004,-0.0277,0.0028,4.25,-29.19,29,359.41,-86.48,171.6
52.554695,-1.463064,0,0,6,0,23 / 23,20719,2020-01-08 09:38:16:516,0.079,-0.0081,9.8534,0.0003,-0.0033,9.8066,0.0032,0.0092,-0.0103,4.56,-29.25,28.56,1.18,-86.47,171.33
52.554695,-1.463064,0,0,6,0,23 / 23,20818,2020-01-08 09:38:16:615,0.0057,-0.1691,9.8181,0.0024,-0.0015,9.8066,-0.0106,-0.0321,0.0105,4.56,-29.69,29.25,0.85,-86.46,171.01
52.554695,-1.463064,0,0,6,0,23 / 23,20919,2020-01-08 09:38:16:716,0.2205,0.251,9.842,0.0022,-0.0044,9.8066,-0.0152,0.0066,0.0175,4.81,-29.31,29.13,0.89,-86.47,171.05
52.554695,-1.463064,0,0,6,0,23 / 23,21018,2020-01-08 09:38:16:815,0.0829,-0.2342,9.8285,0.0014,0.0009,9.8066,-0.0032,-0.0216,0.0046,4.38,-29.5,29,359.08,-86.46,171.28
52.554695,-1.463064,0,0,6,0,24 / 24,21119,2020-01-08 09:38:16:916,0.2864,-0.2488,9.9351,-0.0016,-0.0013,9.8066,-0.008,0.0071,-0.0138,4.5,-29.87,29.5,0.33,-86.47,170.84
52.554695,-1.463064,0,0,6,0,24 / 24,21218,2020-01-08 09:38:17:015,-0.0431,0.4821,9.6747,0.0047,-0.0017,9.8066,-0.0122,-0.0365,0.0319,4.13,-29.75,29.5,358.22,-86.47,170.74
52.554695,-1.463064,0,0,6,0,24 / 24,21319,2020-01-08 09:38:17:116,0.0025,-0.119,9.8482,0.0039,-0.0031,9.8066,-0.0019,0.0156,0.0106,4.69,-30,29.31,0.71,-86.47,170.88
52.554695,-1.463064,0,0,6,0,24 / 24,21419,2020-01-08 09:38:17:216,-0.0001,0.0605,9.7765,0.0023,-0.0022,9.8066,-0.0144,-0.0257,0.0037,4.5,-29.12,29.44,0.44,-86.45,170.63
52.554695,-1.463064,0,0,6,0,24 / 24,21519,2020-01-08 09:38:17:316,0.2456,0.1839,9.9108,0.0015,-0.0041,9.8066,-0.0121,0.0124,0.0213,4.19,-30,29.63,358.06,-86.47,170.59
52.554695,-1.463064,0,0,6,0,24 / 24,21619,2020-01-08 09:38:17:416,0.0166,-0.1285,9.8008,0.0026,-0.0014,9.8066,-0.0074,-0.0421,0.0002,4.44,-29.56,29.75,358.28,-86.45,170.79
52.554695,-1.463064,0,0,6,0,24 / 24,21719,2020-01-08 09:38:17:516,0.1945,-0.2433,9.9297,-0.001,-0.0013,9.8066,-0.0061,0.02,-0.0143,4.81,-29.37,29.69,0.03,-86.45,170.57
52.554695,-1.463064,0,0,6,0,24 / 24,21819,2020-01-08 09:38:17:616,-0.0323,0.3819,9.6736,0.0034,-0.0018,9.8066,-0.0132,-0.0255,0.0307,4.44,-29.87,29.44,358.09,-86.44,170.36
52.554695,-1.463064,0,0,6,0,24 / 24,21919,2020-01-08 09:38:17:716,0.2057,0.3005,9.8407,0.0035,-0.0044,9.8066,-0.0054,0.0054,0.0172,4.75,-29.5,29.31,0.6,-86.46,170.78
52.554695,-1.463064,0,0,6,0,24 / 24,22019,2020-01-08 09:38:17:816,0.2217,0.3033,9.6929,-0.001,-0.0007,9.8066,-0.0085,-0.0245,-0.0117,4.81,-30,29.31,0.42,-86.42,170.61
52.554695,-1.463064,0,0,6,0,24 / 24,22118,2020-01-08 09:38:17:915,0.256,0.0662,9.8998,0.0028,-0.0039,9.8066,-0.0237,-0.0025,0.0193,4.38,-29.37,29.81,357.78,-86.44,170.33
52.554695,-1.463064,0,0,6,0,24 / 24,22219,2020-01-08 09:38:18:016,-0.0846,0.3443,9.6967,0.002,0.0012,9.8066,0.0013,-0.0105,-0.0024,5,-29.69,29.69,359.86,-86.44,170.41
52.554695,-1.463064,0,0,6,0,24 / 24,22319,2020-01-08 09:38:18:116,0.0765,0.2177,9.9237,-0.0017,-0.0026,9.8066,-0.0092,-0.0023,0.0096,5,-29.94,29.63,359.68,-86.44,170.24
52.554695,-1.463064,0,0,6,0,24 / 24,22419,2020-01-08 09:38:18:216,-0.038,-0.2542,9.9088,0.0018,-0.0004,9.8066,0.0121,-0.0001,-0.0033,4.31,-29.37,29.38,357.91,-86.41,170.19
52.554695,-1.463064,0,0,6,0,24 / 24,22519,2020-01-08 09:38:18:316,0.2404,-0.0335,9.8415,0.0046,-0.0031,9.8066,-0.0088,-0.0045,-0.0116,4.75,-29.37,29.38,359.72,-86.41,169.96
52.554695,-1.463064,0,0,6,0,24 / 24,22619,2020-01-08 09:38:18:416,0.1074,-0.3591,9.8306,-0.0033,0.0022,9.8066,-0.0112,-0.0013,0.0188,4.63,-29.5,29.13,0.18,-86.42,170.39
52.554695,-1.463064,0,0,6,0,24 / 24,22719,2020-01-08 09:38:18:516,0.1339,0.0637,9.9215,-0.0029,-0.0017,9.8066,0.0071,0.0029,-0.03,4,-29.19,28.75,357.4,-86.41,169.72
52.554695,-1.463064,0,0,6,0,24 / 24,22819,2020-01-08 09:38:18:616,-0.0526,0.3627,9.7552,0.0068,-0.0009,9.8066,0.0164,0.0013,-0.0419,4.25,-29.87,29.25,357.69,-86.41,169.99
52.554695,-1.463064,0,0,6,0,24 / 24,22920,2020-01-08 09:38:18:717,0.0121,-0.316,9.8619,0.0002,-0.0023,9.8066,-0.0016,0.0109,0.0172,4.56,-29.75,28.81,359.95,-86.42,170.17
52.554695,-1.463064,0,0,6,0,24 / 24,23019,2020-01-08 09:38:18:816,-0.1139,-0.2796,9.8729,0.0006,0.0004,9.8066,-0.0011,-0.0028,-0.0019,4.75,-29.62,29.5,359.3,-86.4,169.88
52.554695,-1.463064,0,0,6,0,24 / 24,23119,2020-01-08 09:38:18:916,0.2421,-0.1828,9.9256,0.004,-0.0058,9.8065,0.0133,-0.0032,-0.0236,4.56,-29.37,29.44,359.22,-86.39,169.49
52.554695,-1.463064,0,0,6,0,24 / 24,23219,2020-01-08 09:38:19:016,-0.0639,0.4212,9.7049,0,0.0023,9.8066,0.0004,-0.0013,-0.0089,4.38,-29.44,29.19,357.62,-86.42,169.92
52.554695,-1.463064,0,0,6,0,24 / 24,23319,2020-01-08 09:38:19:116,0.0795,0.3925,9.8639,-0.0021,-0.0004,9.8066,0.0012,0.017,0.0039,4.5,-29.19,29.63,358.97,-86.41,169.58
52.554695,-1.463064,0,0,6,0,24 / 24,23419,2020-01-08 09:38:19:216,-0.1289,-0.2692,9.9321,0.005,0.0011,9.8066,0.0069,-0.0071,-0.0283,4.44,-28.87,29.13,357.08,-86.41,169.41
52.554695,-1.463064,0,0,6,0,24 / 24,23519,2020-01-08 09:38:19:316,0.2106,-0.0696,9.8476,0.0043,-0.001,9.8066,-0.0181,0.0094,0.0101,4.75,-29.87,28.94,359.61,-86.43,169.85
52.554695,-1.463064,0,0,6,0,24 / 24,23618,2020-01-08 09:38:19:415,0.0887,0.2941,9.7775,-0.0039,0.0047,9.8066,-0.0106,-0.0076,0.0235,4.44,-29.5,29.13,357.26,-86.43,169.58
52.554695,-1.463064,0,0,6,0,24 / 24,23719,2020-01-08 09:38:19:516,-0.0446,0.3532,9.8835,0,-0.0024,9.8066,0.0093,0.0178,-0.0318,4.5,-29.5,29.31,358.7,-86.41,169
52.554695,-1.463064,0,0,6,0,24 / 24,23819,2020-01-08 09:38:19:616,-0.1606,0.4354,9.7932,0.0034,0.0009,9.8066,-0.0023,-0.007,-0.0424,4.5,-29.37,28.94,358.96,-86.41,169.24
52.554695,-1.463064,0,0,6,0,24 / 24,23919,2020-01-08 09:38:19:716,0.0815,0.2563,9.872,-0.0026,0.0002,9.8066,-0.0079,-0.0152,-0.0228,4.5,-29.81,29.75,358.34,-86.4,168.98
52.554695,-1.463064,0,0,6,0,24 / 24,24018,2020-01-08 09:38:19:815,0.1099,0.2323,9.7768,0.005,0.0011,9.8066,-0.0097,0.0045,-0.0098,4.31,-29.81,29.56,355.99,-86.41,168.65
52.554695,-1.463064,0,0,6,0,24 / 24,24119,2020-01-08 09:38:19:916,0.1396,0.2482,9.8581,0.0034,-0.0046,9.8066,0.0185,0.012,-0.0065,4.5,-29.81,29.06,358.93,-86.42,169.21
52.554695,-1.463064,0,0,6,0,24 / 24,24218,2020-01-08 09:38:20:015,-0.0105,0.3066,9.7424,0.0013,0.0012,9.8066,0.0025,0.0053,-0.0144,4.56,-29.31,29.38,358.7,-86.41,169
52.554695,-1.463064,0,0,6,0,24 / 24,24319,2020-01-08 09:38:20:116,0.0819,0.3146,9.8052,0,-0.0006,9.8066,-0.001,-0.0007,0.0014,4.13,-29.44,29.13,356.56,-86.4,168.92
52.554695,-1.463064,0,0,6,0,24 / 24,24420,2020-01-08 09:38:20:217,0.017,0.0237,10.0006,0.0044,-0.0015,9.8066,0.0206,0.0136,-0.0101,4.38,-29.37,29.06,356.54,-86.4,168.91
52.554695,-1.463064,0,0,6,0,24 / 24,24519,2020-01-08 09:38:20:316,0.0526,-0.3443,9.814,0.0072,-0.0022,9.8066,-0.0149,0.0034,-0.0072,4.75,-29.5,29.56,358.5,-86.41,169.13
52.554695,-1.463064,0,0,6,0,24 / 24,24619,2020-01-08 09:38:20:416,0.1702,0.1186,9.7578,-0.0053,0.0016,9.8065,0.0039,0.0004,0.0337,4.69,-29.56,29.06,358.08,-86.38,168.43
52.554695,-1.463064,0,0,6,0,24 / 24,24719,2020-01-08 09:38:20:516,-0.0881,0.3398,9.9156,0.0006,-0.0036,9.8066,0.0025,0.001,-0.0453,4.63,-29.87,29.5,357.62,-86.38,168.31
52.554695,-1.463064,0,0,6,0,24 / 24,24819,2020-01-08 09:38:20:616,-0.0662,0.372,9.7745,-0.0061,0.0015,9.8066,0.0064,0.0033,-0.0292,4.38,-29.19,29.13,355.71,-86.35,168.13
52.554695,-1.463064,0,0,6,0,24 / 24,24919,2020-01-08 09:38:20:716,0.0926,-0.3895,9.8854,0.0025,0.0002,9.8066,-0.0024,0.0126,0.0145,4.25,-29.25,28.94,356.03,-86.36,168.43
52.554695,-1.463064,0,0,6,0,24 / 24,25018,2020-01-08 09:38:20:815,-0.1136,0.0318,9.7938,-0.0018,0.0005,9.8066,0.0023,-0.0157,-0.0071,4.56,-29.25,29.69,357.91,-86.37,168.58
52.554695,-1.463064,0,0,6,0,24 / 24,25119,2020-01-08 09:38:20:916,0.1107,0.2551,9.9153,-0.0048,0.0014,9.8066,0.0125,0.02,-0.0311,4.69,-29.12,29.31,358.45,-86.36,168.77
52.554695,-1.463064,0,0,6,0,24 / 24,25219,2020-01-08 09:38:21:016,-0.0232,0.4688,9.7173,-0.0026,0.0026,9.8066,0.0035,-0.0001,-0.0115,4.25,-29.12,28.88,356.08,-86.36,168.48
52.554695,-1.463064,0,0,6,0,24 / 24,25319,2020-01-08 09:38:21:116,0.1222,-0.4232,9.9102,0.0005,0.0012,9.8066,0.0102,0.0164,0.0034,4.63,-29.75,29.31,358.1,-86.36,168.44
52.554695,-1.463064,0,0,6,0,24 / 24,25418,2020-01-08 09:38:21:215,-0.1882,-0.3358,9.9381,-0.0043,0.0029,9.8066,0.0062,-0.0093,-0.0317,3.94,-29.37,29.44,355.92,-86.36,168.33
52.554695,-1.463064,0,0,6,0,24 / 24,25519,2020-01-08 09:38:21:316,0.1178,-0.0144,9.8791,0.0014,-0.0009,9.8066,-0.0034,0.0093,0.0109,4.75,-29.31,29.31,357.82,-86.37,168.17
52.554695,-1.463064,0,0,6,0,24 / 24,25619,2020-01-08 09:38:21:416,0.0921,-0.0138,9.7843,0.002,-0.0001,9.8066,0.0057,-0.0048,0.0138,4.31,-29.94,28.75,356.03,-86.36,168.44
52.554695,-1.463064,0,0,6,0,24 / 24,25718,2020-01-08 09:38:21:515,0.116,0.2962,9.8818,-0.0051,0.0001,9.8066,-0.0012,0.0006,-0.0286,4.63,-29.5,29.38,358.1,-86.35,168.44
52.554695,-1.463064,0,0,6,0,24 / 24,25819,2020-01-08 09:38:21:616,0.1545,-0.3622,9.9828,-0.0029,0.0014,9.8066,0.0005,-0.0001,-0.0128,4.31,-29.87,29.5,355.13,-86.35,167.85
52.554695,-1.463064,0,0,6,0,24 / 24,25919,2020-01-08 09:38:21:716,-0.028,0.0521,9.7836,0.0034,-0.0025,9.8066,-0.0191,-0.014,0.0139,5,-29.25,29.63,357.34,-86.37,168.05
52.554695,-1.463064,0,0,6,0,24 / 24,26018,2020-01-08 09:38:21:815,0.0632,-0.0185,9.9082,0.0002,-0.0024,9.8066,-0.006,-0.0107,0.0028,4.75,-29.75,29.5,357.38,-86.39,168.09
52.554695,-1.463064,0,0,6,0,24 / 24,26119,2020-01-08 09:38:21:916,0.1099,0.258,9.8391,0.0006,-0.0026,9.8066,-0.014,-0.001,-0.0015,4.13,-29.56,29.25,355.61,-86.37,168.05
52.554695,-1.463064,0,0,6,0,24 / 24,26219,2020-01-08 09:38:22:016,-0.0304,0.2596,9.9022,0.0008,-0.0047,9.8066,-0.0172,-0.018,0.0118,4.5,-29.12,29.13,357.54,-86.39,167.91
52.554695,-1.463064,0,0,6,0,24 / 24,26319,2020-01-08 09:38:22:116,0.1924,-0.378,9.8818,0.0002,0.001,9.8066,0.0099,0.0071,-0.0163,4.44,-29.62,29.25,355.84,-86.38,168.26
52.554695,-1.463064,0,0,6,0,24 / 24,26419,2020-01-08 09:38:22:216,-0.2604,-0.1563,9.9351,-0.0075,0.0008,9.8066,-0.0116,-0.003,-0.0454,4.5,-30,29.81,356.97,-86.36,167.7
52.554695,-1.463064,0,0,6,0,24 / 24,26519,2020-01-08 09:38:22:316,0.2295,0.3241,9.752,0.006,-0.0001,9.8066,0.007,0.0139,0.0335,4.31,-29.87,28.94,355.11,-86.37,167.58
52.554695,-1.463064,0,0,6,0,24 / 24,26619,2020-01-08 09:38:22:416,-0.1442,-0.1907,9.8834,0.0012,0.0008,9.8066,0.0043,-0.014,0.0043,4.44,-29.37,29.25,355.57,-86.38,168
52.554695,-1.463064,0,0,6,0,24 / 24,26718,2020-01-08 09:38:22:515,0.1368,-0.2822,9.8351,-0.0045,0.001,9.8066,0.0025,0.0173,-0.028,4.56,-29.62,29.81,357.28,-86.37,167.99
52.554695,-1.463064,0,0,6,0,24 / 24,26818,2020-01-08 09:38:22:615,-0.0094,-0.1322,9.8343,-0.0019,0.0003,9.8066,-0.0004,0.0031,0.0008,4.69,-29.06,29.19,357.12,-86.36,167.52
52.554695,-1.463064,0,0,6,0,24 / 24,26918,2020-01-08 09:38:22:715,-0.0398,-0.0105,9.8401,0.0017,0.0001,9.8066,0.006,0.0176,-0.0086,5,-29.31,28.81,357.43,-86.37,167.81
52.554695,-1.463064,0,0,6,0,24 / 24,27019,2020-01-08 09:38:22:816,-0.143,-0.2328,9.8794,-0.0072,0.0027,9.8066,0.0076,-0.0051,-0.0381,4.19,-29.56,29.5,354.61,-86.35,167.36
52.554695,-1.463064,0,0,6,0,24 / 24,27118,2020-01-08 09:38:22:915,-0.0248,-0.3407,9.87,0.0018,-0.0014,9.8066,-0.0024,0.012,0.0105,4.31,-29.31,29.06,355.01,-86.36,167.48
52.554695,-1.463064,0,0,6,0,25 / 25,27219,2020-01-08 09:38:23:016,-0.0345,-0.2235,9.8173,0.0005,-0.0002,9.8066,0.0029,-0.0059,0.0013,4.56,-29.81,29.75,356.99,-86.36,167.72
52.554695,-1.463064,0,0,6,0,25 / 25,27319,2020-01-08 09:38:23:116,0.25,-0.267,9.9262,-0.0025,0.0019,9.8066,0.0046,0.0232,-0.0242,4.19,-29.87,30,354.9,-86.36,167.64
52.554695,-1.463064,0,0,6,0,25 / 25,27419,2020-01-08 09:38:23:216,-0.1099,0.4594,9.6982,-0.0049,0.0024,9.8066,0.0027,-0.0018,-0.0286,4.63,-29.69,29.31,357.14,-86.36,167.55
52.554695,-1.463064,0,0,6,0,25 / 25,27519,2020-01-08 09:38:23:316,-0.043,-0.2735,9.8154,0.0037,-0.0006,9.8066,-0.0044,0.0109,0.0187,4,-29.44,29.81,354.4,-86.37,167.15
52.554695,-1.463064,0,0,6,0,25 / 25,27618,2020-01-08 09:38:23:415,-0.0363,-0.1743,9.8163,0.0002,0,9.8066,0.0076,-0.0062,-0.0032,4.31,-29.44,29.38,354.96,-86.39,167.43
52.554695,-1.463064,0,0,6,0,25 / 25,27719,2020-01-08 09:38:23:516,0.2611,-0.3576,9.7756,-0.0019,-0.0024,9.8066,0.0004,-0.0267,0.0269,3.94,-29.31,29.5,354.57,-86.37,167.32
52.554695,-1.463064,0,0,6,0,25 / 25,27819,2020-01-08 09:38:23:616,-0.0162,0.2325,9.8357,0.0009,-0.0009,9.8066,0.0074,0.0156,-0.0232,4.38,-29.94,29.38,354.72,-86.37,167.22
52.554695,-1.463064,0,0,6,0,25 / 25,27919,2020-01-08 09:38:23:716,-0.1122,0.32,9.8834,-0.0027,0.0024,9.8066,-0.0177,-0.0157,0.007,4.81,-29.81,29.63,356.79,-86.38,167.54
52.554695,-1.463064,0,0,6,0,25 / 25,28019,2020-01-08 09:38:23:816,-0.1282,0.3128,9.7565,-0.0076,0.0021,9.8066,0.0119,0.0095,0.0195,4.13,-29.75,29.63,354.02,-86.37,166.81
52.554695,-1.463064,0,0,6,0,25 / 25,28119,2020-01-08 09:38:23:916,-0.0111,0.1168,9.808,0.0054,-0.0017,9.8066,-0.0088,-0.0327,-0.0165,4.13,-29.37,29.75,354.2,-86.38,166.97
52.554695,-1.463064,0,0,6,0,25 / 25,28218,2020-01-08 09:38:24:015,-0.0771,-0.2649,9.8623,-0.001,0.0014,9.8066,0.0055,0.0151,0.0199,4.44,-29.5,29.5,354.55,-86.39,167.3
52.554695,-1.463064,0,0,6,0,25 / 25,28319,2020-01-08 09:38:24:116,0.2316,0.0614,9.9125,0.0034,-0.0025,9.8066,-0.0086,-0.0173,0.0215,4.88,-30,29.44,356.66,-86.38,167.1
52.554695,-1.463064,0,0,6,0,25 / 25,28419,2020-01-08 09:38:24:216,0.1156,0.0566,9.9231,-0.0022,0.0045,9.8066,0.0229,0.0146,-0.0102,4.56,-29.75,29.63,356.51,-86.4,167.27
52.554695,-1.463064,0,0,6,0,25 / 25,28518,2020-01-08 09:38:24:315,0.1051,-0.4063,9.8859,0.0014,-0.0003,9.8066,-0.0038,-0.0294,0.0014,4.5,-29.37,29.25,356.81,-86.39,167.23
52.554695,-1.463064,0,0,6,0,25 / 25,28619,2020-01-08 09:38:24:416,0.0428,0.0735,9.9008,0.0022,0.0023,9.8066,0.0124,0.0143,0.0058,4.56,-29.5,29.69,356.16,-86.4,166.93
52.554695,-1.463064,0,0,6,0,25 / 25,28719,2020-01-08 09:38:24:516,0.0464,-0.3243,9.8055,0.0012,0.0021,9.8066,0.0083,-0.016,0.0005,4.19,-29.81,29.38,354.53,-86.39,167.04
52.554695,-1.463064,0,0,6,0,25 / 25,28818,2020-01-08 09:38:24:615,0.0875,0.2585,9.8054,-0.0027,0.0031,9.8065,0.0102,0.0148,-0.0113,4.13,-29.56,28.94,354.36,-86.4,166.88
52.554695,-1.463064,0,0,6,0,25 / 25,28918,2020-01-08 09:38:24:715,0.1485,-0.5178,9.8951,0.0023,-0.0008,9.8066,-0.0132,-0.0282,0.0192,4.88,-29.81,28.81,356.31,-86.4,166.77
52.554695,-1.463064,0,0,6,0,25 / 25,29019,2020-01-08 09:38:24:816,-0.2321,-0.0032,9.8951,-0.0003,0.0038,9.8066,0.0181,0.011,-0.0189,4.13,-29.87,29.56,354.14,-86.42,166.91
52.554695,-1.463064,0,0,6,0,24 / 24,29119,2020-01-08 09:38:24:916,-0.0445,-0.0099,9.8894,-0.0047,0.0021,9.8066,0.0038,0.0148,0.0153,4.56,-29.31,29.69,355.72,-86.4,166.52
52.554695,-1.463064,0,0,6,0,24 / 24,29219,2020-01-08 09:38:25:016,-0.1003,0.3291,9.8744,0.0055,-0.0004,9.8066,0.0016,0.0165,0.0389,4.31,-28.94,29.13,353.87,-86.42,166.41
52.554695,-1.463064,0,0,6,0,24 / 24,29319,2020-01-08 09:38:25:116,-0.0592,0.3902,9.7565,0.0032,-0.0033,9.8066,-0.0028,-0.0271,0.0099,4.75,-29.44,29.44,356.29,-86.42,166.75
52.554695,-1.463064,0,0,6,0,24 / 24,29419,2020-01-08 09:38:25:216,-0.0456,-0.2284,9.8443,0.0027,0.0004,9.8066,0.0056,0.0039,-0.005,4.81,-29.87,29.44,356.5,-86.41,166.94
52.554695,-1.463064,0,0,6,0,24 / 24,29518,2020-01-08 09:38:25:315,0.1653,-0.3995,9.9735,-0.002,0,9.8066,-0.013,-0.0107,0.0358,4.88,-29.81,29.31,355.98,-86.42,166.46
52.554695,-1.463064,0,0,6,0,24 / 24,29619,2020-01-08 09:38:25:416,-0.2974,-0.2273,9.7943,-0.0037,0.0013,9.8066,0.0183,0.0068,-0.0126,4.81,-29.31,29,356.01,-86.41,166.48
52.554695,-1.463064,0,0,6,0,24 / 24,29719,2020-01-08 09:38:25:516,0.1256,-0.3258,9.9221,0.0054,-0.0066,9.8066,0.012,-0.0061,-0.0164,4.5,-29.94,29.63,355.36,-86.4,166.19
52.554695,-1.463064,0,0,6,0,24 / 24,29819,2020-01-08 09:38:25:616,-0.0802,-0.3074,9.7889,-0.002,0.0016,9.8066,0.0059,-0.0103,0.0179,4.75,-29.62,29.19,355.91,-86.4,166.4
52.554695,-1.463064,0,0,6,0,24 / 24,29919,2020-01-08 09:38:25:716,0.3079,-0.5636,9.9606,0.0006,-0.0063,9.8066,0.0137,0,0.0286,4.81,-29.44,29.5,355.31,-86.39,166.14
52.554695,-1.463064,0,0,6,0,24 / 24,30019,2020-01-08 09:38:25:816,-0.0707,-0.3696,9.9137,0.0053,-0.0041,9.8066,0.0121,-0.0023,-0.0419,5.13,-29.81,29.5,355.64,-86.42,166.46
52.554695,-1.463064,0,0,6,0,25 / 25,30119,2020-01-08 09:38:25:916,0.1458,0.2085,9.7108,-0.0014,-0.0027,9.8066,0.0141,0.0093,0.0052,5,-29.5,29.31,356.07,-86.4,166.54
52.554695,-1.463064,0,0,6,0,25 / 25,30218,2020-01-08 09:38:26:015,-0.0337,0.2185,9.9532,-0.0032,-0.0011,9.8066,0.0145,-0.0079,-0.009,3.94,-29.69,29.56,353.1,-86.39,165.95
52.554695,-1.463064,0,0,6,0,25 / 25,30318,2020-01-08 09:38:26:115,-0.0209,-0.2785,9.7726,0.0053,-0.0029,9.8066,0.0264,0.0151,-0.0383,4.38,-29.56,29.63,353.67,-86.41,166.48
52.554695,-1.463064,0,0,6,0,25 / 25,30418,2020-01-08 09:38:26:215,-0.1105,0.1119,9.8532,0.0039,-0.001,9.8066,-0.0134,-0.003,0.0204,4.88,-29.37,28.81,356.13,-86.42,166.59
52.554695,-1.463064,0,0,6,0,25 / 25,30519,2020-01-08 09:38:26:316,0.2148,0.3245,9.7101,-0.0025,0,9.8066,0.0116,0.0171,0.0341,4.81,-29.25,29.25,355.51,-86.41,166.02
52.554695,-1.463064,0,0,6,0,25 / 25,30619,2020-01-08 09:38:26:416,-0.0533,-0.2061,9.9281,0.0055,-0.0039,9.8066,0.0015,-0.0168,-0.0493,4.88,-29.62,29.56,355.08,-86.43,165.93
52.554695,-1.463064,0,0,6,0,25 / 25,30718,2020-01-08 09:38:26:515,-0.2242,-0.0065,9.8275,-0.002,0.0015,9.8066,0.0059,0.0113,-0.0157,4.75,-29.19,29.19,355.71,-86.42,166.2
52.554695,-1.463064,0,0,6,0,25 / 25,30819,2020-01-08 09:38:26:616,-0.0718,0.0096,9.8994,-0.0053,0.0018,9.8066,-0.0108,-0.0096,0.0157,4,-29.75,29.75,352.59,-86.39,165.47
52.554695,-1.463064,0,0,6,0,25 / 25,30919,2020-01-08 09:38:26:716,0.1148,0.0308,9.8446,0.0058,-0.0006,9.8066,0.0021,0.0141,-0.0174,4.81,-29.81,29.69,354.58,-86.39,165.47
52.554695,-1.463064,0,0,6,0,25 / 25,31019,2020-01-08 09:38:26:816,-0.0626,-0.3067,9.8373,0.0018,-0.0001,9.8066,-0.0082,-0.0024,0.0125,4.63,-29.31,29.25,355.46,-86.41,165.96
52.554695,-1.463064,0,0,6,0,24 / 24,31119,2020-01-08 09:38:26:916,-0.0657,-0.2478,9.8315,-0.0025,-0.0019,9.8066,-0.0096,-0.0029,0.025,4.69,-29.19,29.31,355.31,-86.38,165.83
52.554695,-1.463064,0,0,6,0,24 / 24,31219,2020-01-08 09:38:27:016,0.1696,0.1561,9.882,0.0058,-0.0024,9.8065,0.0157,0.0035,-0.0382,4.25,-29.44,29.63,352.67,-86.38,165.53
52.554695,-1.463064,0,0,6,0,24 / 24,31319,2020-01-08 09:38:27:116,-0.1582,0.3993,9.7524,0.0038,-0.0016,9.8066,-0.0031,-0.0264,0.0156,4.69,-29.5,29.38,355.24,-86.37,165.77
52.554695,-1.463064,0,0,6,0,24 / 24,31419,2020-01-08 09:38:27:216,0.0632,0.1907,9.8205,-0.0012,-0.0012,9.8066,-0.0054,-0.0021,-0.0198,4.63,-29.5,29.19,355.37,-86.38,165.89
52.554695,-1.463064,0,0,6,0,24 / 24,31519,2020-01-08 09:38:27:316,-0.2924,-0.2489,9.8849,0.0039,-0.0011,9.8066,-0.0134,-0.016,0.0365,4.75,-29.37,29.75,354.43,-86.39,165.31
52.554695,-1.463064,0,0,6,0,24 / 24,31619,2020-01-08 09:38:27:416,0.0624,-0.3119,9.8614,0.0075,-0.0052,9.8066,-0.0081,-0.0011,0.041,4.56,-29.87,29.94,355.18,-86.41,166.02
52.554695,-1.463064,0,0,6,0,24 / 24,31719,2020-01-08 09:38:27:516,0.0646,-0.3335,9.8908,-0.0041,0.0006,9.8066,-0.0002,-0.0358,-0.0311,4.31,-29.5,29.63,352.95,-86.38,165.8
52.554695,-1.463064,0,0,6,0,24 / 24,31819,2020-01-08 09:38:27:616,0.2767,-0.4085,9.8175,0.0021,-0.0021,9.8066,-0.0113,-0.0033,0.0223,4.38,-29.81,29.31,352.74,-86.39,165.37
52.554695,-1.463064,0,0,6,0,24 / 24,31919,2020-01-08 09:38:27:716,-0.0333,-0.5237,9.8791,0.0016,0.0006,9.8066,-0.007,-0.024,-0.0001,4.94,-29.56,29.44,355.08,-86.4,165.63
52.554695,-1.463064,0,0,6,0,24 / 24,32018,2020-01-08 09:38:27:815,0.0251,-0.058,9.7145,0.0002,-0.0006,9.8066,-0.0242,-0.0102,0.0057,4.63,-30.44,29.13,354.7,-86.41,165.26
52.554695,-1.463064,0,0,6,0,24 / 24,32119,2020-01-08 09:38:27:916,0.0616,0.2903,9.7691,-0.0024,0.0009,9.8066,0.0027,0.0093,0.0145,3.44,-30.31,29.13,350.84,-86.39,165.54
52.554695,-1.463064,0,0,6,0,25 / 25,32219,2020-01-08 09:38:28:016,0.1274,0.2536,9.8857,0.0003,-0.0041,9.8066,0.0101,-0.0018,-0.0234,3.63,-29.62,29.38,352.59,-86.35,165.23
52.554695,-1.463064,0,0,6,0,25 / 25,32319,2020-01-08 09:38:28:116,-0.1824,0.4408,9.8607,0.0047,0.0013,9.8066,-0.0036,0.0125,-0.0358,3.81,-29.69,29.38,352.7,-86.37,165.33
52.554695,-1.463064,0,0,6,0,25 / 25,32419,2020-01-08 09:38:28:216,0.0496,-0.108,9.8554,-0.0007,0.0005,9.8066,-0.0026,-0.0117,0.0249,4,-29.44,29.69,352.55,-86.37,165.42
52.554695,-1.463064,0,0,6,0,25 / 25,32519,2020-01-08 09:38:28:316,-0.2324,0.1617,9.7898,0.0031,-0.0016,9.8066,0.0058,0.0206,0.0104,4.06,-29.56,30,352.26,-86.36,165.16
52.554695,-1.463064,0,0,6,0,25 / 25,32618,2020-01-08 09:38:28:415,0.2519,0.2334,9.8457,0.0059,-0.0036,9.8066,0.0062,0.0036,-0.0342,3.75,-28.56,29.5,352.49,-86.37,165.36
52.554695,-1.463064,0,0,6,0,25 / 25,32719,2020-01-08 09:38:28:516,-0.0253,0.1152,9.809,-0.0006,0.0015,9.8066,-0.0003,0.02,-0.0032,3.81,-29.31,29.94,352.45,-86.37,165.33
52.554695,-1.463064,0,0,6,0,25 / 25,32819,2020-01-08 09:38:28:616,-0.0241,0.2657,9.7909,-0.0029,0.0018,9.8066,-0.0073,0.0182,0.0058,3.88,-29.25,29.44,352.72,-86.38,165.34
52.554695,-1.463064,0,0,6,0,25 / 25,32919,2020-01-08 09:38:28:716,-0.1554,0.5491,9.6945,0.0031,-0.0022,9.8066,0.0136,-0.0009,0.0112,4.06,-29.19,29.81,352.17,-86.36,165.07
52.554695,-1.463064,0,0,6,0,25 / 25,33019,2020-01-08 09:38:28:816,0.0969,-0.0117,9.7986,0.0028,-0.0008,9.8066,-0.0106,0.0074,-0.0237,4.31,-28.94,29.19,352.57,-86.38,165.2
52.554695,-1.463064,0,0,6,0,25 / 25,33119,2020-01-08 09:38:28:916,0.1447,0.1221,9.8193,-0.0008,-0.0022,9.8066,0.0017,-0.0056,0.0216,3.81,-29.5,29.75,352.19,-86.37,165.08
52.554695,-1.463064,0,0,6,0,25 / 25,33218,2020-01-08 09:38:29:015,-0.3579,-0.3019,9.9207,-0.0047,0.0003,9.8066,0.0018,0.0062,-0.0149,4,-29.69,29.63,351.65,-86.37,164.6
52.554695,-1.463064,0,0,6,0,25 / 25,33319,2020-01-08 09:38:29:116,-0.1594,-0.2624,9.8224,0.0078,-0.0017,9.8066,-0.0008,-0.0107,-0.0267,3.75,-29.25,29.44,352.15,-86.37,164.8
52.554695,-1.463064,0,0,6,0,25 / 25,33418,2020-01-08 09:38:29:215,-0.0983,0.2976,9.9821,-0.0019,-0.0032,9.8066,0.017,0.0024,0.0214,4.25,-29.44,29.56,352.11,-86.39,165.01
52.554695,-1.463064,0,0,6,0,25 / 25,33518,2020-01-08 09:38:29:315,0.2756,0.36,9.6462,0.0052,-0.0031,9.8066,0.0173,-0.012,-0.0119,4.31,-29.75,29.5,351.57,-86.36,164.52
52.554695,-1.463064,0,0,6,0,25 / 25,33619,2020-01-08 09:38:29:416,0.2567,0.3964,9.7728,0.0067,-0.0039,9.8066,0.0022,0.0025,-0.0066,4.19,-29.62,29.69,352.48,-86.37,165.37
52.554695,-1.463064,0,0,6,0,25 / 25,33719,2020-01-08 09:38:29:516,0.2364,-0.1196,9.6386,-0.0067,-0.0007,9.8066,0.0135,-0.0117,0.0427,4.13,-29.75,29.69,352.31,-86.35,165.22
52.554695,-1.463064,0,0,6,0,25 / 25,33819,2020-01-08 09:38:29:616,0.2112,-0.4781,9.9166,0.0036,-0.0047,9.8066,0.0006,0.0179,-0.0466,3.81,-29.5,29.81,351.65,-86.34,164.58
52.554695,-1.463064,0,0,6,0,25 / 25,33919,2020-01-08 09:38:29:716,-0.2858,0.3904,9.8223,-0.0023,0.0043,9.8066,-0.0016,-0.0134,-0.0234,3.94,-29.37,29.44,352.81,-86.37,165.42
52.554695,-1.463064,0,0,6,0,25 / 25,34019,2020-01-08 09:38:29:816,-0.0323,0.2857,9.9159,-0.0068,0,9.8066,0.0064,0.0027,0.0209,4,-29.37,29.44,352.02,-86.34,164.69
52.554695,-1.463064,0,0,6,0,25 / 25,34118,2020-01-08 09:38:29:915,-0.127,-0.0618,9.9076,0.0056,0.001,9.8066,-0.0054,-0.0099,-0.0348,4.69,-29.56,29.5,353.91,-86.34,164.85
52.554695,-1.463064,0,0,6,0,25 / 25,34218,2020-01-08 09:38:30:015,0.1187,-0.4197,9.8313,0.0027,-0.0002,9.8066,-0.0107,0.0264,0.0223,4,-29.25,29.56,352.59,-86.35,165.46
52.554695,-1.463064,0,0,6,0,25 / 25,34319,2020-01-08 09:38:30:116,0.0008,0.361,9.7881,-0.0032,0.0033,9.8066,-0.004,-0.0036,0.0142,3.88,-29.06,29.44,352.5,-86.35,165.13
52.554695,-1.463064,0,0,6,0,25 / 25,34418,2020-01-08 09:38:30:215,0.0522,-0.4444,9.852,0.0003,-0.0004,9.8066,0.0039,-0.001,-0.0151,4.06,-29.56,29.88,352.12,-86.33,165.04
52.554695,-1.463064,0,0,6,0,25 / 25,34519,2020-01-08 09:38:30:316,0.0242,-0.4962,10.0151,-0.0004,0.0015,9.8066,-0.0016,0.001,-0.0242,4.13,-28.87,29.5,352.4,-86.35,165.28
52.554695,-1.463064,0,0,6,0,25 / 25,34618,2020-01-08 09:38:30:415,0.0086,0.2366,9.765,-0.0019,0.0027,9.8066,-0.0066,0.0009,0.0246,4.19,-29.62,30,352.22,-86.33,165.14
52.554695,-1.463064,0,0,6,0,25 / 25,34719,2020-01-08 09:38:30:516,0.0862,-0.0069,9.8566,0.0018,-0.0008,9.8066,-0.0118,-0.0219,0.0176,4.13,-29.44,30,352.22,-86.34,165.11
52.554695,-1.463064,0,0,6,0,25 / 25,34819,2020-01-08 09:38:30:616,0.134,0.0456,9.8988,0.0055,-0.0042,9.8066,-0.0159,-0.0006,0.0343,4,-29.62,30.38,352.3,-86.35,165.2
52.554695,-1.463064,0,0,6,0,25 / 25,34918,2020-01-08 09:38:30:715,-0.1274,0.0987,9.7055,-0.001,0.0011,9.8066,0.0127,-0.0351,-0.0051,4.31,-29.75,29.56,352.28,-86.36,165.18
