GPS LATITUDE (degrees), GPS LONGITUDE (degrees), GPS ALTITUDE (m), GPS SPEED (Kmh), GPS ACCURACY (m), GPS ORIENTATION (Â°),GPS SATELLITES IN RANGE, TIME SINCE START (ms), DATE (YYYY-MO-DD HH-MI-SS_SSS), ACCELEROMETER X (m/s²) , ACCELEROMETER Y (m/s²), ACCELEROMETER Z (m/s²), GRAVITY X (m/s²), GRAVITY Y (m/s²), GRAVITY Z (m/s²), GYROSCOPE Yaw (rad/s), GYROSCOPE Pitch (rad/s), GYROSCOPE Roll (rad/s), MAGNETIC FIELD X (Î¼T), MAGNETIC FIELD Y (Î¼T), MAGNETIC FIELD Z (Î¼T), ORIENTATION (Yaw) (Â°), ORIENTATION (Pitch) (Â°), ORIENTATION (Roll ) (Â°)
52.562946,-1.49791,135.3,21.84,3,116.47,25 / 25,602409,2020-01-08 17:42:16:002,0.6469,0.3656,10.9911,-0.015,-0.0003,9.8065,0.152,0.0113,-0.0307,-18.19,-34.06,15.75,327.85,-82.96,-158.3
52.562946,-1.49791,135.3,21.84,3,116.47,25 / 25,602510,2020-01-08 17:42:16:103,-0.4159,0.8213,9.3381,0.0002,0.0125,9.8066,0.0745,-0.0081,0.0661,-18.06,-33.81,15.94,327.69,-82.78,-158.28
52.562946,-1.49791,135.3,21.84,3,116.47,25 / 25,602610,2020-01-08 17:42:16:203,0.0688,0.5204,9.5944,-0.0311,-0.0145,9.8065,0.0602,0.1461,-0.1837,-17.62,-34.12,16.19,327.62,-82.71,-158.29
52.562946,-1.49791,135.3,21.84,3,116.47,25 / 25,602710,2020-01-08 17:42:16:303,-0.0988,-1.1957,9.5708,-0.0326,0,9.8066,0.0708,0.0749,-0.0258,-17.81,-33.31,15.31,325.7,-82.84,-158.2
52.562946,-1.49791,135.3,21.84,3,116.47,25 / 25,602810,2020-01-08 17:42:16:403,0.2535,-0.4933,11.0718,-0.0072,-0.0058,9.8066,0.0758,0.0847,-0.0174,-18,-33.25,15.69,327.62,-82.81,-158.52
52.562946,-1.49791,135.3,21.84,3,116.47,25 / 25,602909,2020-01-08 17:42:16:502,-0.0897,-0.1818,10.1895,-0.0153,0.0086,9.8065,0.109,0.0751,-0.0306,-18.31,-33.75,15.75,326.73,-82.73,-159.05
52.562946,-1.49791,135.3,21.84,3,116.47,25 / 25,603010,2020-01-08 17:42:16:603,1.1343,1.0111,9.9621,-0.0116,-0.0099,9.8065,0.0506,0.1198,-0.1346,-17.44,-33.81,16.5,329.69,-82.68,-159.87
52.562946,-1.49791,135.3,21.84,3,116.47,25 / 25,603109,2020-01-08 17:42:16:702,1.1348,0.2915,8.961,0.0032,0.0169,9.8066,0.0706,-0.018,0.0631,-18.12,-33.44,15.31,322.22,-82.69,-161.04
52.562946,-1.49791,135.3,21.84,3,116.47,25 / 25,603210,2020-01-08 17:42:16:803,0.0195,-0.2272,9.1474,-0.0129,-0.0041,9.8065,-0.0595,-0.0832,-0.0068,-17.94,-33.75,15.63,324.61,-82.74,-160.86
52.562946,-1.49791,135.3,21.84,3,116.47,25 / 25,603310,2020-01-08 17:42:16:903,-1.9813,-0.4023,8.1592,-0.0118,0.0294,9.8065,0.0563,-0.173,0.3222,-18.87,-33.62,15.63,324.79,-82.76,-159.37
52.562946,-1.49791,135.3,21.84,3,116.47,25 / 25,603409,2020-01-08 17:42:17:002,0.5043,-1.0318,10.9868,-0.0496,-0.0325,9.8064,0.0925,0.1291,-0.1965,-18.56,-33,14.94,325.65,-82.77,-156.85
52.562946,-1.49791,135.3,21.84,3,116.47,25 / 25,603510,2020-01-08 17:42:17:103,-1.0728,-0.0837,11.1267,-0.0404,0.0019,9.8065,0.1973,-0.1134,-0.0673,-18.06,-33.75,15.13,326.96,-82.86,-156.98
52.562946,-1.49791,135.3,21.84,3,116.47,25 / 25,603610,2020-01-08 17:42:17:203,1.3062,1.7545,10.5496,0.004,-0.0052,9.8066,0.0546,0.2952,0.0128,-18.37,-32.87,15,325.45,-82.65,-158.25
52.562946,-1.49791,135.3,21.84,3,116.47,25 / 25,603709,2020-01-08 17:42:17:302,-0.7144,-0.4588,8.8667,-0.02,0.0138,9.8065,0.1861,0.0253,-0.0073,-18.44,-33.31,15.5,327.92,-82.37,-157.92
52.562946,-1.49791,135.3,21.84,3,116.47,25 / 25,603810,2020-01-08 17:42:17:403,0.425,-0.6237,9.4888,-0.0289,-0.017,9.8065,0.0875,0.0974,-0.124,-17.87,-33.5,15.81,327.48,-82.5,-158.4
52.562946,-1.49791,135.3,21.84,3,116.47,25 / 25,603910,2020-01-08 17:42:17:503,-1.7683,-0.4174,8.7817,-0.0326,0.0488,9.8064,0.2421,0.0216,0.0526,-18.12,-34.06,15.75,325.31,-82.79,-160.31
52.562946,-1.49791,135.3,21.84,3,116.47,25 / 25,604010,2020-01-08 17:42:17:603,-0.1784,0.8357,10.8734,-0.0245,-0.006,9.8066,-0.0093,0.246,-0.2286,-17.37,-33.37,15.06,324.39,-82.76,-160.67
52.562946,-1.49791,135.3,21.84,3,116.47,25 / 25,604110,2020-01-08 17:42:17:703,2.051,-0.0983,12.6722,-0.0219,-0.0002,9.8066,0.2713,0.0591,-0.1971,-17.75,-33.56,15.63,322.12,-82.9,-163.13
52.562946,-1.49791,135.3,21.84,3,116.47,25 / 25,604209,2020-01-08 17:42:17:802,1.2236,3.4625,10.5684,0.0011,-0.043,9.8066,0.1356,0.4915,-0.1377,-17.81,-33.75,15.75,322.52,-82.69,-162.59
52.562946,-1.49791,135.3,21.84,3,116.47,25 / 25,604311,2020-01-08 17:42:17:904,-0.1695,-3.9475,11.8133,-0.0367,-0.0612,9.8063,-0.0547,0.2198,-0.2649,-17.62,-34,15.44,324.16,-82.48,-159.01
52.562946,-1.49791,135.3,21.84,3,116.47,25 / 25,604410,2020-01-08 17:42:18:003,2.8672,0.3168,8.373,0.0125,-0.0346,9.8065,-0.0983,0.4606,-0.0551,-18.25,-34,15.19,323.8,-82.6,-159.42
52.562946,-1.49791,135.3,21.84,3,116.47,25 / 25,604510,2020-01-08 17:42:18:103,-0.9107,-0.7212,10.2093,-0.0195,-0.0063,9.8066,-0.0043,0.0765,-0.1191,-17.94,-33.56,15.69,326.32,-82.65,-159.33
52.562946,-1.49791,135.3,21.84,3,116.47,25 / 25,604609,2020-01-08 17:42:18:202,1.2573,2.0717,10.0859,-0.0003,-0.0235,9.8066,0.0822,0.3032,-0.2114,-18.25,-33.44,15.5,326.5,-82.73,-159.41
52.562946,-1.49791,135.3,21.84,3,116.47,25 / 25,604710,2020-01-08 17:42:18:303,-0.8746,-1.5844,8.9899,-0.0298,-0.0134,9.8065,0.0636,0.0863,-0.052,-18.37,-33.31,15.56,323.94,-82.61,-161.49
52.562946,-1.49791,135.3,21.84,3,116.47,25 / 25,604810,2020-01-08 17:42:18:403,0.6974,1.265,9.8236,-0.0399,-0.026,9.8065,0.0884,0.1691,-0.1641,-18.06,-33.81,15.44,323.4,-82.61,-159.76
52.562946,-1.49791,135.3,21.84,3,116.47,25 / 25,604910,2020-01-08 17:42:18:503,-1.3995,-0.5878,8.6427,-0.0089,0.0101,9.8066,0.0014,-0.0689,0.0839,-18.12,-33.31,15.31,323.05,-82.65,-160.29
52.562946,-1.49791,135.3,21.84,3,116.47,25 / 25,605010,2020-01-08 17:42:18:603,-1.0132,-0.2809,10.1559,-0.0481,0.0069,9.8065,0.1293,0.1582,-0.123,-17.69,-33.25,15.88,326.13,-82.67,-159.68
52.562946,-1.49791,135.3,21.84,3,116.47,25 / 25,605110,2020-01-08 17:42:18:703,-3.4602,-1.8969,9.0808,0.0217,0.0087,9.8065,-0.0505,-0.1264,0.1704,-17.69,-33.62,15.44,322.38,-82.63,-160.64
52.562946,-1.49791,135.3,21.84,3,116.47,25 / 25,605210,2020-01-08 17:42:18:803,3.3753,1.8807,11.5381,-0.0807,-0.0339,9.8062,0.2691,0.4054,-0.2337,-17.69,-33.12,15.88,326.48,-82.54,-159.28
52.562946,-1.49791,135.3,21.84,3,116.47,24 / 24,605310,2020-01-08 17:42:18:903,-0.9822,-0.4643,8.9338,-0.0452,-0.0117,9.8065,0.0807,-0.1388,-0.0097,-18.12,-33.56,15.06,321.58,-82.38,-161.09
52.562946,-1.49791,135.3,21.84,3,116.47,24 / 24,605410,2020-01-08 17:42:19:003,2.538,1.94,10.4041,0.0328,-0.0127,9.8065,0.2835,0.3207,-0.1583,-17.37,-32.94,15.69,327.46,-82.34,-159.74
52.562946,-1.49791,135.3,21.84,3,116.47,24 / 24,605510,2020-01-08 17:42:19:103,-3.6168,-2.5125,9.2339,0.0564,0.0103,9.8065,0.2057,-0.1488,0.2159,-18.62,-32.87,16.19,322.76,-82.3,-160.89
52.562946,-1.49791,135.3,21.84,3,116.47,24 / 24,605609,2020-01-08 17:42:19:202,-0.1206,0.5566,11.3801,0.047,-0.0074,9.8065,-0.0869,0.1231,-0.0006,-18.44,-33.56,15.31,323.02,-82.41,-159.91
52.562946,-1.49791,135.3,21.84,3,116.47,24 / 24,605710,2020-01-08 17:42:19:303,-1.2472,-0.8571,9.0167,0.0567,0.0188,9.8064,-0.1809,-0.1687,0.1191,-18.37,-32.94,15.63,323.39,-82.25,-161.64
52.562946,-1.49791,135.3,21.84,3,116.47,24 / 24,605810,2020-01-08 17:42:19:403,0.9709,1.7964,9.1996,-0.0117,-0.0064,9.8066,-0.0464,0.1758,-0.2018,-17.62,-33.62,15.63,323.26,-82.38,-161.68
52.562946,-1.49791,135.3,21.84,3,116.47,24 / 24,605909,2020-01-08 17:42:19:502,0.6642,0.9047,10.1868,-0.0077,0.0407,9.8065,0.1225,-0.0836,0.0623,-18.31,-33.69,14.75,320.69,-82.58,-162.04
52.562946,-1.49791,135.3,21.84,3,116.47,24 / 24,606010,2020-01-08 17:42:19:603,-0.1424,0.8674,9.0188,-0.0182,0.0006,9.8065,0.0168,0.2256,-0.0591,-18.19,-33.94,15.25,320.14,-82.5,-162.43
52.562946,-1.49791,135.3,21.84,3,116.47,24 / 24,606110,2020-01-08 17:42:19:703,0.1311,0.634,10.7665,-0.0349,-0.0069,9.8065,0.1227,0.0044,-0.1226,-18.06,-33.44,15.38,321.26,-82.52,-161.7
52.562946,-1.49791,135.3,21.84,3,116.47,24 / 24,606210,2020-01-08 17:42:19:803,-0.6535,-0.4518,9.4586,-0.0081,-0.0153,9.8065,-0.0669,0.1891,0.0241,-18.56,-33.94,15.56,321.34,-82.39,-161.99
52.562946,-1.49791,135.3,21.84,3,116.47,25 / 25,606309,2020-01-08 17:42:19:902,-0.2526,2.0275,9.3042,-0.0319,-0.0142,9.8066,-0.0246,0.1518,-0.1059,-18.62,-33.81,15.63,323.4,-82.44,-160.28
52.562946,-1.49791,135.3,21.84,3,116.47,25 / 25,606409,2020-01-08 17:42:20:002,-0.7355,-1.4642,9.3898,0.008,-0.0138,9.8065,-0.0375,0.0538,0.0593,-18.69,-33.44,15.25,322.22,-82.5,-159.55
52.562946,-1.49791,135.3,21.84,3,116.47,25 / 25,606510,2020-01-08 17:42:20:103,1.3887,1.2025,10.0651,-0.0167,-0.0183,9.8065,0.0321,0.1977,-0.1899,-18.44,-33.37,16.06,326.67,-82.36,-158.97
52.562946,-1.49791,135.3,21.84,3,116.47,25 / 25,606610,2020-01-08 17:42:20:203,-0.62,-0.8977,8.8237,-0.0169,0.0004,9.8066,0.1599,0.1282,-0.1667,-17.87,-33.44,15.75,324.35,-82.42,-160.99
52.562946,-1.49791,135.3,21.84,3,116.47,25 / 25,606710,2020-01-08 17:42:20:303,-1.0522,0.4486,8.8025,-0.0014,-0.0134,9.8066,-0.1245,0.1013,0.0162,-17.87,-33.75,15.44,320.7,-82.46,-161.91
52.562946,-1.49791,135.3,21.84,3,116.47,25 / 25,606810,2020-01-08 17:42:20:403,-0.8603,-0.0024,10.9264,0.0035,-0.0042,9.8066,0.1012,0.016,0.0733,-17.81,-33.69,15.31,322.97,-82.56,-160.09
52.562946,-1.49791,135.3,21.84,3,116.47,25 / 25,606910,2020-01-08 17:42:20:503,0.9669,0.2232,10.7805,0.0076,-0.0242,9.8066,0.0798,0.061,-0.102,-18.19,-33.12,15.56,325.65,-82.32,-159.79
52.562946,-1.49791,135.3,21.84,3,116.47,25 / 25,607010,2020-01-08 17:42:20:603,-0.1762,1.7803,8.6562,-0.0433,-0.0031,9.8065,-0.0197,0.0706,-0.1548,-18.19,-33.31,15.31,321.71,-82.28,-161.09
52.562946,-1.49791,135.3,21.84,3,116.47,25 / 25,607110,2020-01-08 17:42:20:703,-0.2649,-0.4102,9.6522,-0.0211,0.032,9.8065,0.0634,0.034,0.0591,-17.94,-33.69,15.56,325.28,-82.61,-160.18
52.562946,-1.49791,135.3,21.84,3,116.47,25 / 25,607209,2020-01-08 17:42:20:802,1.1418,0.7491,9.7535,0.0002,0.0143,9.8066,0.0081,-0.0754,0.076,-18.5,-33.31,15.13,323.28,-82.63,-160.08
52.562946,-1.49791,135.3,21.84,3,116.47,25 / 25,607310,2020-01-08 17:42:20:903,-0.0918,0.089,9.3407,0.02,-0.0101,9.8065,0.04,-0.103,-0.0105,-17.87,-33.25,15.56,325.79,-82.6,-159.91
52.562946,-1.49791,135.3,21.84,3,116.47,25 / 25,607410,2020-01-08 17:42:21:003,1.4835,1.0862,9.4764,0.0037,-0.0041,9.8066,-0.0878,-0.0536,0.0084,-18.12,-34.12,15.75,324.83,-82.52,-160.48
52.562946,-1.49791,135.3,21.84,3,116.47,25 / 25,607509,2020-01-08 17:42:21:102,-0.3011,-1.3699,10.2433,0.0013,0.0227,9.8065,0.0083,-0.0733,0.1114,-18.62,-33.44,15.81,323.94,-82.59,-160.13
52.562946,-1.49791,135.3,21.84,3,116.47,25 / 25,607610,2020-01-08 17:42:21:203,-1.1018,0.3972,10.3973,0.0057,0.0193,9.8066,-0.0023,-0.1993,0.0664,-18.19,-33.56,14.69,323.15,-82.74,-160.11
52.562946,-1.49791,135.3,21.84,3,116.47,25 / 25,607709,2020-01-08 17:42:21:302,-1.0247,-0.2569,8.9066,0.0265,0.0031,9.8065,-0.0877,-0.0562,0.0922,-18.19,-33.94,15.69,325.44,-82.75,-160.17
52.562946,-1.49791,135.3,21.84,3,116.47,25 / 25,607810,2020-01-08 17:42:21:403,0.3373,0.7537,10.5895,0.0103,0.0056,9.8066,-0.0249,-0.0842,-0.0425,-18.25,-34.06,15.31,323.85,-82.82,-159.59
52.562946,-1.49791,135.3,21.84,3,116.47,25 / 25,607910,2020-01-08 17:42:21:503,-0.461,-0.0275,9.6753,0.0392,0.0143,9.8065,-0.0998,-0.0664,0.1688,-18,-33.69,15.69,324.35,-82.81,-161.15
52.562946,-1.49791,135.3,21.84,3,116.47,25 / 25,608011,2020-01-08 17:42:21:604,1.2178,1.0796,10.7293,0.0194,0.0005,9.8065,-0.0397,-0.118,0.0176,-18.5,-33.62,15.88,324.47,-82.74,-160.98
52.562946,-1.49791,135.3,21.84,3,116.47,25 / 25,608110,2020-01-08 17:42:21:703,-1.0524,-0.4438,9.3714,0.0371,0.0106,9.8065,-0.0878,-0.1781,0.2044,-18.56,-33.94,15.5,322.81,-82.82,-161.12
52.562946,-1.49791,135.3,21.84,3,116.47,25 / 25,608209,2020-01-08 17:42:21:802,0.9133,1.3591,9.9038,0.0139,-0.0093,9.8066,-0.028,0.0283,-0.0523,-18.62,-33.56,15.44,322.17,-82.83,-159.71
52.562946,-1.49791,135.3,21.84,3,116.47,25 / 25,608310,2020-01-08 17:42:21:903,-0.7259,-1.125,10.3094,0.0287,0.0159,9.8065,-0.0104,0.11,-0.0935,-17.87,-33.69,15.75,324.83,-82.71,-160.65
52.562946,-1.49791,135.3,21.84,3,116.47,25 / 25,608410,2020-01-08 17:42:22:003,1.0361,-0.0506,10.0213,0.0219,-0.0037,9.8066,-0.1144,-0.0089,0.0733,-18.12,-33.56,15.69,326.35,-82.63,-159.29
52.562946,-1.49791,135.3,21.84,3,116.47,25 / 25,608510,2020-01-08 17:42:22:103,-0.7255,-1.2582,10.2467,-0.0204,0.0118,9.8066,-0.102,0.0214,-0.0343,-18.25,-33.75,15.56,326.49,-82.64,-159.18
52.562946,-1.49791,135.3,21.84,3,116.47,25 / 25,608609,2020-01-08 17:42:22:202,0.0771,-1.0868,9.7648,-0.0027,-0.0011,9.8066,-0.0793,0.0979,0.0089,-18.62,-32.94,15.44,324.8,-82.73,-157.55
52.562946,-1.49791,135.3,21.84,3,116.47,25 / 25,608710,2020-01-08 17:42:22:303,-0.9449,0.4061,8.6944,0.0019,-0.0015,9.8066,-0.0976,0.0811,-0.0168,-18.62,-33.06,15.13,325.1,-82.82,-157.37
52.562946,-1.49791,135.3,21.84,3,116.47,25 / 25,608809,2020-01-08 17:42:22:402,-0.7208,0.5454,9.4374,0.0251,-0.0011,9.8066,-0.004,-0.0046,-0.0734,-18.56,-33.25,14.63,324.7,-82.9,-157.78
52.562946,-1.49791,135.3,21.84,3,116.47,25 / 25,608910,2020-01-08 17:42:22:503,-0.6932,-0.7224,9.76,0.0251,0.0208,9.8066,-0.0203,-0.0086,-0.0287,-18.12,-33.69,15.19,324.2,-82.83,-159.3
52.562946,-1.49791,135.3,21.84,3,116.47,25 / 25,609010,2020-01-08 17:42:22:603,0.3877,-0.2007,10.0291,0.0101,0.0039,9.8066,-0.0265,-0.0231,0.073,-18.19,-33.31,15.19,324.92,-82.82,-158.86
52.562946,-1.49791,135.3,21.84,3,116.47,25 / 25,609109,2020-01-08 17:42:22:702,0.1906,1.4112,9.5419,-0.011,-0.0134,9.8066,-0.0132,-0.122,0.1093,-17.44,-33.62,15.19,326.25,-82.8,-158.96
52.562946,-1.49791,135.3,21.84,3,116.47,25 / 25,609211,2020-01-08 17:42:22:804,-0.5798,0.7346,8.7463,-0.0108,0.0198,9.8066,-0.1124,-0.219,0.0314,-18.37,-33.69,14.75,324.36,-82.85,-159.18
52.562946,-1.49791,135.3,21.84,3,116.47,25 / 25,609310,2020-01-08 17:42:22:903,0.919,0.8885,9.137,-0.0227,-0.0086,9.8065,-0.0655,-0.0294,0.1469,-18.25,-33.62,14.31,323.02,-82.66,-158.03
52.562946,-1.49791,135.3,21.84,3,116.47,25 / 25,609410,2020-01-08 17:42:23:003,-0.6039,-1.0683,10.0399,-0.0208,-0.0173,9.8066,0.0109,-0.0099,-0.0253,-17.87,-33.94,14.81,324.83,-82.81,-158.74
52.562946,-1.49791,135.3,21.84,3,116.47,25 / 25,609510,2020-01-08 17:42:23:103,1.3633,2.1959,9.1326,0.0246,-0.002,9.8066,0.0255,-0.2321,0.0315,-17.56,-34.81,14.75,325.29,-82.89,-158.25
52.562946,-1.49791,135.3,21.84,3,116.47,25 / 25,609610,2020-01-08 17:42:23:203,0.4513,-0.8267,10.2793,0.0313,0.0336,9.8065,-0.0271,-0.1013,0.1194,-18.12,-34.5,16.06,329.77,-82.87,-156.6
52.562946,-1.49791,135.3,21.84,3,116.47,25 / 25,609710,2020-01-08 17:42:23:303,0.7605,1.2463,10.1338,-0.0305,-0.0463,9.8065,-0.0494,-0.1362,0.1916,-18.06,-34.5,16.56,331.4,-82.74,-157
52.562946,-1.49791,135.3,21.84,3,116.47,25 / 25,609809,2020-01-08 17:42:23:402,-1.2707,-1.0688,8.9392,-0.0033,-0.0142,9.8066,-0.1246,-0.2937,-0.0016,-18.31,-33.56,16.25,327.49,-82.75,-158.42
52.562946,-1.49791,135.3,21.84,3,116.47,25 / 25,609909,2020-01-08 17:42:23:502,1.7691,1.0443,8.4297,-0.0159,-0.0185,9.8065,-0.0447,-0.1385,0.1828,-18.37,-33.12,15.81,329.85,-82.8,-156.62
52.562946,-1.49791,135.3,21.84,3,116.47,25 / 25,610010,2020-01-08 17:42:23:603,0.0714,0.9532,9.4613,-0.012,0.014,9.8066,0.0052,-0.0077,0.0909,-18.5,-33.25,14.88,328.14,-83.04,-156.3
52.562946,-1.49791,135.3,21.84,3,116.47,25 / 25,610110,2020-01-08 17:42:23:703,0.5208,0.2198,9.9282,0.0277,-0.0015,9.8065,0.0184,0.0803,-0.1053,-19,-33.12,15.13,324.83,-82.99,-157.75
52.562946,-1.49791,135.3,21.84,3,116.47,25 / 25,610210,2020-01-08 17:42:23:803,-0.198,-0.1579,10.2684,0.0046,0.0201,9.8066,0.0154,0.0659,-0.0176,-19.12,-33.12,15.13,323.89,-82.82,-158.41
52.562946,-1.49791,135.3,21.84,3,116.47,25 / 25,610310,2020-01-08 17:42:23:903,-1.3947,-0.3372,9.1151,0.0038,-0.0049,9.8066,-0.019,0.1877,-0.146,-18.56,-33.75,14.94,323.37,-82.91,-158.76
52.562946,-1.49791,135.3,21.84,3,116.47,25 / 25,610410,2020-01-08 17:42:24:003,0.9674,2.402,9.1374,0.0015,0.0425,9.8065,0.0084,0.2314,-0.1862,-18.44,-33.75,15.56,327.83,-83.13,-158.45
52.562946,-1.49791,135.3,21.84,3,116.47,25 / 25,610510,2020-01-08 17:42:24:103,-1.0988,-0.6984,10.2636,0.0015,0.0096,9.8066,-0.0235,0.2038,-0.1111,-18.62,-33.75,14.69,325.45,-83.08,-157.13
52.562946,-1.49791,135.3,21.84,3,116.47,25 / 25,610610,2020-01-08 17:42:24:203,0.062,0.1958,9.3273,-0.0023,0.0247,9.8066,-0.0674,0.069,-0.1163,-18.12,-33.25,14.44,325.15,-82.95,-156.68
52.562946,-1.49791,135.3,21.84,3,116.47,25 / 25,610710,2020-01-08 17:42:24:303,-0.8017,-0.1304,10.4059,-0.0193,0.0152,9.8066,-0.0236,0.1672,-0.0535,-17.87,-33.19,15.19,327.13,-83.07,-157.18
52.562946,-1.49791,135.3,21.84,3,116.47,25 / 25,610810,2020-01-08 17:42:24:403,0.4222,1.5848,10.2326,0.0047,0.0121,9.8066,0.0264,0.1606,-0.0914,-17.87,-33.75,14.31,324.04,-83.02,-157.51
52.562946,-1.49791,135.3,21.84,3,116.47,25 / 25,610910,2020-01-08 17:42:24:503,-2.3583,-1.9285,9.1659,0.0512,0.04,9.8064,-0.1038,0.273,-0.189,-18.25,-33.75,15.44,323.64,-83.14,-160.06
52.562946,-1.49791,135.3,21.84,3,116.47,25 / 25,611010,2020-01-08 17:42:24:603,1.1427,0.7168,10.0518,0.0054,0.0364,9.8066,-0.0587,-0.0465,-0.2243,-18.25,-33.25,15.63,326.56,-83.22,-159.76
52.562946,-1.49791,135.3,21.84,3,116.47,25 / 25,611110,2020-01-08 17:42:24:703,0.1108,-0.7117,10.005,0.0028,0.001,9.8066,-0.0712,0.1768,-0.0157,-18.37,-33.31,14.69,324.91,-83.24,-159.23
52.562946,-1.49791,135.3,21.84,3,116.47,25 / 25,611210,2020-01-08 17:42:24:803,-0.4566,0.9002,10.77,-0.0164,0.0367,9.8065,-0.0786,0.202,-0.1122,-18.37,-33.62,15.13,325.77,-83.24,-158.32
52.56215,-1.495225,136.93,23.03,3,116.23,25 / 25,611310,2020-01-08 17:42:24:903,-0.3545,-0.2728,9.0324,-0.0054,-0.0149,9.8066,-0.0508,-0.0466,0.0491,-18.37,-33.62,14.81,327.13,-83.52,-157.4
52.56215,-1.495225,136.93,23.03,3,116.23,25 / 25,611410,2020-01-08 17:42:25:003,-1.3552,-0.4365,10.5305,-0.0195,0.002,9.8066,-0.0428,-0.1045,0.1049,-18.37,-33.75,15.25,329.05,-83.46,-155.71
52.56215,-1.495225,136.93,23.03,3,116.23,25 / 25,611510,2020-01-08 17:42:25:103,0.0375,0.2817,9.2311,0.0132,0.0075,9.8066,-0.0736,0.0193,0.0678,-17.94,-33.62,15.56,330.36,-83.35,-156.46
52.56215,-1.495225,136.93,23.03,3,116.23,25 / 25,611610,2020-01-08 17:42:25:203,1.0912,1.3497,10.2579,-0.023,0.0013,9.8065,-0.0872,0.0116,0.0425,-18.31,-33.62,14.69,329.12,-83.36,-155.57
52.56215,-1.495225,136.93,23.03,3,116.23,25 / 25,611710,2020-01-08 17:42:25:303,-0.9351,1.068,9.9365,-0.0055,0.0045,9.8065,0.0215,-0.1179,0.0996,-18.56,-33.37,15.38,328.13,-83.35,-155.2
52.56215,-1.495225,136.93,23.03,3,116.23,25 / 25,611810,2020-01-08 17:42:25:403,1.5149,0.1354,9.6801,-0.0115,-0.0141,9.8065,0.0182,-0.1369,0.0337,-18.31,-32.81,14.81,329.87,-83.36,-155.07
52.56215,-1.495225,136.93,23.03,3,116.23,25 / 25,611910,2020-01-08 17:42:25:503,0.4984,0.7393,8.169,-0.0344,0.0314,9.8065,0.0216,-0.0698,0.0213,-18.75,-33.62,15,328,-83.27,-155.1
52.56215,-1.495225,136.93,23.03,3,116.23,25 / 25,612010,2020-01-08 17:42:25:603,-0.3459,-0.2693,9.6818,-0.0126,0.0052,9.8066,-0.0022,-0.0747,0.0937,-17.69,-33.56,15.19,331.65,-83.5,-153.52
52.56215,-1.495225,136.93,23.03,3,116.23,25 / 25,612110,2020-01-08 17:42:25:703,-2.6236,-0.5072,9.3293,0.0199,0.0155,9.8066,-0.0528,-0.266,0.0796,-18.69,-33.5,14.19,326.29,-83.55,-154.92
52.56215,-1.495225,136.93,23.03,3,116.23,25 / 25,612209,2020-01-08 17:42:25:802,-0.5821,-0.8508,10.934,0,0.0051,9.8066,-0.0081,-0.205,0.1349,-18.25,-33.62,14.31,328.1,-83.51,-154.49
52.56215,-1.495225,136.93,23.03,3,116.23,25 / 25,612312,2020-01-08 17:42:25:905,0.5817,0.9188,8.6386,0.0089,0.02,9.8066,-0.1297,-0.0171,-0.0053,-18,-33.75,15.06,328.3,-83.46,-156.35
52.56215,-1.495225,136.93,23.03,3,116.23,25 / 25,612410,2020-01-08 17:42:26:003,0.0236,-0.3273,10.2296,-0.0257,0.0163,9.8066,-0.1254,-0.0937,0.0466,-18.12,-33.87,14.69,329.09,-83.47,-155.68
52.56215,-1.495225,136.93,23.03,3,116.23,25 / 25,612510,2020-01-08 17:42:26:103,-1.6753,-0.1081,9.9251,-0.0009,0.0159,9.8066,0.0173,-0.0488,0.0398,-18.25,-33.69,14.88,329.53,-83.47,-155.31
52.56215,-1.495225,136.93,23.03,3,116.23,25 / 25,612609,2020-01-08 17:42:26:202,-1.0524,-1.506,10.0173,0.0075,0.0212,9.8066,-0.0044,0.0596,-0.0886,-18.31,-34.06,14.69,329.07,-83.63,-155.82
52.56215,-1.495225,136.93,23.03,3,116.23,25 / 25,612710,2020-01-08 17:42:26:303,-0.297,-0.0298,9.4628,-0.013,0.0106,9.8066,-0.0709,0.1452,-0.017,-18.06,-33.44,14.69,330.76,-83.59,-154.48
52.56215,-1.495225,136.93,23.03,3,116.23,25 / 25,612809,2020-01-08 17:42:26:402,-0.979,0.9921,9.4294,-0.0148,0.0025,9.8066,-0.0548,-0.0961,0.0378,-18.12,-33.5,15.13,331.05,-83.55,-154.2
52.56215,-1.495225,136.93,23.03,3,116.23,25 / 25,612910,2020-01-08 17:42:26:503,0.3323,-0.006,9.5518,-0.0329,0.0111,9.8065,0.0038,0.072,0.0337,-18.87,-33.5,14.94,328.65,-83.51,-154.87
52.56215,-1.495225,136.93,23.03,3,116.23,25 / 25,613010,2020-01-08 17:42:26:603,-0.0722,1.0068,9.8086,0.0099,0.0114,9.8066,0.0549,0.0621,-0.1185,-18.44,-33.62,14.5,330.25,-83.74,-154.9
52.56215,-1.495225,136.93,23.03,3,116.23,25 / 25,613111,2020-01-08 17:42:26:704,1.2994,1.3178,10.9398,0.0025,-0.035,9.8066,0.123,0.0792,0.042,-18.31,-34,14.56,331.02,-83.8,-154.29
52.56215,-1.495225,136.93,23.03,3,116.23,25 / 25,613210,2020-01-08 17:42:26:803,-0.9909,-0.1585,9.1373,0.0285,-0.0112,9.8065,0.1223,0.0163,-0.1204,-17.94,-33.31,14.75,329.62,-83.63,-155.49
52.56215,-1.495225,136.93,23.03,3,116.23,25 / 25,613310,2020-01-08 17:42:26:903,-0.1505,-0.1457,9.7596,-0.0134,0,9.8066,0.0848,0.127,-0.117,-18.5,-33.19,14.81,331.5,-83.64,-153.88
52.56215,-1.495225,136.93,23.03,3,116.23,24 / 25,613410,2020-01-08 17:42:27:003,1.0713,1.9235,9.5039,0.0115,0.0124,9.8066,0.0257,0.0168,0.0848,-18.37,-32.87,15.75,333.82,-83.66,-153.85
52.56215,-1.495225,136.93,23.03,3,116.23,24 / 25,613510,2020-01-08 17:42:27:103,0.0109,0.8817,8.8368,-0.0101,-0.0383,9.8065,0.0156,-0.1601,0.0873,-17.94,-33.12,14.88,330.87,-83.72,-154.48
52.56215,-1.495225,136.93,23.03,3,116.23,24 / 25,613609,2020-01-08 17:42:27:202,0.0539,0.7023,9.4391,-0.0063,-0.0027,9.8066,-0.005,-0.06,0.1078,-18.56,-33.62,14.56,330.55,-83.62,-153.18
52.56215,-1.495225,136.93,23.03,3,116.23,24 / 25,613710,2020-01-08 17:42:27:303,-0.6496,-0.8278,9.8427,-0.0214,-0.0197,9.8066,-0.0167,-0.01,0.0702,-17.81,-33.81,14.75,333.11,-83.65,-152.38
52.56215,-1.495225,136.93,23.03,3,116.23,24 / 25,613810,2020-01-08 17:42:27:403,0.1051,1.2481,9.8705,-0.0046,0.0336,9.8065,0.0046,-0.1536,0.039,-18.75,-33.25,15.25,331.7,-83.88,-152.5
52.56215,-1.495225,136.93,23.03,3,116.23,24 / 25,613910,2020-01-08 17:42:27:503,0.3389,-0.3367,10.0005,0.0036,-0.0336,9.8065,0.0256,-0.2875,0.1314,-18.44,-33.56,14.88,333.61,-83.87,-152.12
52.56215,-1.495225,136.93,23.03,3,116.23,24 / 25,614010,2020-01-08 17:42:27:603,-0.59,-0.9616,10.5584,0,0.0113,9.8066,0.0593,0.0489,-0.074,-18.25,-33.62,15.25,331.26,-83.75,-154.03
52.56215,-1.495225,136.93,23.03,3,116.23,24 / 25,614110,2020-01-08 17:42:27:703,0.1911,0.4067,9.4806,0.0073,0.0177,9.8066,-0.0168,-0.0062,-0.1142,-18.19,-33.44,15.31,331.32,-83.76,-154.13
52.56215,-1.495225,136.93,23.03,3,116.23,24 / 25,614210,2020-01-08 17:42:27:803,0.2275,-0.1397,10.3019,-0.0253,0.0072,9.8065,-0.0248,-0.1523,0.1161,-18.44,-33.69,14.75,331.31,-83.92,-154.13
52.56215,-1.495225,136.93,23.03,3,116.23,25 / 25,614309,2020-01-08 17:42:27:902,-0.9909,-0.8776,9.2223,0.0059,-0.0139,9.8066,0.0238,-0.0903,0.0283,-18.37,-33.19,15,331.74,-83.86,-153.84
52.56215,-1.495225,136.93,23.03,3,116.23,25 / 25,614410,2020-01-08 17:42:28:003,0.1723,-0.2191,9.6453,-0.0228,-0.02,9.8065,0.0741,-0.0526,0.0229,-18.37,-33.19,15.69,335.47,-83.82,-152.52
52.56215,-1.495225,136.93,23.03,3,116.23,25 / 25,614510,2020-01-08 17:42:28:103,-0.0651,-0.267,9.0445,0.0062,-0.023,9.8066,0.1197,-0.0715,0.0789,-18.81,-33.56,15.5,332.02,-83.83,-153.98
52.56215,-1.495225,136.93,23.03,3,116.23,25 / 25,614609,2020-01-08 17:42:28:202,0.941,1.3022,9.2711,-0.0027,-0.0106,9.8066,-0.0143,-0.0821,-0.0525,-18.12,-33.69,15.06,331.64,-83.72,-153.69
52.56215,-1.495225,136.93,23.03,3,116.23,25 / 25,614710,2020-01-08 17:42:28:303,-0.9362,-0.9617,9.9537,-0.0346,-0.0176,9.8066,-0.0856,-0.1184,0.1393,-18,-33.56,15.56,332.4,-83.76,-155.01
52.56215,-1.495225,136.93,23.03,3,116.23,25 / 25,614810,2020-01-08 17:42:28:403,-0.0253,-0.3394,9.9236,0.0309,0.024,9.8065,-0.0696,0.0335,0.2086,-18,-33.44,15.38,330.35,-83.8,-154.99
52.56215,-1.495225,136.93,23.03,3,116.23,25 / 25,614910,2020-01-08 17:42:28:503,-0.93,0.8547,9.7273,0.0072,0.0426,9.8065,-0.0293,-0.0672,-0.1354,-17.94,-33.87,15.06,331.32,-84.1,-154.25
52.56215,-1.495225,136.93,23.03,3,116.23,25 / 25,615010,2020-01-08 17:42:28:603,1.3061,-0.1628,9.9429,-0.0207,-0.0071,9.8065,0.0887,-0.0255,0.1202,-18.19,-33.81,15.31,333.27,-84.05,-152.53
52.56215,-1.495225,136.93,23.03,3,116.23,25 / 25,615109,2020-01-08 17:42:28:702,1.7334,0.9676,10.718,0.0351,-0.0108,9.8065,0.0638,0.1293,0.0438,-18.31,-34.06,14.94,332.34,-84.05,-153.33
52.56215,-1.495225,136.93,23.03,3,116.23,25 / 25,615210,2020-01-08 17:42:28:803,-0.31,-0.8375,10.1369,0.031,0.02,9.8066,0.0551,-0.0043,0.0423,-18.37,-33.62,14.69,331.27,-83.93,-154.17
52.56215,-1.495225,136.93,23.03,3,116.23,25 / 25,615311,2020-01-08 17:42:28:904,1.3602,1.0164,11.109,0.0538,0.0096,9.8065,0.0174,-0.0314,0.0188,-18.69,-33.37,15.31,331.94,-84.02,-152.39
52.56215,-1.495225,136.93,23.03,3,116.23,25 / 25,615410,2020-01-08 17:42:29:003,0.3011,1.0358,7.8399,0.0386,-0.0332,9.8065,-0.1453,-0.004,-0.0254,-17.81,-34.12,15.06,331.22,-83.86,-154.16
52.56215,-1.495225,136.93,23.03,3,116.23,25 / 25,615510,2020-01-08 17:42:29:103,1.0689,0.4292,10.3641,0.009,-0.0197,9.8066,-0.0479,-0.0678,0.1393,-18.31,-33.87,15,330.32,-83.91,-154.96
52.56215,-1.495225,136.93,23.03,3,116.23,25 / 25,615610,2020-01-08 17:42:29:203,-0.0775,-0.5142,10.0546,0.0233,0.0275,9.8066,0.038,-0.1674,0.0363,-17.87,-33.69,15.25,330.52,-84.02,-154.88
52.56215,-1.495225,136.93,23.03,3,116.23,25 / 25,615710,2020-01-08 17:42:29:303,-0.6989,0.742,10.3607,-0.008,-0.018,9.8065,0.0386,-0.3059,0.0008,-18.06,-33.62,15.38,331.46,-83.9,-153.97
52.56215,-1.495225,136.93,23.03,3,116.23,25 / 25,615809,2020-01-08 17:42:29:402,1.1337,0.8806,9.0662,0.0291,-0.0165,9.8065,-0.1545,-0.1375,0.2133,-17.75,-32.87,14.75,329.74,-83.71,-155.45
52.56215,-1.495225,136.93,23.03,3,116.23,25 / 25,615910,2020-01-08 17:42:29:503,1.6675,1.7279,11.1462,-0.0109,-0.0114,9.8066,-0.2706,-0.2085,0.3342,-18,-33.56,14.44,327.9,-83.73,-154.85
52.56215,-1.495225,136.93,23.03,3,116.23,25 / 25,616010,2020-01-08 17:42:29:603,-2.0593,-2.8918,10.3525,0.0671,-0.0107,9.8064,-0.1286,-0.4819,0.2198,-17.87,-33.56,14.44,329.27,-83.67,-153.62
52.56215,-1.495225,136.93,23.03,3,116.23,25 / 25,616110,2020-01-08 17:42:29:703,-1.6099,-1.8123,10.1924,-0.0575,-0.0097,9.8064,-0.2945,-0.7738,0.4945,-17.69,-33.69,14.31,331.37,-83.73,-151.88
52.56215,-1.495225,136.93,23.03,3,116.23,25 / 25,616210,2020-01-08 17:42:29:803,-5.7516,-5.8189,5.6674,0.1332,0.0067,9.8057,-0.4076,-0.5394,0.4032,-18.62,-34.12,14.56,325.21,-83.56,-157.74
52.56215,-1.495225,136.93,23.03,3,116.23,25 / 25,616310,2020-01-08 17:42:29:903,3.2168,3.2039,9.2849,-0.1561,-0.0427,9.8053,-0.2277,-0.5294,0.4568,-18.25,-33.87,14.81,326.95,-83.59,-157.62
52.56215,-1.495225,136.93,23.03,3,116.23,25 / 25,616410,2020-01-08 17:42:30:003,3.3678,0.3691,11.9286,0.0644,0.0765,9.8061,0.0278,-0.4784,0.4116,-18.5,-33.37,15.5,335.49,-83.79,-152.49
52.56215,-1.495225,136.93,23.03,3,116.23,25 / 25,616510,2020-01-08 17:42:30:103,4.1679,4.3239,10.6182,-0.0945,-0.0521,9.806,0.0662,-0.1086,-0.1191,-18.37,-33.12,15.25,334.74,-83.69,-151.14
52.56215,-1.495225,136.93,23.03,3,116.23,25 / 25,616610,2020-01-08 17:42:30:203,1.4741,0.6439,9.2668,0.0069,0.0215,9.8065,-0.0215,0.2205,-0.1039,-18.25,-33,14.88,336.39,-83.83,-149.81
52.56215,-1.495225,136.93,23.03,3,116.23,25 / 25,616709,2020-01-08 17:42:30:302,-3.412,-3.7175,10.1411,-0.0383,-0.0523,9.8063,-0.122,0.3381,-0.1644,-17.75,-33.37,14.38,336.25,-83.7,-147.83
52.56215,-1.495225,136.93,23.03,3,116.23,25 / 25,616810,2020-01-08 17:42:30:403,-3.1664,-1.307,8.315,0.0248,-0.0192,9.8065,-0.1078,0.3046,-0.2047,-18.31,-34.25,14.75,335.73,-83.83,-150.27
52.56215,-1.495225,136.93,23.03,3,116.23,25 / 25,616909,2020-01-08 17:42:30:502,-1.3691,-1.8755,10.5295,-0.0435,-0.0665,9.8062,-0.0415,0.4801,-0.2939,-18.62,-33.44,14.63,333.25,-84.12,-151.31
52.56215,-1.495225,136.93,23.03,3,116.23,25 / 25,617010,2020-01-08 17:42:30:603,2.7583,3.0044,10.2177,-0.0014,-0.034,9.8065,0.033,0.558,-0.2928,-18.06,-33.87,14.25,334.74,-83.93,-149.15
52.56215,-1.495225,136.93,23.03,3,116.23,25 / 25,617110,2020-01-08 17:42:30:703,-0.7022,-2.8897,10.8706,-0.0456,-0.0181,9.8065,0.2009,0.4513,-0.3349,-18.94,-33.69,14.25,330.99,-83.92,-151.01
52.56215,-1.495225,136.93,23.03,3,116.23,25 / 25,617210,2020-01-08 17:42:30:803,3.8873,3.3357,10.7215,-0.0549,-0.0556,9.8062,0.2205,0.3605,-0.2991,-18,-33.69,14.69,336.62,-83.74,-149.46
52.56215,-1.495225,136.93,23.03,3,116.23,24 / 24,617310,2020-01-08 17:42:30:903,-4.426,-0.9946,6.9581,-0.1166,0.003,9.8059,0.3588,0.3763,-0.3518,-18.5,-33.5,15,341.56,-84.06,-145.51
52.56215,-1.495225,136.93,23.03,3,116.23,24 / 24,617410,2020-01-08 17:42:31:003,1.1075,1.9652,9.1756,-0.0813,-0.046,9.8062,0.3478,0.3925,-0.3536,-18.31,-34,14.81,340.72,-83.9,-146.07
52.56215,-1.495225,136.93,23.03,3,116.23,24 / 24,617510,2020-01-08 17:42:31:103,-2.9471,-3.4569,9.6672,-0.0584,-0.0069,9.8064,0.2254,0.1641,-0.136,-18.44,-33.62,14.94,336.84,-83.85,-149.34
52.56215,-1.495225,136.93,23.03,3,116.23,24 / 24,617609,2020-01-08 17:42:31:202,0.6054,-0.0543,10.7605,-0.0339,-0.0397,9.8064,0.1445,0.0207,-0.0545,-18.12,-33.12,15.5,341.26,-83.76,-147.52
52.56215,-1.495225,136.93,23.03,3,116.23,24 / 24,617709,2020-01-08 17:42:31:302,-1.6804,-1.2653,10.26,-0.0322,0.023,9.8065,0.1166,-0.0666,0.052,-18.62,-32.81,14.69,335.22,-83.75,-149.37
52.56215,-1.495225,136.93,23.03,3,116.23,24 / 24,617810,2020-01-08 17:42:31:403,1.0471,0.7316,9.7481,-0.025,-0.0302,9.8066,0.101,-0.0587,0.0424,-18.31,-33.06,14.56,338.77,-83.75,-147.74
52.56215,-1.495225,136.93,23.03,3,116.23,24 / 24,617910,2020-01-08 17:42:31:503,1.0531,0.2165,9.6773,-0.0024,0.0015,9.8066,0.0018,-0.1982,0.0872,-18.44,-34,14.5,338.36,-83.84,-148.04
52.56215,-1.495225,136.93,23.03,3,116.23,24 / 24,618010,2020-01-08 17:42:31:603,2.2905,1.4408,9.9856,0.0231,-0.0089,9.8066,-0.0106,-0.3063,0.1933,-19.12,-33.75,14.31,334.71,-83.79,-147.72
52.56215,-1.495225,136.93,23.03,3,116.23,24 / 24,618110,2020-01-08 17:42:31:703,1.4166,2.9989,9.554,0.0752,0.0408,9.8062,-0.1853,-0.438,0.2187,-18.62,-33.62,14.19,335.83,-83.84,-146.79
52.56215,-1.495225,136.93,23.03,3,116.23,24 / 24,618210,2020-01-08 17:42:31:803,-1.6732,-2.6899,9.5789,0.0097,0.0408,9.8065,-0.1006,-0.2789,0.3352,-18.25,-33.87,15.13,336.02,-83.89,-150.06
52.56215,-1.495225,136.93,23.03,3,116.23,25 / 25,618310,2020-01-08 17:42:31:903,-1.3056,-1.1687,9.6051,0.0329,0.0253,9.8065,-0.1046,-0.3312,0.1624,-18.12,-33.75,14.75,336.79,-83.82,-149.36
52.56215,-1.495225,136.93,23.03,3,116.23,25 / 25,618409,2020-01-08 17:42:32:002,1.1988,2.3655,9.6227,0.0116,0.0035,9.8066,-0.0433,-0.3383,0.1606,-18.31,-32.94,14.5,334.79,-83.89,-151.22
52.56215,-1.495225,136.93,23.03,3,116.23,25 / 25,618510,2020-01-08 17:42:32:103,0.2936,3.0615,10.2136,0.022,0.0479,9.8064,0.0722,-0.201,0.1799,-17.94,-33.12,15.13,333.02,-83.96,-152.8
52.56215,-1.495225,136.93,23.03,3,116.23,25 / 25,618609,2020-01-08 17:42:32:202,1.6981,1.454,11.5624,-0.0184,-0.0357,9.8065,0.2818,0.0753,0.2039,-18.75,-34.19,14.38,331.71,-83.55,-150.12
52.56215,-1.495225,136.93,23.03,3,116.23,25 / 25,618709,2020-01-08 17:42:32:302,2.0577,3.5494,6.8762,-0.0165,-0.0453,9.8065,-0.1331,-0.0148,-0.6417,-18.06,-33.87,14.19,329.47,-83.84,-153.59
52.56215,-1.495225,136.93,23.03,3,116.23,25 / 25,618809,2020-01-08 17:42:32:402,0.8398,-3.7259,11.9654,0.049,0.1346,9.8056,-0.3533,-0.2211,-0.3996,-18.19,-34.62,14.63,330.68,-84.17,-154.73
52.56215,-1.495225,136.93,23.03,3,116.23,25 / 25,618910,2020-01-08 17:42:32:503,0.9269,2.0635,9.3113,0.0594,0.0818,9.806,-0.1401,-0.0271,0.7724,-18.5,-34.06,14.5,337.96,-83.81,-148.36
52.56215,-1.495225,136.93,23.03,3,116.23,25 / 25,619010,2020-01-08 17:42:32:603,1.6067,0.0854,12.0432,-0.0889,-0.051,9.806,-0.2456,-0.2927,0.317,-17.69,-33.5,14.69,334.86,-84.2,-151.36
52.56215,-1.495225,136.93,23.03,3,116.23,25 / 25,619110,2020-01-08 17:42:32:703,-1.2,0.9829,7.6729,-0.0101,0.0155,9.8066,-0.2228,-0.0765,0.0054,-18.19,-34.12,14.38,328.67,-84.17,-154.55
52.56215,-1.495225,136.93,23.03,3,116.23,25 / 25,619210,2020-01-08 17:42:32:803,0.1776,0.0267,9.2979,-0.0574,0.0131,9.8064,-0.2114,-0.0719,0.1537,-18.25,-34.06,14.88,333.75,-84.15,-152.18
52.56215,-1.495225,136.93,23.03,3,116.23,25 / 25,619310,2020-01-08 17:42:32:903,-4.0357,-2.0292,9.0239,-0.0242,-0.0004,9.8066,-0.185,-0.5028,0.1983,-18.5,-33.94,14.94,332.55,-84.13,-153.21
52.56215,-1.495225,136.93,23.03,3,116.23,25 / 25,619410,2020-01-08 17:42:33:003,2.5502,3.2994,10.2802,-0.0641,-0.0183,9.8063,-0.1176,-0.2847,0.3465,-18.44,-33.56,14.69,336.78,-84.14,-149.57
52.56215,-1.495225,136.93,23.03,3,116.23,25 / 25,619510,2020-01-08 17:42:33:103,-1.6124,-0.8281,8.9338,-0.0146,-0.0015,9.8065,-0.1284,-0.2286,0.2419,-18.44,-33.56,14.69,333.92,-84.03,-151.95
52.56215,-1.495225,136.93,23.03,3,116.23,25 / 25,619609,2020-01-08 17:42:33:202,-0.7077,0.6784,9.3512,-0.055,-0.0183,9.8064,-0.0913,-0.3363,0.1829,-18.5,-33.37,14.13,335.59,-84.1,-148.65
52.56215,-1.495225,136.93,23.03,3,116.23,25 / 25,619710,2020-01-08 17:42:33:303,-2.3256,-1.218,10.2053,0.0126,0.0084,9.8066,-0.0412,-0.2689,0.2114,-18.44,-33.62,14.75,338.11,-84.12,-148.41
52.56215,-1.495225,136.93,23.03,3,116.23,25 / 25,619810,2020-01-08 17:42:33:403,-0.2131,2.0737,10.0849,-0.0449,-0.0297,9.8064,0.0374,0.1987,0.0284,-18.56,-33.87,14.56,337.51,-84.24,-147.58
52.56215,-1.495225,136.93,23.03,3,116.23,25 / 25,619910,2020-01-08 17:42:33:503,3.813,3.0989,13.8325,0.1008,-0.0403,9.806,0.3959,0.8891,-0.4542,-18.62,-33.87,14.06,333.15,-84.62,-149.63
52.56215,-1.495225,136.93,23.03,3,116.23,25 / 25,620010,2020-01-08 17:42:33:603,-1.6315,-1.5491,9.5973,0.1148,0.103,9.8053,0.1853,0.7264,-0.7611,-18.06,-33.87,14.38,330.35,-84.43,-153.3
52.56215,-1.495225,136.93,23.03,3,116.23,25 / 25,620110,2020-01-08 17:42:33:703,2.0342,1.7748,12.5268,0.053,0.0075,9.8064,0.2876,0.5311,-0.0661,-18.75,-33.5,14.75,337.1,-84.13,-147.97
52.56215,-1.495225,136.93,23.03,3,116.23,25 / 25,620209,2020-01-08 17:42:33:802,-0.5124,-0.0704,8.8567,0.0561,-0.0026,9.8064,0.104,0.4302,-0.3064,-18.19,-33.81,14.69,333.01,-84.11,-152.79
52.561325,-1.492474,138.5,23.44,6,116.39,25 / 25,620310,2020-01-08 17:42:33:903,1.9557,3.0529,11.949,-0.0128,0.0506,9.8065,-0.0652,0.3109,-0.536,-18.25,-33.87,15,338.44,-84.26,-148.21
52.561325,-1.492474,138.5,23.44,6,116.39,25 / 25,620409,2020-01-08 17:42:34:002,-4.5494,-2.5209,9.0275,0.0414,-0.0229,9.8065,-0.123,0.0524,0.0855,-18.31,-33.81,14.75,341.92,-84.21,-145.19
52.561325,-1.492474,138.5,23.44,6,116.39,25 / 25,620510,2020-01-08 17:42:34:103,-0.3896,0.6805,9.2309,0.0105,-0.0111,9.8066,-0.2034,-0.2458,0.2426,-18.56,-33.25,14.19,335.87,-83.98,-146.95
52.561325,-1.492474,138.5,23.44,6,116.39,25 / 25,620610,2020-01-08 17:42:34:203,5.3304,5.1181,11.4239,0.1144,0.0538,9.8058,-0.3903,-0.7796,0.581,-18.25,-33.75,14.44,330.76,-84.31,-152.85
52.561325,-1.492474,138.5,23.44,6,116.39,25 / 25,620709,2020-01-08 17:42:34:302,-0.4245,3.6837,8.3809,0.0466,0.0253,9.8064,-0.283,-0.5048,0.6393,-18,-33.5,14.56,336.82,-84.31,-149.73
52.561325,-1.492474,138.5,23.44,6,116.39,25 / 25,620810,2020-01-08 17:42:34:403,0.161,1.1327,14.3314,0.0099,-0.0455,9.8065,0.0358,0.0234,-0.4122,-18.19,-34.5,14.38,332.48,-84.45,-151.46
52.561325,-1.492474,138.5,23.44,6,116.39,25 / 25,620910,2020-01-08 17:42:34:503,-1.1466,0.2369,9.8901,0.0852,-0.0128,9.8062,0.0277,-0.1497,-0.26,-18.37,-33.87,14.75,329.53,-84.16,-155.84
52.561325,-1.492474,138.5,23.44,6,116.39,25 / 25,621010,2020-01-08 17:42:34:603,1.9324,1.8821,10.9248,-0.002,0.0517,9.8065,0.0346,-0.073,0.3837,-18.31,-33.75,14.31,334.1,-84.3,-149.96
52.561325,-1.492474,138.5,23.44,6,116.39,25 / 25,621110,2020-01-08 17:42:34:703,-3.759,-1.4698,8.6617,0.0516,0.031,9.8064,-0.0082,0.0417,0.0493,-18.56,-33.12,14.63,337.57,-84.17,-147.58
52.561325,-1.492474,138.5,23.44,6,116.39,25 / 25,621210,2020-01-08 17:42:34:803,1.1793,0.5367,8.2944,-0.0104,-0.0188,9.8066,-0.1329,0.1373,-0.2689,-18.06,-33.25,14.25,335.61,-84.42,-148.83
52.561325,-1.492474,138.5,23.44,6,116.39,25 / 25,621309,2020-01-08 17:42:34:902,4.3024,2.9159,9.5684,0.0753,0.0882,9.8059,0.0045,0.6137,-0.2292,-18.44,-33.75,14.06,329.33,-84.79,-154.47
52.561325,-1.492474,138.5,23.44,6,116.39,25 / 25,621410,2020-01-08 17:42:35:003,1.1583,3.0481,11.7034,-0.1743,-0.0506,9.8049,0.4569,0.6056,-0.7072,-17.94,-34.06,14.69,325.98,-84.69,-159.4
52.561325,-1.492474,138.5,23.44,6,116.39,25 / 25,621510,2020-01-08 17:42:35:103,-3.9457,-3.7746,12.4407,-0.0699,0.0116,9.8064,0.1757,0.5586,-0.757,-18.06,-34.25,14,327.72,-85.2,-156.24
52.561325,-1.492474,138.5,23.44,6,116.39,25 / 25,621609,2020-01-08 17:42:35:202,-4.4054,-1.477,4.9578,0.0482,-0.0497,9.8064,-0.65,-0.5042,0.3347,-18.44,-34.19,13.88,329.94,-84.65,-153.83
52.561325,-1.492474,138.5,23.44,6,116.39,25 / 25,621710,2020-01-08 17:42:35:303,-7.4782,-6.5411,4.631,-0.0968,0.0272,9.806,-0.9326,-0.9161,1.0086,-18,-34.06,14.13,337,-84.65,-147.67
52.561325,-1.492474,138.5,23.44,6,116.39,25 / 25,621810,2020-01-08 17:42:35:403,-3.772,-4.4883,11.6819,0.1689,0.0743,9.8049,0.0539,-0.938,0.4629,-18.31,-33.94,13.44,336.84,-84.52,-145.61
52.561325,-1.492474,138.5,23.44,6,116.39,25 / 25,621910,2020-01-08 17:42:35:503,-1.5745,-1.7995,10.2552,0.0835,0.0047,9.8062,0.1462,-0.8601,0.5252,-17.81,-33.62,13.88,329.71,-84.25,-153.71
52.561325,-1.492474,138.5,23.44,6,116.39,25 / 25,622010,2020-01-08 17:42:35:603,4.6793,6.1172,9.4286,0.0514,0.0908,9.806,-0.0241,-0.4781,0.3847,-17.87,-33.75,14.31,333.6,-84.05,-150.21
52.561325,-1.492474,138.5,23.44,6,116.39,25 / 25,622110,2020-01-08 17:42:35:703,1.638,0.9874,8.9037,-0.0188,0.014,9.8066,-0.0735,-0.2895,0.2665,-18.5,-33.94,14.38,333.31,-84.23,-150.58
52.561325,-1.492474,138.5,23.44,6,116.39,25 / 25,622210,2020-01-08 17:42:35:803,3.297,4.0246,8.1436,0.0262,0.1015,9.806,-0.1071,-0.0185,-0.0903,-18.44,-34.12,14.5,333.87,-84.66,-152.43
52.561325,-1.492474,138.5,23.44,6,116.39,25 / 25,622309,2020-01-08 17:42:35:902,-2.5004,-2.4528,10.7891,0.029,0.0751,9.8062,-0.0647,0.1096,-0.06,-17.81,-34,13.75,332.17,-84.74,-151.94
52.561325,-1.492474,138.5,23.44,6,116.39,25 / 25,622410,2020-01-08 17:42:36:003,0.3752,1.0505,8.9281,0.0416,0.0141,9.8065,-0.0472,0.1837,-0.0701,-18.12,-33.69,14.5,334.07,-84.47,-152.12
52.561325,-1.492474,138.5,23.44,6,116.39,25 / 25,622510,2020-01-08 17:42:36:103,-1.7934,-2.2851,9.3475,0.0405,0.0384,9.8064,-0.0278,0.1674,-0.2371,-18.44,-34.37,14.13,328.67,-84.36,-154.7
52.561325,-1.492474,138.5,23.44,6,116.39,25 / 25,622610,2020-01-08 17:42:36:203,1.4073,1.7734,11.206,0.0392,0.0162,9.8065,0.1362,0.2597,-0.0431,-18,-33.75,14.13,334.06,-84.28,-149.97
52.561325,-1.492474,138.5,23.44,6,116.39,25 / 25,622709,2020-01-08 17:42:36:302,-1.8607,-2.9774,10.3439,0.0417,0.0073,9.8065,-0.0157,0.4919,-0.319,-18,-33.56,13.94,331.94,-84.27,-151.8
52.561325,-1.492474,138.5,23.44,6,116.39,25 / 25,622810,2020-01-08 17:42:36:403,1.6836,3.6027,8.6703,0.0194,0.0127,9.8065,-0.0884,0.3729,-0.381,-18.75,-33.75,14.5,332.22,-84.26,-152.2
52.561325,-1.492474,138.5,23.44,6,116.39,25 / 25,622910,2020-01-08 17:42:36:503,0.1049,-0.132,9.1483,0.0019,0.0426,9.8065,-0.0741,0.1729,-0.0617,-18.37,-34,14.19,333.05,-84.31,-150.87
52.561325,-1.492474,138.5,23.44,6,116.39,25 / 25,623010,2020-01-08 17:42:36:603,-0.2499,0.4762,8.7044,0.0229,0.0155,9.8065,-0.0539,0.0963,-0.1803,-17.87,-34.5,14.25,333.32,-84.46,-150.74
52.561325,-1.492474,138.5,23.44,6,116.39,25 / 25,623110,2020-01-08 17:42:36:703,0.6983,0.7366,10.0877,-0.0119,0.0328,9.8065,-0.0356,0.0223,0.1821,-17.81,-33.69,14.19,331.19,-84.64,-152.73
52.561325,-1.492474,138.5,23.44,6,116.39,25 / 25,623209,2020-01-08 17:42:36:802,-0.958,-1.5779,10.7826,-0.0193,-0.0449,9.8065,0.0264,0.1381,0.0246,-17.69,-33.81,13.56,326.05,-84.65,-157.25
52.561325,-1.492474,138.5,23.44,6,116.39,25 / 25,623310,2020-01-08 17:42:36:903,-3.3564,-0.6276,8.8946,0.0646,0.0177,9.8064,0.339,-0.1866,-0.0121,-17.81,-34.37,14.31,324.34,-84.55,-158.66
52.561325,-1.492474,138.5,23.44,6,116.39,25 / 25,623410,2020-01-08 17:42:37:003,3.3079,1.4439,15.0074,-0.0064,-0.0658,9.8063,0.468,0.2363,0.1418,-17.87,-34.12,14,327.77,-84.24,-155.39
52.561325,-1.492474,138.5,23.44,6,116.39,25 / 25,623510,2020-01-08 17:42:37:103,4.7116,3.0555,11.4105,0.1382,-0.0428,9.8056,-0.0421,-0.3177,0.1051,-18.62,-33.62,14.31,322.18,-84.11,-158.85
52.561325,-1.492474,138.5,23.44,6,116.39,25 / 25,623610,2020-01-08 17:42:37:203,5.8039,3.2264,10.0327,-0.0909,-0.0498,9.806,-0.1219,-0.1648,0.2054,-18.87,-33.19,14.69,331.93,-83.88,-152.3
52.561325,-1.492474,138.5,23.44,6,116.39,25 / 25,623710,2020-01-08 17:42:37:303,-1.367,0.7329,7.6187,0.0382,-0.0133,9.8065,0.0876,-0.5828,0.095,-18.81,-33.75,14.31,334.91,-83.9,-147.62
52.561325,-1.492474,138.5,23.44,6,116.39,25 / 25,623809,2020-01-08 17:42:37:402,0.2351,-2.0663,9.7166,0.0089,0.0062,9.8066,0.0224,-0.1578,-0.0401,-18.5,-33.12,14.06,338.54,-84.18,-146.15
52.561325,-1.492474,138.5,23.44,6,116.39,25 / 25,623910,2020-01-08 17:42:37:503,0.13,-0.6179,10.553,0.0327,0.0193,9.8065,0.0941,-0.2649,0.2288,-18.31,-33.81,13.5,333.93,-84.39,-150.16
52.561325,-1.492474,138.5,23.44,6,116.39,25 / 25,624010,2020-01-08 17:42:37:603,-1.4919,0.5821,10.2342,0.0061,-0.0617,9.8064,0.1468,-0.2203,0.2706,-17.87,-34.37,13.94,331.52,-84.5,-152.34
52.561325,-1.492474,138.5,23.44,6,116.39,25 / 25,624110,2020-01-08 17:42:37:703,3.689,4.1188,8.2501,0.0074,-0.0392,9.8065,0.1503,-0.6102,0.3682,-18,-33.5,14.56,334.51,-84.42,-151.81
52.561325,-1.492474,138.5,23.44,6,116.39,25 / 25,624210,2020-01-08 17:42:37:803,-0.2542,-1.4457,11.505,-0.0297,-0.0568,9.8064,0.0688,-0.1257,0.3346,-17.87,-33.37,14.75,334.33,-84.43,-151.97
52.561325,-1.492474,138.5,23.44,6,116.39,24 / 25,624311,2020-01-08 17:42:37:904,-0.5173,0.2344,10.1432,0.0275,-0.0099,9.8065,-0.0747,0.0264,-0.1671,-19.44,-33.44,14.5,333.57,-84.07,-151
52.561325,-1.492474,138.5,23.44,6,116.39,24 / 25,624410,2020-01-08 17:42:38:003,-1.3524,-2.2093,9.8956,-0.0014,0.0213,9.8065,-0.0253,-0.0238,-0.0947,-19.06,-32.87,14,330.37,-84.14,-151.83
52.561325,-1.492474,138.5,23.44,6,116.39,24 / 25,624510,2020-01-08 17:42:38:103,1.7179,1.5107,9.0896,-0.0114,-0.0091,9.8066,-0.0291,-0.1357,0.091,-18.12,-33.75,14.25,330.1,-84.32,-153.43
52.561325,-1.492474,138.5,23.44,6,116.39,24 / 25,624610,2020-01-08 17:42:38:203,-2.933,-2.9471,10.8448,-0.0252,0.0304,9.8066,-0.0772,0.1034,-0.1229,-18.44,-33.19,13.06,326.52,-84.48,-154.66
52.561325,-1.492474,138.5,23.44,6,116.39,24 / 25,624710,2020-01-08 17:42:38:303,5.0194,4.4476,12.5789,-0.071,-0.0346,9.8063,-0.1174,0.2358,-0.3527,-17.87,-33.62,13.81,332.17,-84.63,-151.86
52.561325,-1.492474,138.5,23.44,6,116.39,24 / 25,624810,2020-01-08 17:42:38:403,-0.3768,0.777,9.0932,-0.0306,0.0104,9.8065,0.0642,0.3906,-0.3301,-18.19,-33.56,13.5,327.32,-84.44,-155.95
52.561325,-1.492474,138.5,23.44,6,116.39,24 / 25,624910,2020-01-08 17:42:38:503,3.0469,2.5109,11.7653,-0.0946,-0.0263,9.8061,0.2442,0.2081,-0.1012,-17.81,-34.25,14.13,329.99,-84.56,-153.71
52.561325,-1.492474,138.5,23.44,6,116.39,24 / 25,625010,2020-01-08 17:42:38:603,-3.8902,-3.8007,8.1524,0.0199,0.0161,9.8066,0.123,0.3722,-0.3637,-17.87,-34.06,14.5,331.23,-84.53,-154.64
52.561325,-1.492474,138.5,23.44,6,116.39,24 / 25,625110,2020-01-08 17:42:38:703,-2.5198,-2.4928,9.6663,-0.0589,-0.0244,9.8064,0.1232,0.7454,-0.4935,-17.62,-34.06,14,330.59,-84.72,-153.32
52.561325,-1.492474,138.5,23.44,6,116.39,24 / 25,625210,2020-01-08 17:42:38:803,-2.7398,-3.5612,8.9467,0.0542,0.0385,9.8063,0.1582,0.6593,-0.4368,-17.81,-34.37,14.25,329.21,-84.73,-154.54
52.561325,-1.492474,138.5,23.44,6,116.39,24 / 24,625310,2020-01-08 17:42:38:903,-0.9632,-1.3366,9.6078,-0.099,-0.0611,9.8059,0.1099,0.298,-0.2855,-17.56,-34.5,14.31,331.28,-84.7,-152.69
52.561325,-1.492474,138.5,23.44,6,116.39,24 / 24,625410,2020-01-08 17:42:39:003,1.8456,1.3276,11.3694,-0.0283,0.0194,9.8065,-0.0665,0.1659,-0.2372,-18.12,-33.69,13.81,328.28,-84.79,-155.4
52.561325,-1.492474,138.5,23.44,6,116.39,24 / 24,625510,2020-01-08 17:42:39:103,1.0812,1.4066,7.8648,-0.0424,-0.0098,9.8065,-0.1803,0.2159,0.0599,-18.5,-34.12,14,330.58,-84.49,-153.14
52.561325,-1.492474,138.5,23.44,6,116.39,24 / 24,625609,2020-01-08 17:42:39:202,4.0174,2.847,9.2726,-0.0633,-0.023,9.8064,-0.1597,-0.0784,0.1204,-18.19,-33.44,13.5,335.82,-84.63,-148.78
52.561325,-1.492474,138.5,23.44,6,116.39,24 / 24,625709,2020-01-08 17:42:39:302,-1.7703,-1.9381,7.9578,-0.0338,-0.0065,9.8066,0.1056,-0.4599,0.2785,-18.12,-34.12,14,331.84,-84.87,-152.33
52.561325,-1.492474,138.5,23.44,6,116.39,24 / 24,625810,2020-01-08 17:42:39:403,-0.4599,2.0254,8.6026,-0.0494,-0.0559,9.8063,0.0843,-0.484,0.3076,-18.31,-33,14,332.95,-84.79,-151.4
52.561325,-1.492474,138.5,23.44,6,116.39,24 / 24,625909,2020-01-08 17:42:39:502,-9.5108,-6.3317,6.7094,-0.148,-0.0292,9.8054,-0.3584,-1.0183,0.6612,-18.5,-33.37,14.31,336.27,-84.79,-148.49
52.561325,-1.492474,138.5,23.44,6,116.39,24 / 24,626010,2020-01-08 17:42:39:603,7.0185,6.3523,13.2614,-0.2316,-0.0889,9.8035,-0.556,-0.9694,1.0923,-18.44,-33.56,13.44,338.15,-84.42,-144.42
52.561325,-1.492474,138.5,23.44,6,116.39,24 / 24,626110,2020-01-08 17:42:39:703,-0.4292,-2.3203,9.2417,-0.0181,-0.0246,9.8065,-0.3628,-0.9723,0.8999,-19,-33.31,14.13,333.83,-84.23,-148.88
52.561325,-1.492474,138.5,23.44,6,116.39,24 / 24,626210,2020-01-08 17:42:39:803,5.772,5.9525,9.9703,-0.1364,-0.066,9.8054,-0.2303,-0.7461,0.3914,-18.44,-34.12,13.88,341.17,-84.43,-143.94
52.561325,-1.492474,138.5,23.44,6,116.39,25 / 25,626311,2020-01-08 17:42:39:904,-2.3575,-1.5639,9.1899,0.0367,0.0518,9.8064,-0.1286,-0.3717,0.3117,-18.25,-33.44,14.13,338.64,-84.45,-146.22
52.561325,-1.492474,138.5,23.44,6,116.39,25 / 25,626410,2020-01-08 17:42:40:003,-1.8607,-1.0743,9.951,-0.0587,-0.039,9.8063,-0.1018,-0.3528,0.0148,-18.25,-33.25,14,337.89,-84.6,-146.95
52.561325,-1.492474,138.5,23.44,6,116.39,25 / 25,626510,2020-01-08 17:42:40:103,-5.0483,-5.1805,8.6121,0.0931,0.0662,9.8059,-0.1099,-0.2313,-0.1317,-18.19,-34,14.19,330.52,-84.57,-153.26
52.561325,-1.492474,138.5,23.44,6,116.39,25 / 25,626610,2020-01-08 17:42:40:203,0.8916,1.0537,10.2918,-0.0663,-0.0538,9.8062,-0.0359,0.124,0.0581,-18.75,-34.06,13.81,337.89,-84.26,-145.29
52.561325,-1.492474,138.5,23.44,6,116.39,25 / 25,626710,2020-01-08 17:42:40:303,3.2377,4.4302,10.7596,0.0919,0.0651,9.8059,0.0235,0.3631,-0.256,-18.06,-33.81,14.13,340.94,-84.48,-144.17
52.561325,-1.492474,138.5,23.44,6,116.39,25 / 25,626810,2020-01-08 17:42:40:403,0.3496,-0.0201,10.5239,0.0086,0.0178,9.8066,0.0111,0.2567,-0.0737,-17.81,-33.94,14,335.04,-84.66,-149.38
52.561325,-1.492474,138.5,23.44,6,116.39,25 / 25,626910,2020-01-08 17:42:40:503,2.0093,1.9931,10.8284,0.002,-0.0088,9.8066,0.0583,0.2835,-0.013,-18.37,-33.75,14.06,331.4,-84.42,-152.38
52.561325,-1.492474,138.5,23.44,6,116.39,25 / 25,627009,2020-01-08 17:42:40:602,-1.9429,-1.7976,9.275,0.0405,0.0454,9.8064,0.0496,0.2607,-0.3294,-17.87,-33.37,14.69,332.31,-84.4,-153.72
52.561325,-1.492474,138.5,23.44,6,116.39,25 / 25,627110,2020-01-08 17:42:40:703,1.7275,2.2895,10.1087,0.0189,0.0257,9.8065,-0.0139,0.2194,-0.1899,-18.12,-33.75,13.94,332.21,-84.46,-151.71
52.561325,-1.492474,138.5,23.44,6,116.39,25 / 25,627210,2020-01-08 17:42:40:803,-2.8082,-3.9895,9.762,0.036,0.0353,9.8064,0.0212,0.2713,-0.0383,-18.56,-32.81,13.69,329.53,-84.52,-152.85
52.561325,-1.492474,138.5,23.44,6,116.39,25 / 25,627310,2020-01-08 17:42:40:903,0.6155,-0.0787,9.3457,0.0028,0.0015,9.8066,0.012,0.0757,-0.158,-18.31,-34,13.75,333.61,-84.42,-150.46
52.561325,-1.492474,138.5,23.44,6,116.39,25 / 25,627410,2020-01-08 17:42:41:003,-2.2953,-2.6301,10.0147,-0.0032,0.0393,9.8065,-0.0106,-0.3237,0.2574,-18.69,-33.81,13.81,333.77,-84.44,-148.97
52.561325,-1.492474,138.5,23.44,6,116.39,25 / 25,627509,2020-01-08 17:42:41:102,0.485,0.7439,10.3555,-0.0143,-0.0413,9.8065,0.0393,-0.1676,0.2752,-17.69,-33.87,14,333.8,-84.54,-150.38
52.561325,-1.492474,138.5,23.44,6,116.39,25 / 25,627610,2020-01-08 17:42:41:203,0.448,-0.1895,9.3965,0.0524,0.0192,9.8064,-0.035,-0.1282,0.0132,-18.56,-33.87,14,331.6,-84.48,-150.89
52.561325,-1.492474,138.5,23.44,6,116.39,25 / 25,627710,2020-01-08 17:42:41:303,3.1765,2.8566,10.9797,-0.0089,-0.0143,9.8066,-0.0466,-0.2099,0.1388,-17.87,-33.69,14.31,335.14,-84.53,-149.21
52.561325,-1.492474,138.5,23.44,6,116.39,25 / 25,627810,2020-01-08 17:42:41:403,-0.9324,-0.8364,9.2066,0.0587,0.0124,9.8064,-0.0748,-0.3149,0.2347,-17.75,-34,14.56,333.26,-84.56,-152.88
52.561325,-1.492474,138.5,23.44,6,116.39,25 / 25,627909,2020-01-08 17:42:41:502,-1.9106,-2.3563,10.1767,-0.0089,-0.0288,9.8065,-0.0167,-0.4558,0.1373,-18.19,-33.5,13.63,332.4,-84.63,-151.77
52.561325,-1.492474,138.5,23.44,6,116.39,25 / 25,628010,2020-01-08 17:42:41:603,-0.5907,0.8269,9.1316,0.0146,-0.0344,9.8065,-0.0182,-0.0241,0.1356,-18.31,-33.75,14.13,332.99,-84.54,-151.08
52.561325,-1.492474,138.5,23.44,6,116.39,25 / 25,628109,2020-01-08 17:42:41:702,1.08,-0.7638,11.3078,0.0088,0.0014,9.8066,-0.0543,0.0429,-0.0036,-17.87,-34.31,13.69,333.44,-84.62,-150.75
52.561325,-1.492474,138.5,23.44,6,116.39,25 / 25,628210,2020-01-08 17:42:41:803,-0.7928,0.7028,9.7259,0.0205,-0.0116,9.8066,0.0518,-0.0778,0.0081,-18.25,-34.5,13.75,333.12,-84.61,-151.01
52.561325,-1.492474,138.5,23.44,6,116.39,25 / 25,628310,2020-01-08 17:42:41:903,0.8796,1.0296,8.66,-0.0161,-0.0198,9.8066,0.0634,-0.1955,0.1164,-18.44,-34,14.19,334.1,-84.65,-150.2
52.561325,-1.492474,138.5,23.44,6,116.39,25 / 25,628410,2020-01-08 17:42:42:003,0.0273,1.0507,9.998,-0.025,0.0126,9.8066,0.0706,0.0322,-0.0014,-18,-33.87,13.94,334.24,-84.8,-150.17
52.561325,-1.492474,138.5,23.44,6,116.39,25 / 25,628510,2020-01-08 17:42:42:103,-1.0147,-0.7207,11.2261,0.0216,-0.023,9.8066,0.1151,0.0016,-0.1583,-18.44,-34.25,13.88,335.7,-84.83,-148.92
52.561325,-1.492474,138.5,23.44,6,116.39,25 / 25,628610,2020-01-08 17:42:42:203,0.3588,1.3095,10.0052,-0.0044,-0.039,9.8066,0.0249,0.2309,-0.0028,-18.75,-34.37,13.75,333.35,-84.68,-149.49
52.561325,-1.492474,138.5,23.44,6,116.39,25 / 25,628710,2020-01-08 17:42:42:303,1.1003,0.8045,10.6185,0.0007,0.0188,9.8066,-0.1437,0.0872,-0.0023,-18.19,-33.94,14.5,336.57,-84.57,-150.01
52.561325,-1.492474,138.5,23.44,6,116.39,25 / 25,628810,2020-01-08 17:42:42:403,-0.7684,0.7966,9.306,0.0197,-0.0047,9.8066,-0.1641,-0.0595,0.0281,-18.37,-34.44,14.19,334.48,-84.62,-149.84
52.561325,-1.492474,138.5,23.44,6,116.39,25 / 25,628910,2020-01-08 17:42:42:503,-0.2068,0.8884,9.1577,-0.0071,-0.0203,9.8066,-0.0531,-0.0811,0.0575,-18.62,-34.19,14.38,335.84,-84.78,-147.38
52.561325,-1.492474,138.5,23.44,6,116.39,25 / 25,629010,2020-01-08 17:42:42:603,-0.1194,0.4983,10.6917,-0.0106,0.0049,9.8065,0.09,0.0792,-0.0436,-18.44,-34.06,13.81,337.81,-84.87,-147.1
52.561325,-1.492474,138.5,23.44,6,116.39,25 / 25,629110,2020-01-08 17:42:42:703,0.1109,1.1992,9.2454,0.0005,0.0176,9.8066,0.0742,0.0996,-0.1227,-18.44,-34.06,13.88,338,-84.78,-146.87
52.561325,-1.492474,138.5,23.44,6,116.39,25 / 25,629209,2020-01-08 17:42:42:802,0.1342,-0.466,10.1488,-0.0109,-0.007,9.8066,0.0981,-0.0198,-0.0548,-18.31,-33.5,13.63,337.32,-84.71,-147.52
52.560497,-1.489673,139.04,23.48,6,115.36,25 / 25,629310,2020-01-08 17:42:42:903,1.0157,0.5824,11.4461,0.0134,0.0046,9.8065,0.1283,-0.0183,-0.0321,-18.19,-34.25,13.94,334.74,-84.6,-149.6
52.560497,-1.489673,139.04,23.48,6,115.36,25 / 25,629410,2020-01-08 17:42:43:003,0.5758,1.4888,10.2339,0.0116,0.0173,9.8066,0.0203,0.1623,-0.0815,-18,-34.44,13.69,335.97,-84.51,-148.48
52.560497,-1.489673,139.04,23.48,6,115.36,25 / 25,629510,2020-01-08 17:42:43:103,-1.1224,-0.9714,10.4504,-0.0007,0.0059,9.8066,-0.1065,0.1065,-0.0231,-18.44,-34.37,14.5,338.33,-84.53,-148.46
52.560497,-1.489673,139.04,23.48,6,115.36,25 / 25,629610,2020-01-08 17:42:43:203,-0.3257,0.1606,9.625,-0.0331,0.0001,9.8065,-0.0763,0.0425,0.0563,-18.31,-33.81,13.38,337.71,-84.6,-144.91
52.560497,-1.489673,139.04,23.48,6,115.36,25 / 25,629710,2020-01-08 17:42:43:303,-1.3315,0.6164,9.7071,-0.0005,-0.0015,9.8066,0.1005,0.0164,-0.038,-19.19,-34.12,14.06,338.08,-84.57,-145.29
52.560497,-1.489673,139.04,23.48,6,115.36,25 / 25,629810,2020-01-08 17:42:43:403,-3.7853,-3.8173,8.565,-0.0744,-0.052,9.8062,0.2215,-0.2299,0.3656,-19.19,-34.25,13.44,333.91,-84.31,-146.67
52.560497,-1.489673,139.04,23.48,6,115.36,25 / 25,629911,2020-01-08 17:42:43:504,0.4565,0.9592,11.8169,-0.0752,-0.0099,9.8063,-0.2151,-0.4322,-0.053,-18.94,-33.75,13.81,341.43,-84.27,-142.25
52.560497,-1.489673,139.04,23.48,6,115.36,25 / 25,630010,2020-01-08 17:42:43:603,-0.6378,-1.7258,11.6909,0.0005,0.0267,9.8065,-0.0417,-0.2087,0.1011,-19,-33.5,13.88,344.36,-84.15,-139.74
52.560497,-1.489673,139.04,23.48,6,115.36,25 / 25,630109,2020-01-08 17:42:43:702,6.7018,6.7875,10.028,0.0185,-0.0773,9.8063,-0.0874,-0.4987,0.5798,-18.69,-34.37,13.75,339.37,-84.51,-144.15
52.560497,-1.489673,139.04,23.48,6,115.36,25 / 25,630210,2020-01-08 17:42:43:803,2.7956,3.6968,11.5837,-0.1075,-0.0612,9.8058,-0.1708,-0.4294,0.1697,-18.75,-34.19,13.94,338.03,-84.92,-145.54
52.560497,-1.489673,139.04,23.48,6,115.36,24 / 24,630311,2020-01-08 17:42:43:904,1.6435,1.9377,10.7175,-0.0102,0.0038,9.8066,-0.1137,-0.4933,0.3371,-18.25,-33.62,13.75,335.11,-84.73,-149.37
52.560497,-1.489673,139.04,23.48,6,115.36,24 / 24,630411,2020-01-08 17:42:44:004,-4.5222,-3.5909,9.8154,-0.0759,-0.0711,9.806,-0.1197,-0.524,0.4905,-18.69,-33.56,13.81,332.88,-84.58,-149.84
52.560497,-1.489673,139.04,23.48,6,115.36,24 / 24,630510,2020-01-08 17:42:44:103,0.2759,1.0917,9.6527,-0.0411,-0.0193,9.8065,-0.0868,-0.5692,0.2384,-18.56,-33.87,14.56,339.92,-84.51,-145.64
52.560497,-1.489673,139.04,23.48,6,115.36,24 / 24,630610,2020-01-08 17:42:44:203,-2.3894,-2.9176,10.1772,-0.04,-0.0038,9.8066,-0.1117,-0.3059,0.2083,-18.69,-33.44,14.19,338.99,-84.61,-144.61
52.560497,-1.489673,139.04,23.48,6,115.36,24 / 24,630711,2020-01-08 17:42:44:304,0.3154,1.5818,10.4051,-0.0099,-0.031,9.8065,-0.1539,-0.1368,0.1106,-18.75,-34.5,13.63,336.88,-84.7,-146.42
52.560497,-1.489673,139.04,23.48,6,115.36,24 / 24,630810,2020-01-08 17:42:44:403,-0.622,-0.9658,9.9558,-0.014,-0.0034,9.8066,-0.1042,-0.1814,0.0506,-18.75,-33.62,14.44,334.81,-84.75,-148.27
52.560497,-1.489673,139.04,23.48,6,115.36,24 / 24,630910,2020-01-08 17:42:44:503,0.498,2.519,9.4709,-0.0267,-0.0241,9.8065,0.0786,-0.0318,0.0686,-18.81,-34.25,13.63,335.92,-84.8,-147.32
52.560497,-1.489673,139.04,23.48,6,115.36,24 / 24,631010,2020-01-08 17:42:44:603,0.1612,1.6083,11.0751,0.0277,0.0034,9.8066,0.102,0.2059,-0.1099,-18.06,-34.12,13.19,336.25,-84.9,-146.35
52.560497,-1.489673,139.04,23.48,6,115.36,24 / 24,631109,2020-01-08 17:42:44:702,0.171,0.7161,9.7306,0.0131,-0.0236,9.8066,0.0161,0.118,-0.1316,-18.56,-34.25,13.19,333.97,-84.72,-146.89
52.560497,-1.489673,139.04,23.48,6,115.36,24 / 24,631211,2020-01-08 17:42:44:804,1.0149,0.7328,9.0908,-0.0078,0.0142,9.8065,0.0368,0.1819,-0.0094,-18.37,-33.56,13.5,335.6,-84.81,-148.99
52.560497,-1.489673,139.04,23.48,6,115.36,25 / 25,631310,2020-01-08 17:42:44:903,-1.4657,-1.6739,11.1384,-0.0085,0.0429,9.8065,-0.0892,0.2307,-0.2502,-18.69,-33.75,14.06,333.34,-84.95,-149.69
52.560497,-1.489673,139.04,23.48,6,115.36,25 / 25,631410,2020-01-08 17:42:45:003,-0.6196,1.58,9.9633,-0.0199,0.029,9.8066,-0.1086,0.1225,-0.1113,-18.69,-33.81,13.38,331.42,-84.75,-149.16
52.560497,-1.489673,139.04,23.48,6,115.36,25 / 25,631511,2020-01-08 17:42:45:104,-2.5157,-1.1856,11.8906,0.0053,0.0136,9.8066,-0.0025,0.0708,0.0725,-18.25,-33.56,13.88,334.57,-84.86,-149.93
52.560497,-1.489673,139.04,23.48,6,115.36,25 / 25,631609,2020-01-08 17:42:45:202,0.9788,2.5379,8.2127,0.0019,0.0341,9.8065,0.0586,0.057,-0.0682,-18.25,-33.75,14.06,335.59,-84.51,-148.81
52.560497,-1.489673,139.04,23.48,6,115.36,25 / 25,631709,2020-01-08 17:42:45:302,-0.6181,-0.6388,10.3933,-0.0331,0.0397,9.8065,0.042,-0.0856,0.067,-18.25,-33.75,14.13,335.63,-84.54,-148.79
52.560497,-1.489673,139.04,23.48,6,115.36,25 / 25,631810,2020-01-08 17:42:45:403,0.5865,1.4926,8.8414,-0.0232,0.0235,9.8065,-0.0265,-0.0628,0.0181,-18.69,-33.69,14,335.87,-84.55,-147.21
52.560497,-1.489673,139.04,23.48,6,115.36,25 / 25,631910,2020-01-08 17:42:45:503,-0.8766,0.0202,11.1084,-0.0174,0.0401,9.8065,0.0693,-0.2118,0.1017,-19,-33.5,13.69,335.84,-84.63,-147.38
52.560497,-1.489673,139.04,23.48,6,115.36,25 / 25,632010,2020-01-08 17:42:45:603,-0.0819,1.9735,9.7247,-0.0104,-0.0029,9.8066,0.0806,-0.218,0.0852,-18.81,-34,14.31,334.44,-84.52,-148.44
52.560497,-1.489673,139.04,23.48,6,115.36,25 / 25,632110,2020-01-08 17:42:45:703,-1.6542,0.5081,9.3783,0.009,0.0174,9.8065,-0.0606,-0.1376,0.0713,-18.69,-33.94,14.5,334.55,-84.54,-150.34
52.560497,-1.489673,139.04,23.48,6,115.36,25 / 25,632209,2020-01-08 17:42:45:802,-1.1456,-0.3623,10.0203,-0.0176,-0.004,9.8065,-0.1697,-0.1766,0.1119,-18.31,-33.44,14.5,335.05,-84.58,-151.44
52.560497,-1.489673,139.04,23.48,6,115.36,25 / 25,632310,2020-01-08 17:42:45:903,-0.0588,1.2859,10.4923,0.0186,0.0235,9.8065,0.0018,-0.1361,0.1179,-18.56,-33.69,14.81,332.25,-84.72,-152.49
52.560497,-1.489673,139.04,23.48,6,115.36,25 / 25,632409,2020-01-08 17:42:46:002,-1.111,-1.5652,9.6834,-0.0019,-0.0202,9.8066,0.0245,-0.0146,-0.0562,-18.94,-33.31,14.94,332.51,-84.71,-152.35
52.560497,-1.489673,139.04,23.48,6,115.36,25 / 25,632510,2020-01-08 17:42:46:103,-1.0789,-0.83,10.0667,-0.0124,-0.0069,9.8066,0.0857,-0.0463,0.0389,-19.44,-32.87,14.44,328.16,-84.6,-154.13
52.560497,-1.489673,139.04,23.48,6,115.36,25 / 25,632610,2020-01-08 17:42:46:203,-2.2468,0.4725,8.7838,-0.0297,-0.0014,9.8066,0.1084,0.0597,-0.0698,-20,-31.37,16.19,333.39,-84.64,-152.27
52.560497,-1.489673,139.04,23.48,6,115.36,25 / 25,632710,2020-01-08 17:42:46:303,0.8512,2.0436,10.1203,-0.0512,0.0025,9.8065,0.1332,-0.0047,-0.1334,-21.31,-29,16.13,332.51,-84.6,-151.96
52.560497,-1.489673,139.04,23.48,6,115.36,25 / 25,632809,2020-01-08 17:42:46:402,0.0988,-0.0165,10.2315,-0.0177,-0.0211,9.8066,-0.0295,0.0589,-0.0667,-22.75,-26.75,14.5,327.16,-84.59,-152.95
52.560497,-1.489673,139.04,23.48,6,115.36,25 / 25,632910,2020-01-08 17:42:46:503,-2.2788,1.3721,9.0605,0.0477,-0.0181,9.8065,-0.1228,-0.068,-0.1492,-22.37,-29.37,11.69,320.3,-84.34,-153.98
52.560497,-1.489673,139.04,23.48,6,115.36,25 / 25,633010,2020-01-08 17:42:46:603,-0.4775,-3.7201,9.1474,-0.0684,-0.0697,9.8061,0.0014,0.2034,0.227,-20.12,-31.44,11.94,314.64,-84.24,-160.72
52.560497,-1.489673,139.04,23.48,6,115.36,25 / 25,633110,2020-01-08 17:42:46:703,-4.5018,-0.669,6.5644,0.0089,0.0207,9.8066,-0.0693,0.0668,0.009,-19.81,-33.19,12.38,318.78,-84.23,-156.65
52.560497,-1.489673,139.04,23.48,6,115.36,25 / 25,633209,2020-01-08 17:42:46:802,-1.9421,-0.5272,10.5256,-0.0952,-0.0556,9.8059,0.0173,0.2286,-0.2127,-18.56,-33,13.38,330.18,-84.38,-150.07
52.560497,-1.489673,139.04,23.48,6,115.36,25 / 25,633310,2020-01-08 17:42:46:903,3.1274,2.8744,11.3883,0.0065,0.0064,9.8066,0.1493,0.3651,-0.1572,-18.31,-33.94,13.56,328.29,-84.43,-155.1
52.560497,-1.489673,139.04,23.48,6,115.36,25 / 25,633410,2020-01-08 17:42:47:003,0.2562,1.384,10.3189,-0.0662,-0.0155,9.8064,0.1125,0.3372,-0.2678,-18.25,-34,14.06,326.91,-84.29,-156.19
52.560497,-1.489673,139.04,23.48,6,115.36,25 / 25,633510,2020-01-08 17:42:47:103,1.5598,1.6648,10.9812,-0.0275,-0.0327,9.8064,0.183,0.3452,-0.268,-18,-33.37,13.94,330.62,-84.36,-153.13
52.560497,-1.489673,139.04,23.48,6,115.36,25 / 25,633610,2020-01-08 17:42:47:203,-3.8069,-1.109,7.8447,-0.0647,-0.0152,9.8063,0.2336,0.3802,-0.2857,-18.31,-33.56,14.13,329.48,-84.36,-154
52.560497,-1.489673,139.04,23.48,6,115.36,25 / 25,633710,2020-01-08 17:42:47:303,2.0541,2.9528,10.659,-0.0762,-0.0188,9.8062,0.1696,0.3527,-0.3456,-18.62,-34,14.06,332.25,-84.48,-150.32
52.560497,-1.489673,139.04,23.48,6,115.36,25 / 25,633810,2020-01-08 17:42:47:403,-1.8017,0.0936,9.0334,-0.0111,-0.0339,9.8065,0.0528,0.3154,-0.1708,-18.12,-33.19,13.56,332.18,-84.37,-151.78
52.560497,-1.489673,139.04,23.48,6,115.36,25 / 25,633910,2020-01-08 17:42:47:503,1.0598,2.7479,10.4441,-0.0393,-0.0193,9.8065,-0.0346,0.3024,-0.1338,-18.12,-33.75,14.31,332.06,-84.37,-151.77
